{
  "nodes": [
    {
      "id": "('node', 311075001)",
      "lat": 13.727977,
      "lng": 100.540875,
      "nameEn": "Lumphini Park (Gate 3)",
      "nameTh": "nan",
      "system": "BMTA",
      "color": "#FACC15",
      "source": "osm",
      "betweenness": 0.0023,
      "degree": 197
    },
    {
      "id": "('node', 373075078)",
      "lat": 13.740543,
      "lng": 100.530054,
      "nameEn": "Triam Udom Suksa School",
      "nameTh": "โรงเรียนเตรียมอุดมศึกษา",
      "system": "BMTA",
      "color": "#FACC15",
      "source": "osm",
      "betweenness": 0.0011,
      "degree": 266
    },
    {
      "id": "('node', 373075446)",
      "lat": 13.744355,
      "lng": 100.530363,
      "nameEn": "MBK Center",
      "nameTh": "มาบุญครอง",
      "system": "BMTA",
      "color": "#FACC15",
      "source": "osm",
      "betweenness": 0.001,
      "degree": 257
    },
    {
      "id": "('node', 373075506)",
      "lat": 13.738198,
      "lng": 100.529702,
      "nameEn": "Chulalongkorn University (Two Kings Monument)",
      "nameTh": "จุฬาฯ (ลานพระบรมรูป)",
      "system": "BMTA",
      "color": "#FACC15",
      "source": "osm",
      "betweenness": 0.001,
      "degree": 265
    },
    {
      "id": "('node', 373075707)",
      "lat": 13.736174,
      "lng": 100.529159,
      "nameEn": "Chulalongkorn University (Faculty of Law)",
      "nameTh": "จุฬาฯ (คณะนิติศาสตร์)",
      "system": "BMTA",
      "color": "#FACC15",
      "source": "osm",
      "betweenness": 0.0008,
      "degree": 259
    },
    {
      "id": "('node', 373075746)",
      "lat": 13.743514,
      "lng": 100.530487,
      "nameEn": "Osotsala",
      "nameTh": "โอสถศาลา",
      "system": "BMTA",
      "color": "#FACC15",
      "source": "osm",
      "betweenness": 0.0009,
      "degree": 257
    },
    {
      "id": "('node', 373076329)",
      "lat": 13.741726,
      "lng": 100.535096,
      "nameEn": "nan",
      "nameTh": "nan",
      "system": "BMTA",
      "color": "#FACC15",
      "source": "osm",
      "betweenness": 0.0012,
      "degree": 239
    },
    {
      "id": "('node', 373076348)",
      "lat": 13.739285,
      "lng": 100.534724,
      "nameEn": "Patumwan Demonstration School",
      "nameTh": "โรงเรียนสาธิต มศว ปทุมวัน",
      "system": "BMTA",
      "color": "#FACC15",
      "source": "osm",
      "betweenness": 0.0011,
      "degree": 244
    },
    {
      "id": "('node', 373076417)",
      "lat": 13.733706,
      "lng": 100.533885,
      "nameEn": "Chulalongkorn (Faculty of  Political Science)",
      "nameTh": "จุฬาฯ (คณะรัฐศาสตร์)",
      "system": "BMTA",
      "color": "#FACC15",
      "source": "osm",
      "betweenness": 0.0008,
      "degree": 233
    },
    {
      "id": "('node', 373076704)",
      "lat": 13.744697,
      "lng": 100.535583,
      "nameEn": "nan",
      "nameTh": "nan",
      "system": "BMTA",
      "color": "#FACC15",
      "source": "osm",
      "betweenness": 0.001,
      "degree": 236
    },
    {
      "id": "('node', 373077898)",
      "lat": 13.765756,
      "lng": 100.538073,
      "nameEn": "nan",
      "nameTh": "nan",
      "system": "BMTA",
      "color": "#FACC15",
      "source": "osm",
      "betweenness": 0.0019,
      "degree": 150
    },
    {
      "id": "('node', 373077912)",
      "lat": 13.764699,
      "lng": 100.537458,
      "nameEn": "Victory Monument (Ratchawithi)",
      "nameTh": "อนุสาวรีย์ชัยสมรภูมิ (เกาะราชวิถี)",
      "system": "BMTA",
      "color": "#FACC15",
      "source": "osm",
      "betweenness": 0.0015,
      "degree": 153
    },
    {
      "id": "('node', 373077947)",
      "lat": 13.764164,
      "lng": 100.538472,
      "nameEn": "nan",
      "nameTh": "อนุสาวรีย์ชัยสมรภูมิ (เกาะพญาไท)",
      "system": "BMTA",
      "color": "#FACC15",
      "source": "osm",
      "betweenness": 0.0016,
      "degree": 156
    },
    {
      "id": "('node', 373078013)",
      "lat": 13.765306,
      "lng": 100.539187,
      "nameEn": "nan",
      "nameTh": "อนุสาวรีย์ชัยสมรภูมิ (เกาะดินแดง)",
      "system": "BMTA",
      "color": "#FACC15",
      "source": "osm",
      "betweenness": 0.0018,
      "degree": 151
    },
    {
      "id": "('node', 373092732)",
      "lat": 13.733938,
      "lng": 100.538191,
      "nameEn": "nan",
      "nameTh": "nan",
      "system": "BMTA",
      "color": "#FACC15",
      "source": "osm",
      "betweenness": 0.002,
      "degree": 214
    },
    {
      "id": "('node', 373092883)",
      "lat": 13.731687,
      "lng": 100.537325,
      "nameEn": "King Chulalongkorn Memorial Hospital (Ratchadamri side)",
      "nameTh": "โรงพยาบาลจุฬาลงกรณ์ (ฝั่งราชดำริ)",
      "system": "BMTA",
      "color": "#FACC15",
      "source": "osm",
      "betweenness": 0.0024,
      "degree": 212
    },
    {
      "id": "('node', 373093873)",
      "lat": 13.732955,
      "lng": 100.538145,
      "nameEn": "nan",
      "nameTh": "nan",
      "system": "BMTA",
      "color": "#FACC15",
      "source": "osm",
      "betweenness": 0.0022,
      "degree": 212
    },
    {
      "id": "('node', 373094156)",
      "lat": 13.730522,
      "lng": 100.534756,
      "nameEn": "Chulalongkorn Hospital (Gate 1)",
      "nameTh": "รพ.จุฬาฯ (ประตู 1)",
      "system": "BMTA",
      "color": "#FACC15",
      "source": "osm",
      "betweenness": 0.0009,
      "degree": 217
    },
    {
      "id": "('node', 373097475)",
      "lat": 13.745657,
      "lng": 100.533409,
      "nameEn": "Siam Square",
      "nameTh": "สยามสแควร์",
      "system": "BMTA",
      "color": "#FACC15",
      "source": "osm",
      "betweenness": 0.0012,
      "degree": 245
    },
    {
      "id": "('node', 742013624)",
      "lat": 13.800113,
      "lng": 100.584432,
      "nameEn": "nan",
      "nameTh": "nan",
      "system": "BMTA",
      "color": "#FACC15",
      "source": "osm",
      "betweenness": 0.0078,
      "degree": 45
    },
    {
      "id": "('node', 756567965)",
      "lat": 13.956666,
      "lng": 100.526198,
      "nameEn": "nan",
      "nameTh": "nan",
      "system": "BMTA",
      "color": "#FACC15",
      "source": "osm",
      "betweenness": 0.0,
      "degree": 16
    },
    {
      "id": "('node', 891273705)",
      "lat": 13.852575,
      "lng": 100.571675,
      "nameEn": "nan",
      "nameTh": "nan",
      "system": "BMTA",
      "color": "#FACC15",
      "source": "osm",
      "betweenness": 0.0008,
      "degree": 81
    },
    {
      "id": "('node', 891276461)",
      "lat": 13.84299,
      "lng": 100.570777,
      "nameEn": "nan",
      "nameTh": "nan",
      "system": "BMTA",
      "color": "#FACC15",
      "source": "osm",
      "betweenness": 0.0005,
      "degree": 93
    },
    {
      "id": "('node', 891276465)",
      "lat": 13.842127,
      "lng": 100.576081,
      "nameEn": "nan",
      "nameTh": "nan",
      "system": "BMTA",
      "color": "#FACC15",
      "source": "osm",
      "betweenness": 0.0028,
      "degree": 89
    },
    {
      "id": "('node', 891276472)",
      "lat": 13.842786,
      "lng": 100.571926,
      "nameEn": "nan",
      "nameTh": "nan",
      "system": "BMTA",
      "color": "#FACC15",
      "source": "osm",
      "betweenness": 0.0005,
      "degree": 92
    },
    {
      "id": "('node', 891278241)",
      "lat": 13.847771,
      "lng": 100.57251,
      "nameEn": "nan",
      "nameTh": "nan",
      "system": "BMTA",
      "color": "#FACC15",
      "source": "osm",
      "betweenness": 0.001,
      "degree": 86
    },
    {
      "id": "('node', 891278687)",
      "lat": 13.846555,
      "lng": 100.570935,
      "nameEn": "nan",
      "nameTh": "nan",
      "system": "BMTA",
      "color": "#FACC15",
      "source": "osm",
      "betweenness": 0.0016,
      "degree": 87
    },
    {
      "id": "('node', 891286607)",
      "lat": 13.854925,
      "lng": 100.569235,
      "nameEn": "nan",
      "nameTh": "nan",
      "system": "BMTA",
      "color": "#FACC15",
      "source": "osm",
      "betweenness": 0.0004,
      "degree": 81
    },
    {
      "id": "('node', 893939395)",
      "lat": 13.841979,
      "lng": 100.558901,
      "nameEn": "nan",
      "nameTh": "nan",
      "system": "BMTA",
      "color": "#FACC15",
      "source": "osm",
      "betweenness": 0.0029,
      "degree": 108
    },
    {
      "id": "('node', 898449839)",
      "lat": 13.851543,
      "lng": 100.57261,
      "nameEn": "nan",
      "nameTh": "nan",
      "system": "BMTA",
      "color": "#FACC15",
      "source": "osm",
      "betweenness": 0.0009,
      "degree": 81
    },
    {
      "id": "('node', 912958429)",
      "lat": 13.851677,
      "lng": 100.565333,
      "nameEn": "Vehicle Building and Physical Plant Division",
      "nameTh": "nan",
      "system": "BMTA",
      "color": "#FACC15",
      "source": "osm",
      "betweenness": 0.0005,
      "degree": 90
    },
    {
      "id": "('node', 917014949)",
      "lat": 13.751067,
      "lng": 100.559813,
      "nameEn": "Makkasan",
      "nameTh": "มักกะสัน",
      "system": "ARL",
      "color": "#C8102E",
      "source": "osm",
      "betweenness": 0.0021,
      "degree": 123
    },
    {
      "id": "('node', 917014975)",
      "lat": 13.75683,
      "lng": 100.53449,
      "nameEn": "Phaya Thai",
      "nameTh": "พญาไท",
      "system": "ARL",
      "color": "#C8102E",
      "source": "osm",
      "betweenness": 0.0017,
      "degree": 207
    },
    {
      "id": "('node', 917014985)",
      "lat": 13.755089,
      "lng": 100.542048,
      "nameEn": "Ratchaprarop",
      "nameTh": "ราชปรารภ",
      "system": "ARL",
      "color": "#C8102E",
      "source": "osm",
      "betweenness": 0.0019,
      "degree": 184
    },
    {
      "id": "('node', 917022633)",
      "lat": 13.694843,
      "lng": 100.751388,
      "nameEn": "Suvarnabhumi",
      "nameTh": "สุวรรณภูมิ",
      "system": "ARL",
      "color": "#C8102E",
      "source": "osm",
      "betweenness": 0.0001,
      "degree": 21
    },
    {
      "id": "('node', 920556864)",
      "lat": 13.847911,
      "lng": 100.580741,
      "nameEn": "nan",
      "nameTh": "nan",
      "system": "BMTA",
      "color": "#FACC15",
      "source": "osm",
      "betweenness": 0.0043,
      "degree": 79
    },
    {
      "id": "('node', 920556867)",
      "lat": 13.845838,
      "lng": 100.579384,
      "nameEn": "nan",
      "nameTh": "nan",
      "system": "BMTA",
      "color": "#FACC15",
      "source": "osm",
      "betweenness": 0.0066,
      "degree": 82
    },
    {
      "id": "('node', 970112998)",
      "lat": 13.738017,
      "lng": 100.645262,
      "nameEn": "Hua Mak",
      "nameTh": "หัวหมาก",
      "system": "ARL",
      "color": "#C8102E",
      "source": "osm",
      "betweenness": 0.0009,
      "degree": 57
    },
    {
      "id": "('node', 970153143)",
      "lat": 13.729116,
      "lng": 100.64166,
      "nameEn": "nan",
      "nameTh": "nan",
      "system": "BMTA",
      "color": "#FACC15",
      "source": "osm",
      "betweenness": 0.0032,
      "degree": 60
    },
    {
      "id": "('node', 970154013)",
      "lat": 13.731641,
      "lng": 100.64147,
      "nameEn": "nan",
      "nameTh": "nan",
      "system": "BMTA",
      "color": "#FACC15",
      "source": "osm",
      "betweenness": 0.0012,
      "degree": 62
    },
    {
      "id": "('node', 999013479)",
      "lat": 13.743018,
      "lng": 100.599744,
      "nameEn": "Ramkhamhaeng",
      "nameTh": "รามคำแหง",
      "system": "ARL",
      "color": "#C8102E",
      "source": "osm",
      "betweenness": 0.0015,
      "degree": 56
    },
    {
      "id": "('node', 999013485)",
      "lat": 13.727645,
      "lng": 100.747833,
      "nameEn": "Lat Krabang",
      "nameTh": "ลาดกระบัง",
      "system": "ARL",
      "color": "#C8102E",
      "source": "osm",
      "betweenness": 0.002,
      "degree": 42
    },
    {
      "id": "('node', 999013489)",
      "lat": 13.73286,
      "lng": 100.690808,
      "nameEn": "Ban Thap Chang",
      "nameTh": "บ้านทับช้าง",
      "system": "ARL",
      "color": "#C8102E",
      "source": "osm",
      "betweenness": 0.0006,
      "degree": 22
    },
    {
      "id": "('node', 1063307739)",
      "lat": 13.86749,
      "lng": 100.571848,
      "nameEn": "nan",
      "nameTh": "nan",
      "system": "BMTA",
      "color": "#FACC15",
      "source": "osm",
      "betweenness": 0.0106,
      "degree": 74
    },
    {
      "id": "('node', 1094439003)",
      "lat": 13.870249,
      "lng": 100.517611,
      "nameEn": "Soi Tiwanon 27",
      "nameTh": "ซอยติวานนท์ 27",
      "system": "BMTA",
      "color": "#FACC15",
      "source": "osm",
      "betweenness": 0.0012,
      "degree": 46
    },
    {
      "id": "('node', 1094439007)",
      "lat": 13.863703,
      "lng": 100.520074,
      "nameEn": "Opposite Central Chest Institute Of Thailand",
      "nameTh": "ตรงข้ามสถาบันโรคทรวงอก",
      "system": "BMTA",
      "color": "#FACC15",
      "source": "osm",
      "betweenness": 0.0033,
      "degree": 52
    },
    {
      "id": "('node', 1133815617)",
      "lat": 13.663147,
      "lng": 100.439436,
      "nameEn": "Central Rama 2 Van-Minibus Terminal",
      "nameTh": "nan",
      "system": "BMTA",
      "color": "#FACC15",
      "source": "osm",
      "betweenness": 0.0026,
      "degree": 45
    },
    {
      "id": "('node', 1185834449)",
      "lat": 13.67205,
      "lng": 100.456011,
      "nameEn": "Bangmod Hospital",
      "nameTh": "โรงพยาบาลบางมด",
      "system": "BMTA",
      "color": "#FACC15",
      "source": "osm",
      "betweenness": 0.001,
      "degree": 46
    },
    {
      "id": "('node', 1185834466)",
      "lat": 13.673112,
      "lng": 100.456443,
      "nameEn": "Bangmod Police Station",
      "nameTh": "สน.บางมด",
      "system": "BMTA",
      "color": "#FACC15",
      "source": "osm",
      "betweenness": 0.001,
      "degree": 48
    },
    {
      "id": "('node', 1199641909)",
      "lat": 13.659873,
      "lng": 100.532667,
      "nameEn": "nan",
      "nameTh": "nan",
      "system": "BMTA",
      "color": "#FACC15",
      "source": "osm",
      "betweenness": 0.0016,
      "degree": 75
    },
    {
      "id": "('node', 1199641920)",
      "lat": 13.660341,
      "lng": 100.531283,
      "nameEn": "nan",
      "nameTh": "nan",
      "system": "BMTA",
      "color": "#FACC15",
      "source": "osm",
      "betweenness": 0.0005,
      "degree": 76
    },
    {
      "id": "('node', 1215081366)",
      "lat": 13.760896,
      "lng": 100.499415,
      "nameEn": "Sip Sam Hang (Banglamphu)",
      "nameTh": "สิบสามห้าง (บางลำพู)",
      "system": "BMTA",
      "color": "#FACC15",
      "source": "osm",
      "betweenness": 0.0007,
      "degree": 260
    },
    {
      "id": "('node', 1285518783)",
      "lat": 13.807109,
      "lng": 100.5721,
      "nameEn": "Lat Phrao (Exit 3)",
      "nameTh": "สถานีลาดพร้าว (ทางออก 3)",
      "system": "BMTA",
      "color": "#FACC15",
      "source": "osm",
      "betweenness": 0.0031,
      "degree": 80
    },
    {
      "id": "('node', 1326476361)",
      "lat": 13.66246,
      "lng": 100.440123,
      "nameEn": "Big C Rama 2",
      "nameTh": "nan",
      "system": "BMTA",
      "color": "#FACC15",
      "source": "osm",
      "betweenness": 0.0026,
      "degree": 45
    },
    {
      "id": "('node', 1342419994)",
      "lat": 13.785753,
      "lng": 100.470041,
      "nameEn": "The Trust Residence Pinklao",
      "nameTh": "nan",
      "system": "BMTA",
      "color": "#FACC15",
      "source": "osm",
      "betweenness": 0.0012,
      "degree": 62
    },
    {
      "id": "('node', 1342419997)",
      "lat": 13.7789,
      "lng": 100.476475,
      "nameEn": "nan",
      "nameTh": "nan",
      "system": "BMTA",
      "color": "#FACC15",
      "source": "osm",
      "betweenness": 0.0017,
      "degree": 90
    },
    {
      "id": "('node', 1388398890)",
      "lat": 13.910904,
      "lng": 100.538788,
      "nameEn": "nan",
      "nameTh": "nan",
      "system": "BMTA",
      "color": "#FACC15",
      "source": "osm",
      "betweenness": 0.0012,
      "degree": 48
    },
    {
      "id": "('node', 1388399020)",
      "lat": 13.902024,
      "lng": 100.535762,
      "nameEn": "Opposite Kritsada Nakhon Village",
      "nameTh": "ตรงข้ามหมู่บ้านกฤษดานคร",
      "system": "BMTA",
      "color": "#FACC15",
      "source": "osm",
      "betweenness": 0.0012,
      "degree": 44
    },
    {
      "id": "('node', 1388399184)",
      "lat": 13.902027,
      "lng": 100.538096,
      "nameEn": "nan",
      "nameTh": "nan",
      "system": "BMTA",
      "color": "#FACC15",
      "source": "osm",
      "betweenness": 0.0014,
      "degree": 45
    },
    {
      "id": "('node', 1388450632)",
      "lat": 13.90067,
      "lng": 100.538621,
      "nameEn": "nan",
      "nameTh": "nan",
      "system": "BMTA",
      "color": "#FACC15",
      "source": "osm",
      "betweenness": 0.0011,
      "degree": 44
    },
    {
      "id": "('node', 1388450635)",
      "lat": 13.899871,
      "lng": 100.540821,
      "nameEn": "nan",
      "nameTh": "nan",
      "system": "BMTA",
      "color": "#FACC15",
      "source": "osm",
      "betweenness": 0.0015,
      "degree": 45
    },
    {
      "id": "('node', 1388450640)",
      "lat": 13.90182,
      "lng": 100.53528,
      "nameEn": "Kritsada Nakhon Village",
      "nameTh": "หมู่บ้านกฤษดานคร",
      "system": "BMTA",
      "color": "#FACC15",
      "source": "osm",
      "betweenness": 0.0012,
      "degree": 44
    },
    {
      "id": "('node', 1388450657)",
      "lat": 13.776776,
      "lng": 100.531881,
      "nameEn": "nan",
      "nameTh": "nan",
      "system": "BMTA",
      "color": "#FACC15",
      "source": "osm",
      "betweenness": 0.0034,
      "degree": 156
    },
    {
      "id": "('node', 1388522936)",
      "lat": 13.766359,
      "lng": 100.535256,
      "nameEn": "nan",
      "nameTh": "nan",
      "system": "BMTA",
      "color": "#FACC15",
      "source": "osm",
      "betweenness": 0.0024,
      "degree": 160
    },
    {
      "id": "('node', 1488042703)",
      "lat": 13.710971,
      "lng": 100.408068,
      "nameEn": "The Mall Bangkae",
      "nameTh": "เดอะมอลล์บางแค",
      "system": "BMTA",
      "color": "#FACC15",
      "source": "osm",
      "betweenness": 0.0012,
      "degree": 53
    },
    {
      "id": "('node', 1488042708)",
      "lat": 13.710712,
      "lng": 100.409617,
      "nameEn": "Opposite The Mall Bangkae",
      "nameTh": "nan",
      "system": "BMTA",
      "color": "#FACC15",
      "source": "osm",
      "betweenness": 0.0017,
      "degree": 54
    },
    {
      "id": "('node', 1496826950)",
      "lat": 13.669212,
      "lng": 100.449998,
      "nameEn": "Wat Kok",
      "nameTh": "วัดกก",
      "system": "BMTA",
      "color": "#FACC15",
      "source": "osm",
      "betweenness": 0.002,
      "degree": 47
    },
    {
      "id": "('node', 1496831779)",
      "lat": 13.666133,
      "lng": 100.44486,
      "nameEn": "Chao Mae Chong Ang Shrine",
      "nameTh": "ศาลเจ้าแม่จงอาง",
      "system": "BMTA",
      "color": "#FACC15",
      "source": "osm",
      "betweenness": 0.0019,
      "degree": 47
    },
    {
      "id": "('node', 1513874782)",
      "lat": 13.667013,
      "lng": 100.447648,
      "nameEn": "Wat Lao",
      "nameTh": "วัดเลา",
      "system": "BMTA",
      "color": "#FACC15",
      "source": "osm",
      "betweenness": 0.0028,
      "degree": 47
    },
    {
      "id": "('node', 1513879727)",
      "lat": 13.66883,
      "lng": 100.450661,
      "nameEn": "Anamai Ngam Charoen Road",
      "nameTh": "ถนนอนามัยงามเจริญ",
      "system": "BMTA",
      "color": "#FACC15",
      "source": "osm",
      "betweenness": 0.0014,
      "degree": 45
    },
    {
      "id": "('node', 1517938642)",
      "lat": 13.85771,
      "lng": 100.531551,
      "nameEn": "nan",
      "nameTh": "nan",
      "system": "BMTA",
      "color": "#FACC15",
      "source": "osm",
      "betweenness": 0.0025,
      "degree": 53
    },
    {
      "id": "('node', 1517938659)",
      "lat": 13.86102,
      "lng": 100.509202,
      "nameEn": "Soi Rattanathibet 18",
      "nameTh": "ซอยรัตนาธิเบศร์ 18",
      "system": "BMTA",
      "color": "#FACC15",
      "source": "osm",
      "betweenness": 0.0021,
      "degree": 69
    },
    {
      "id": "('node', 1517938662)",
      "lat": 13.861697,
      "lng": 100.503627,
      "nameEn": "Big C Rattanathibeth 2",
      "nameTh": "Big C รัตนาธิเบศร์ 2",
      "system": "BMTA",
      "color": "#FACC15",
      "source": "osm",
      "betweenness": 0.0005,
      "degree": 78
    },
    {
      "id": "('node', 1517938687)",
      "lat": 13.869124,
      "lng": 100.518348,
      "nameEn": "Soi Tiwanon 34",
      "nameTh": "ซอยติวานนท์ 34",
      "system": "BMTA",
      "color": "#FACC15",
      "source": "osm",
      "betweenness": 0.0021,
      "degree": 48
    },
    {
      "id": "('node', 1678110924)",
      "lat": 13.726826,
      "lng": 100.595993,
      "nameEn": "nan",
      "nameTh": "nan",
      "system": "BMTA",
      "color": "#FACC15",
      "source": "osm",
      "betweenness": 0.0139,
      "degree": 71
    },
    {
      "id": "('node', 1681039896)",
      "lat": 13.696353,
      "lng": 100.545366,
      "nameEn": "Nararam 3",
      "nameTh": "nan",
      "system": "BRT",
      "color": "#F97316",
      "source": "osm",
      "betweenness": 0.0009,
      "degree": 68
    },
    {
      "id": "('node', 1683082700)",
      "lat": 13.710822,
      "lng": 100.751907,
      "nameEn": "nan",
      "nameTh": "nan",
      "system": "BMTA",
      "color": "#FACC15",
      "source": "osm",
      "betweenness": 0.0009,
      "degree": 39
    },
    {
      "id": "('node', 1687380302)",
      "lat": 13.696664,
      "lng": 100.407758,
      "nameEn": "Bangkhae District Office",
      "nameTh": "nan",
      "system": "BMTA",
      "color": "#FACC15",
      "source": "osm",
      "betweenness": 0.0003,
      "degree": 43
    },
    {
      "id": "('node', 1687409013)",
      "lat": 13.688534,
      "lng": 100.407609,
      "nameEn": "Soi Nong Yai",
      "nameTh": "nan",
      "system": "BMTA",
      "color": "#FACC15",
      "source": "osm",
      "betweenness": 0.001,
      "degree": 31
    },
    {
      "id": "('node', 1699230671)",
      "lat": 13.803768,
      "lng": 100.554119,
      "nameEn": "nan",
      "nameTh": "nan",
      "system": "BMTA",
      "color": "#FACC15",
      "source": "osm",
      "betweenness": 0.0025,
      "degree": 116
    },
    {
      "id": "('node', 1699503338)",
      "lat": 13.740155,
      "lng": 100.497847,
      "nameEn": "nan",
      "nameTh": "nan",
      "system": "BMTA",
      "color": "#FACC15",
      "source": "osm",
      "betweenness": 0.0011,
      "degree": 254
    },
    {
      "id": "('node', 1700533149)",
      "lat": 13.731638,
      "lng": 100.532099,
      "nameEn": "QSMI (Snake Farm)",
      "nameTh": "สถานเสาวภา",
      "system": "BMTA",
      "color": "#FACC15",
      "source": "osm",
      "betweenness": 0.0007,
      "degree": 233
    },
    {
      "id": "('node', 1714885817)",
      "lat": 13.766924,
      "lng": 100.527648,
      "nameEn": "nan",
      "nameTh": "nan",
      "system": "BMTA",
      "color": "#FACC15",
      "source": "osm",
      "betweenness": 0.0027,
      "degree": 203
    },
    {
      "id": "('node', 1726324367)",
      "lat": 13.717,
      "lng": 100.532572,
      "nameEn": "nan",
      "nameTh": "nan",
      "system": "BMTA",
      "color": "#FACC15",
      "source": "osm",
      "betweenness": 0.002,
      "degree": 171
    },
    {
      "id": "('node', 1757524333)",
      "lat": 13.75119,
      "lng": 100.508331,
      "nameEn": "nan",
      "nameTh": "nan",
      "system": "BMTA",
      "color": "#FACC15",
      "source": "osm",
      "betweenness": 0.0011,
      "degree": 309
    },
    {
      "id": "('node', 1761846515)",
      "lat": 13.724796,
      "lng": 100.523467,
      "nameEn": "Opposite Wat Khaek",
      "nameTh": "ตรงข้ามวัดแขก",
      "system": "BMTA",
      "color": "#FACC15",
      "source": "osm",
      "betweenness": 0.0021,
      "degree": 228
    },
    {
      "id": "('node', 1841095270)",
      "lat": 13.664785,
      "lng": 100.406006,
      "nameEn": "Opposite Bangbon Ville Village",
      "nameTh": "nan",
      "system": "BMTA",
      "color": "#FACC15",
      "source": "osm",
      "betweenness": 0.0008,
      "degree": 45
    },
    {
      "id": "('node', 1848979366)",
      "lat": 13.910172,
      "lng": 100.506591,
      "nameEn": "nan",
      "nameTh": "nan",
      "system": "BMTA",
      "color": "#FACC15",
      "source": "osm",
      "betweenness": 0.0029,
      "degree": 44
    },
    {
      "id": "('node', 1848979400)",
      "lat": 13.911507,
      "lng": 100.50823,
      "nameEn": "nan",
      "nameTh": "nan",
      "system": "BMTA",
      "color": "#FACC15",
      "source": "osm",
      "betweenness": 0.0003,
      "degree": 43
    },
    {
      "id": "('node', 1848979466)",
      "lat": 13.912819,
      "lng": 100.509774,
      "nameEn": "nan",
      "nameTh": "nan",
      "system": "BMTA",
      "color": "#FACC15",
      "source": "osm",
      "betweenness": 0.0001,
      "degree": 41
    },
    {
      "id": "('node', 1848979584)",
      "lat": 13.914425,
      "lng": 100.51172,
      "nameEn": "nan",
      "nameTh": "nan",
      "system": "BMTA",
      "color": "#FACC15",
      "source": "osm",
      "betweenness": 0.0003,
      "degree": 40
    },
    {
      "id": "('node', 1848979810)",
      "lat": 13.91857,
      "lng": 100.516681,
      "nameEn": "nan",
      "nameTh": "nan",
      "system": "BMTA",
      "color": "#FACC15",
      "source": "osm",
      "betweenness": 0.0012,
      "degree": 46
    },
    {
      "id": "('node', 1848979930)",
      "lat": 13.919308,
      "lng": 100.517594,
      "nameEn": "nan",
      "nameTh": "nan",
      "system": "BMTA",
      "color": "#FACC15",
      "source": "osm",
      "betweenness": 0.0007,
      "degree": 46
    },
    {
      "id": "('node', 1848980212)",
      "lat": 13.924307,
      "lng": 100.523541,
      "nameEn": "nan",
      "nameTh": "nan",
      "system": "BMTA",
      "color": "#FACC15",
      "source": "osm",
      "betweenness": 0.0001,
      "degree": 32
    },
    {
      "id": "('node', 1848980303)",
      "lat": 13.925022,
      "lng": 100.524431,
      "nameEn": "nan",
      "nameTh": "nan",
      "system": "BMTA",
      "color": "#FACC15",
      "source": "osm",
      "betweenness": 0.0001,
      "degree": 32
    },
    {
      "id": "('node', 1848980768)",
      "lat": 13.930487,
      "lng": 100.530981,
      "nameEn": "nan",
      "nameTh": "nan",
      "system": "BMTA",
      "color": "#FACC15",
      "source": "osm",
      "betweenness": 0.0006,
      "degree": 31
    },
    {
      "id": "('node', 1859232646)",
      "lat": 13.910176,
      "lng": 100.548164,
      "nameEn": "nan",
      "nameTh": "nan",
      "system": "BMTA",
      "color": "#FACC15",
      "source": "osm",
      "betweenness": 0.0001,
      "degree": 36
    },
    {
      "id": "('node', 1870259848)",
      "lat": 13.869505,
      "lng": 100.592398,
      "nameEn": "Bang Khen Bus Depot",
      "nameTh": "กลุ่มปฏิบัติการเดินรถที่ 1 เขตการเดินรถที่ 1 (อู่บางเขน)",
      "system": "BMTA",
      "color": "#FACC15",
      "source": "osm",
      "betweenness": 0.0033,
      "degree": 49
    },
    {
      "id": "('node', 1870963045)",
      "lat": 13.712411,
      "lng": 100.430185,
      "nameEn": "nan",
      "nameTh": "nan",
      "system": "BMTA",
      "color": "#FACC15",
      "source": "osm",
      "betweenness": 0.0021,
      "degree": 41
    },
    {
      "id": "('node', 1872495172)",
      "lat": 13.713472,
      "lng": 100.439721,
      "nameEn": "nan",
      "nameTh": "nan",
      "system": "BMTA",
      "color": "#FACC15",
      "source": "osm",
      "betweenness": 0.004,
      "degree": 54
    },
    {
      "id": "('node', 1874206342)",
      "lat": 13.714408,
      "lng": 100.442657,
      "nameEn": "nan",
      "nameTh": "nan",
      "system": "BMTA",
      "color": "#FACC15",
      "source": "osm",
      "betweenness": 0.0009,
      "degree": 53
    },
    {
      "id": "('node', 1875853313)",
      "lat": 13.71511,
      "lng": 100.444762,
      "nameEn": "nan",
      "nameTh": "nan",
      "system": "BMTA",
      "color": "#FACC15",
      "source": "osm",
      "betweenness": 0.0025,
      "degree": 59
    },
    {
      "id": "('node', 1881948824)",
      "lat": 13.716183,
      "lng": 100.448053,
      "nameEn": "nan",
      "nameTh": "nan",
      "system": "BMTA",
      "color": "#FACC15",
      "source": "osm",
      "betweenness": 0.0019,
      "degree": 70
    },
    {
      "id": "('node', 1881974900)",
      "lat": 13.716864,
      "lng": 100.450135,
      "nameEn": "nan",
      "nameTh": "nan",
      "system": "BMTA",
      "color": "#FACC15",
      "source": "osm",
      "betweenness": 0.0022,
      "degree": 78
    },
    {
      "id": "('node', 1881980109)",
      "lat": 13.717648,
      "lng": 100.452455,
      "nameEn": "nan",
      "nameTh": "nan",
      "system": "BMTA",
      "color": "#FACC15",
      "source": "osm",
      "betweenness": 0.0025,
      "degree": 81
    },
    {
      "id": "('node', 1882193137)",
      "lat": 13.718624,
      "lng": 100.454392,
      "nameEn": "nan",
      "nameTh": "nan",
      "system": "BMTA",
      "color": "#FACC15",
      "source": "osm",
      "betweenness": 0.0013,
      "degree": 87
    },
    {
      "id": "('node', 1883376876)",
      "lat": 13.719606,
      "lng": 100.455516,
      "nameEn": "nan",
      "nameTh": "nan",
      "system": "BMTA",
      "color": "#FACC15",
      "source": "osm",
      "betweenness": 0.0029,
      "degree": 92
    },
    {
      "id": "('node', 1883392978)",
      "lat": 13.718656,
      "lng": 100.453826,
      "nameEn": "nan",
      "nameTh": "nan",
      "system": "BMTA",
      "color": "#FACC15",
      "source": "osm",
      "betweenness": 0.0007,
      "degree": 80
    },
    {
      "id": "('node', 1923119671)",
      "lat": 13.716271,
      "lng": 100.44729,
      "nameEn": "nan",
      "nameTh": "nan",
      "system": "BMTA",
      "color": "#FACC15",
      "source": "osm",
      "betweenness": 0.0034,
      "degree": 62
    },
    {
      "id": "('node', 1941424867)",
      "lat": 13.747032,
      "lng": 100.540766,
      "nameEn": "Big C Rajdamri",
      "nameTh": "บิ๊กซีราชดำริ",
      "system": "BMTA",
      "color": "#FACC15",
      "source": "osm",
      "betweenness": 0.0022,
      "degree": 217
    },
    {
      "id": "('node', 1942406624)",
      "lat": 13.657006,
      "lng": 100.642388,
      "nameEn": "nan",
      "nameTh": "nan",
      "system": "BMTA",
      "color": "#FACC15",
      "source": "osm",
      "betweenness": 0.0042,
      "degree": 40
    },
    {
      "id": "('node', 1949017149)",
      "lat": 13.644948,
      "lng": 100.680248,
      "nameEn": "nan",
      "nameTh": "nan",
      "system": "BMTA",
      "color": "#FACC15",
      "source": "osm",
      "betweenness": 0.0,
      "degree": 24
    },
    {
      "id": "('node', 1958715645)",
      "lat": 13.906177,
      "lng": 100.520208,
      "nameEn": "nan",
      "nameTh": "nan",
      "system": "BMTA",
      "color": "#FACC15",
      "source": "osm",
      "betweenness": 0.0002,
      "degree": 42
    },
    {
      "id": "('node', 1958715663)",
      "lat": 13.80393,
      "lng": 100.577299,
      "nameEn": "nan",
      "nameTh": "nan",
      "system": "BMTA",
      "color": "#FACC15",
      "source": "osm",
      "betweenness": 0.0027,
      "degree": 71
    },
    {
      "id": "('node', 1971275773)",
      "lat": 13.714573,
      "lng": 100.44218,
      "nameEn": "nan",
      "nameTh": "nan",
      "system": "BMTA",
      "color": "#FACC15",
      "source": "osm",
      "betweenness": 0.0031,
      "degree": 55
    },
    {
      "id": "('node', 1971354187)",
      "lat": 13.904391,
      "lng": 100.528923,
      "nameEn": "Opposite Central Chaengwattana",
      "nameTh": "ฝั่งตรงข้าม เซ็นทรัล แจ้งวัฒนะ",
      "system": "BMTA",
      "color": "#FACC15",
      "source": "osm",
      "betweenness": 0.003,
      "degree": 44
    },
    {
      "id": "('node', 1971354195)",
      "lat": 13.90442,
      "lng": 100.527848,
      "nameEn": "Central Chaengwattana",
      "nameTh": "เซ็นทรัล แจ้งวัฒนะ",
      "system": "BMTA",
      "color": "#FACC15",
      "source": "osm",
      "betweenness": 0.0021,
      "degree": 47
    },
    {
      "id": "('node', 1971744927)",
      "lat": 13.642025,
      "lng": 100.635538,
      "nameEn": "nan",
      "nameTh": "nan",
      "system": "BMTA",
      "color": "#FACC15",
      "source": "osm",
      "betweenness": 0.0004,
      "degree": 25
    },
    {
      "id": "('node', 1971812117)",
      "lat": 13.662687,
      "lng": 100.657473,
      "nameEn": "nan",
      "nameTh": "nan",
      "system": "BMTA",
      "color": "#FACC15",
      "source": "osm",
      "betweenness": 0.0005,
      "degree": 36
    },
    {
      "id": "('node', 2049987099)",
      "lat": 13.915999,
      "lng": 100.513998,
      "nameEn": "nan",
      "nameTh": "nan",
      "system": "BMTA",
      "color": "#FACC15",
      "source": "osm",
      "betweenness": 0.001,
      "degree": 43
    },
    {
      "id": "('node', 2049987116)",
      "lat": 13.921107,
      "lng": 100.520169,
      "nameEn": "nan",
      "nameTh": "nan",
      "system": "BMTA",
      "color": "#FACC15",
      "source": "osm",
      "betweenness": 0.0001,
      "degree": 36
    },
    {
      "id": "('node', 2049987584)",
      "lat": 13.928017,
      "lng": 100.528019,
      "nameEn": "nan",
      "nameTh": "nan",
      "system": "BMTA",
      "color": "#FACC15",
      "source": "osm",
      "betweenness": 0.0002,
      "degree": 31
    },
    {
      "id": "('node', 2049987630)",
      "lat": 13.929725,
      "lng": 100.530469,
      "nameEn": "nan",
      "nameTh": "nan",
      "system": "BMTA",
      "color": "#FACC15",
      "source": "osm",
      "betweenness": 0.0006,
      "degree": 31
    },
    {
      "id": "('node', 2049987769)",
      "lat": 13.936972,
      "lng": 100.539146,
      "nameEn": "nan",
      "nameTh": "nan",
      "system": "BMTA",
      "color": "#FACC15",
      "source": "osm",
      "betweenness": 0.0008,
      "degree": 34
    },
    {
      "id": "('node', 2056932243)",
      "lat": 13.713459,
      "lng": 100.438792,
      "nameEn": "nan",
      "nameTh": "nan",
      "system": "BMTA",
      "color": "#FACC15",
      "source": "osm",
      "betweenness": 0.004,
      "degree": 54
    },
    {
      "id": "('node', 2078458964)",
      "lat": 13.712982,
      "lng": 100.433916,
      "nameEn": "Opposite Seacon Bangkhae",
      "nameTh": "nan",
      "system": "BMTA",
      "color": "#FACC15",
      "source": "osm",
      "betweenness": 0.0026,
      "degree": 43
    },
    {
      "id": "('node', 2078461316)",
      "lat": 13.7131,
      "lng": 100.435824,
      "nameEn": "nan",
      "nameTh": "nan",
      "system": "BMTA",
      "color": "#FACC15",
      "source": "osm",
      "betweenness": 0.0037,
      "degree": 45
    },
    {
      "id": "('node', 2084106266)",
      "lat": 13.711671,
      "lng": 100.417205,
      "nameEn": "nan",
      "nameTh": "nan",
      "system": "BMTA",
      "color": "#FACC15",
      "source": "osm",
      "betweenness": 0.0039,
      "degree": 47
    },
    {
      "id": "('node', 2089581614)",
      "lat": 13.721095,
      "lng": 100.53054,
      "nameEn": "nan",
      "nameTh": "nan",
      "system": "BMTA",
      "color": "#FACC15",
      "source": "osm",
      "betweenness": 0.0011,
      "degree": 199
    },
    {
      "id": "('node', 2090403330)",
      "lat": 13.690275,
      "lng": 100.504196,
      "nameEn": "Charoenrat",
      "nameTh": "nan",
      "system": "BRT",
      "color": "#F97316",
      "source": "osm",
      "betweenness": 0.0015,
      "degree": 107
    },
    {
      "id": "('node', 2090403344)",
      "lat": 13.693935,
      "lng": 100.500072,
      "nameEn": "Rama III Bridge",
      "nameTh": "nan",
      "system": "BRT",
      "color": "#F97316",
      "source": "osm",
      "betweenness": 0.001,
      "degree": 107
    },
    {
      "id": "('node', 2090403349)",
      "lat": 13.688201,
      "lng": 100.515458,
      "nameEn": "Rama IX Bridge",
      "nameTh": "nan",
      "system": "BRT",
      "color": "#F97316",
      "source": "osm",
      "betweenness": 0.0016,
      "degree": 107
    },
    {
      "id": "('node', 2090403355)",
      "lat": 13.674234,
      "lng": 100.54316,
      "nameEn": "Wat Dan",
      "nameTh": "nan",
      "system": "BRT",
      "color": "#F97316",
      "source": "osm",
      "betweenness": 0.0013,
      "degree": 74
    },
    {
      "id": "('node', 2090403361)",
      "lat": 13.682389,
      "lng": 100.525377,
      "nameEn": "Wat Dokmai",
      "nameTh": "nan",
      "system": "BRT",
      "color": "#F97316",
      "source": "osm",
      "betweenness": 0.0028,
      "degree": 97
    },
    {
      "id": "('node', 2090403366)",
      "lat": 13.674688,
      "lng": 100.534261,
      "nameEn": "Wat Priwat",
      "nameTh": "nan",
      "system": "BRT",
      "color": "#F97316",
      "source": "osm",
      "betweenness": 0.0009,
      "degree": 95
    },
    {
      "id": "('node', 2093337357)",
      "lat": 13.780513,
      "lng": 100.430969,
      "nameEn": "nan",
      "nameTh": "nan",
      "system": "BMTA",
      "color": "#FACC15",
      "source": "osm",
      "betweenness": 0.0019,
      "degree": 42
    },
    {
      "id": "('node', 2093901408)",
      "lat": 13.715892,
      "lng": 100.47895,
      "nameEn": "Ratchaphruek",
      "nameTh": "nan",
      "system": "BRT",
      "color": "#F97316",
      "source": "osm",
      "betweenness": 0.0008,
      "degree": 123
    },
    {
      "id": "('node', 2094286023)",
      "lat": 13.779837,
      "lng": 100.437622,
      "nameEn": "nan",
      "nameTh": "nan",
      "system": "BMTA",
      "color": "#FACC15",
      "source": "osm",
      "betweenness": 0.0007,
      "degree": 42
    },
    {
      "id": "('node', 2103969365)",
      "lat": 13.703507,
      "lng": 100.503948,
      "nameEn": "Asiatique The Riverfront",
      "nameTh": "เอเชียทีค เดอะ ริเวอร์ฟร้อนท์",
      "system": "BMTA",
      "color": "#FACC15",
      "source": "osm",
      "betweenness": 0.0018,
      "degree": 107
    },
    {
      "id": "('node', 2110817773)",
      "lat": 13.749675,
      "lng": 100.542435,
      "nameEn": "nan",
      "nameTh": "nan",
      "system": "BMTA",
      "color": "#FACC15",
      "source": "osm",
      "betweenness": 0.002,
      "degree": 209
    },
    {
      "id": "('node', 2113816693)",
      "lat": 13.743836,
      "lng": 100.545275,
      "nameEn": "Central Chit Lom",
      "nameTh": "เซ็นทรัล ชิดลม",
      "system": "BMTA",
      "color": "#FACC15",
      "source": "osm",
      "betweenness": 0.002,
      "degree": 207
    },
    {
      "id": "('node', 2118959609)",
      "lat": 13.68937,
      "lng": 100.431703,
      "nameEn": "nan",
      "nameTh": "nan",
      "system": "BMTA",
      "color": "#FACC15",
      "source": "osm",
      "betweenness": 0.0008,
      "degree": 38
    },
    {
      "id": "('node', 2165099011)",
      "lat": 13.615701,
      "lng": 100.655811,
      "nameEn": "nan",
      "nameTh": "nan",
      "system": "BMTA",
      "color": "#FACC15",
      "source": "osm",
      "betweenness": 0.0,
      "degree": 6
    },
    {
      "id": "('node', 2171213318)",
      "lat": 13.633421,
      "lng": 100.710998,
      "nameEn": "Home Pro Bang Phli",
      "nameTh": "โฮมโปรบางพลี",
      "system": "BMTA",
      "color": "#FACC15",
      "source": "osm",
      "betweenness": 0.0,
      "degree": 3
    },
    {
      "id": "('node', 2171213990)",
      "lat": 13.634173,
      "lng": 100.711362,
      "nameEn": "nan",
      "nameTh": "nan",
      "system": "BMTA",
      "color": "#FACC15",
      "source": "osm",
      "betweenness": 0.0,
      "degree": 3
    },
    {
      "id": "('node', 2180464674)",
      "lat": 13.911714,
      "lng": 100.497543,
      "nameEn": "Pak Kret Secondary School",
      "nameTh": "โรงเรียนปากเกร็ด",
      "system": "BMTA",
      "color": "#FACC15",
      "source": "osm",
      "betweenness": 0.0001,
      "degree": 37
    },
    {
      "id": "('node', 2180464899)",
      "lat": 13.913858,
      "lng": 100.495544,
      "nameEn": "nan",
      "nameTh": "nan",
      "system": "BMTA",
      "color": "#FACC15",
      "source": "osm",
      "betweenness": 0.0,
      "degree": 35
    },
    {
      "id": "('node', 2184393450)",
      "lat": 13.908172,
      "lng": 100.502913,
      "nameEn": "Opposite Major Pak Kret",
      "nameTh": "ตรงข้ามเมเจอร์ปากเกร็ด",
      "system": "BMTA",
      "color": "#FACC15",
      "source": "osm",
      "betweenness": 0.0003,
      "degree": 42
    },
    {
      "id": "('node', 2203069382)",
      "lat": 13.751394,
      "lng": 100.531615,
      "nameEn": "nan",
      "nameTh": "nan",
      "system": "BMTA",
      "color": "#FACC15",
      "source": "osm",
      "betweenness": 0.0022,
      "degree": 246
    },
    {
      "id": "('node', 2203069384)",
      "lat": 13.760022,
      "lng": 100.51764,
      "nameEn": "nan",
      "nameTh": "nan",
      "system": "BMTA",
      "color": "#FACC15",
      "source": "osm",
      "betweenness": 0.0015,
      "degree": 280
    },
    {
      "id": "('node', 2203069385)",
      "lat": 13.763951,
      "lng": 100.512886,
      "nameEn": "nan",
      "nameTh": "nan",
      "system": "BMTA",
      "color": "#FACC15",
      "source": "osm",
      "betweenness": 0.0008,
      "degree": 247
    },
    {
      "id": "('node', 2203069386)",
      "lat": 13.765463,
      "lng": 100.511112,
      "nameEn": "nan",
      "nameTh": "nan",
      "system": "BMTA",
      "color": "#FACC15",
      "source": "osm",
      "betweenness": 0.0007,
      "degree": 237
    },
    {
      "id": "('node', 2203069387)",
      "lat": 13.767176,
      "lng": 100.50919,
      "nameEn": "nan",
      "nameTh": "nan",
      "system": "BMTA",
      "color": "#FACC15",
      "source": "osm",
      "betweenness": 0.0009,
      "degree": 228
    },
    {
      "id": "('node', 2203069923)",
      "lat": 13.746022,
      "lng": 100.513275,
      "nameEn": "Wat Plubplachai School",
      "nameTh": "โรงเรียนวัดพลับพลาชัย",
      "system": "BMTA",
      "color": "#FACC15",
      "source": "osm",
      "betweenness": 0.0015,
      "degree": 318
    },
    {
      "id": "('node', 2203069924)",
      "lat": 13.747245,
      "lng": 100.509244,
      "nameEn": "nan",
      "nameTh": "nan",
      "system": "BMTA",
      "color": "#FACC15",
      "source": "osm",
      "betweenness": 0.0016,
      "degree": 324
    },
    {
      "id": "('node', 2203069925)",
      "lat": 13.749393,
      "lng": 100.507489,
      "nameEn": "Worachak Market",
      "nameTh": "ตลาดวรจักร",
      "system": "BMTA",
      "color": "#FACC15",
      "source": "osm",
      "betweenness": 0.0014,
      "degree": 310
    },
    {
      "id": "('node', 2203069926)",
      "lat": 13.752818,
      "lng": 100.509039,
      "nameEn": "nan",
      "nameTh": "nan",
      "system": "BMTA",
      "color": "#FACC15",
      "source": "osm",
      "betweenness": 0.0011,
      "degree": 303
    },
    {
      "id": "('node', 2203069927)",
      "lat": 13.755484,
      "lng": 100.509444,
      "nameEn": "8, 15, 47, 49",
      "nameTh": "nan",
      "system": "BMTA",
      "color": "#FACC15",
      "source": "osm",
      "betweenness": 0.0012,
      "degree": 303
    },
    {
      "id": "('node', 2203069928)",
      "lat": 13.756301,
      "lng": 100.506975,
      "nameEn": "Phan Fa Pier",
      "nameTh": "ท่าเรือผ่านฟ้า",
      "system": "BMTA",
      "color": "#FACC15",
      "source": "osm",
      "betweenness": 0.0007,
      "degree": 290
    },
    {
      "id": "('node', 2214834032)",
      "lat": 13.710762,
      "lng": 100.769012,
      "nameEn": "Suvarnabhumi Bus Terminal",
      "nameTh": "สนามบินสุวรรณภูมิ (ศูนย์การขนส่งสาธารณะ)",
      "system": "ARL",
      "color": "#C8102E",
      "source": "osm",
      "betweenness": 0.0001,
      "degree": 39
    },
    {
      "id": "('node', 2383979218)",
      "lat": 13.774719,
      "lng": 100.482872,
      "nameEn": "nan",
      "nameTh": "nan",
      "system": "BMTA",
      "color": "#FACC15",
      "source": "osm",
      "betweenness": 0.0012,
      "degree": 133
    },
    {
      "id": "('node', 2383981596)",
      "lat": 13.775157,
      "lng": 100.483543,
      "nameEn": "nan",
      "nameTh": "nan",
      "system": "BMTA",
      "color": "#FACC15",
      "source": "osm",
      "betweenness": 0.0014,
      "degree": 135
    },
    {
      "id": "('node', 2384128440)",
      "lat": 13.778011,
      "lng": 100.477745,
      "nameEn": "nan",
      "nameTh": "nan",
      "system": "BMTA",
      "color": "#FACC15",
      "source": "osm",
      "betweenness": 0.0009,
      "degree": 96
    },
    {
      "id": "('node', 2391364883)",
      "lat": 13.75721,
      "lng": 100.536654,
      "nameEn": "nan",
      "nameTh": "nan",
      "system": "BMTA",
      "color": "#FACC15",
      "source": "osm",
      "betweenness": 0.0009,
      "degree": 190
    },
    {
      "id": "('node', 2430549368)",
      "lat": 13.762015,
      "lng": 100.493339,
      "nameEn": "nan",
      "nameTh": "nan",
      "system": "BMTA",
      "color": "#FACC15",
      "source": "osm",
      "betweenness": 0.0009,
      "degree": 250
    },
    {
      "id": "('node', 2430549415)",
      "lat": 13.762833,
      "lng": 100.494395,
      "nameEn": "Phra Athit (Phra Arthit Pier)",
      "nameTh": "พระอาทิตย์ (ท่าพระอาทิตย์)",
      "system": "BMTA",
      "color": "#FACC15",
      "source": "osm",
      "betweenness": 0.0011,
      "degree": 251
    },
    {
      "id": "('node', 2430684716)",
      "lat": 13.756808,
      "lng": 100.500132,
      "nameEn": "After Democracy Monument",
      "nameTh": "หลังอนุสาวรีย์ประชาธิปไตย",
      "system": "BMTA",
      "color": "#FACC15",
      "source": "osm",
      "betweenness": 0.0006,
      "degree": 264
    },
    {
      "id": "('node', 2430684754)",
      "lat": 13.757267,
      "lng": 100.500257,
      "nameEn": "Ratchadamnoen (Before Democracy Monument)",
      "nameTh": "ราชดำเนิน (ก่อนอนุสาวรีย์ประชาธิปไตย)",
      "system": "BMTA",
      "color": "#FACC15",
      "source": "osm",
      "betweenness": 0.0004,
      "degree": 259
    },
    {
      "id": "('node', 2430684774)",
      "lat": 13.7578,
      "lng": 100.497612,
      "nameEn": "Lottery Division",
      "nameTh": "กองสลาก",
      "system": "BMTA",
      "color": "#FACC15",
      "source": "osm",
      "betweenness": 0.0007,
      "degree": 256
    },
    {
      "id": "('node', 2430684782)",
      "lat": 13.7607,
      "lng": 100.496734,
      "nameEn": "Chakrabongse (Khaosan)",
      "nameTh": "จักรพงษ์ (ข้าวสาร)",
      "system": "BMTA",
      "color": "#FACC15",
      "source": "osm",
      "betweenness": 0.001,
      "degree": 257
    },
    {
      "id": "('node', 2430684786)",
      "lat": 13.762676,
      "lng": 100.497386,
      "nameEn": "Phra Sumen (After Bang Lamphu Int)",
      "nameTh": "พระสุเมรุ (หลังแยกบางลำพู)",
      "system": "BMTA",
      "color": "#FACC15",
      "source": "osm",
      "betweenness": 0.0009,
      "degree": 259
    },
    {
      "id": "('node', 2430684790)",
      "lat": 13.763194,
      "lng": 100.495023,
      "nameEn": "nan",
      "nameTh": "nan",
      "system": "BMTA",
      "color": "#FACC15",
      "source": "osm",
      "betweenness": 0.0011,
      "degree": 252
    },
    {
      "id": "('node', 2453864653)",
      "lat": 13.731797,
      "lng": 100.586861,
      "nameEn": "nan",
      "nameTh": "nan",
      "system": "BMTA",
      "color": "#FACC15",
      "source": "osm",
      "betweenness": 0.0021,
      "degree": 76
    },
    {
      "id": "('node', 2461430168)",
      "lat": 13.895487,
      "lng": 100.553303,
      "nameEn": "nan",
      "nameTh": "nan",
      "system": "BMTA",
      "color": "#FACC15",
      "source": "osm",
      "betweenness": 0.0047,
      "degree": 49
    },
    {
      "id": "('node', 2461430185)",
      "lat": 13.896569,
      "lng": 100.550227,
      "nameEn": "nan",
      "nameTh": "nan",
      "system": "BMTA",
      "color": "#FACC15",
      "source": "osm",
      "betweenness": 0.0069,
      "degree": 50
    },
    {
      "id": "('node', 2562806666)",
      "lat": 13.738885,
      "lng": 100.517112,
      "nameEn": "nan",
      "nameTh": "nan",
      "system": "BMTA",
      "color": "#FACC15",
      "source": "osm",
      "betweenness": 0.0012,
      "degree": 309
    },
    {
      "id": "('node', 2562806671)",
      "lat": 13.74995,
      "lng": 100.516906,
      "nameEn": "nan",
      "nameTh": "ตรงข้ามโรงพยาบาลหัวเฉียว",
      "system": "BMTA",
      "color": "#FACC15",
      "source": "osm",
      "betweenness": 0.0011,
      "degree": 309
    },
    {
      "id": "('node', 2562806676)",
      "lat": 13.751945,
      "lng": 100.517117,
      "nameEn": "Opposite Anantanak Road",
      "nameTh": "ตรงข้ามถนนอนันตนาค",
      "system": "BMTA",
      "color": "#FACC15",
      "source": "osm",
      "betweenness": 0.0016,
      "degree": 311
    },
    {
      "id": "('node', 2619798337)",
      "lat": 13.768827,
      "lng": 100.503041,
      "nameEn": "32, 49",
      "nameTh": "สามเสน (ตลาดรวมยาง)",
      "system": "BMTA",
      "color": "#FACC15",
      "source": "osm",
      "betweenness": 0.0007,
      "degree": 228
    },
    {
      "id": "('node', 2620924878)",
      "lat": 13.768721,
      "lng": 100.504611,
      "nameEn": "Krung Kasem Road",
      "nameTh": "ถนนกรุงเกษม",
      "system": "BMTA",
      "color": "#FACC15",
      "source": "osm",
      "betweenness": 0.0012,
      "degree": 235
    },
    {
      "id": "('node', 2623116712)",
      "lat": 13.914292,
      "lng": 100.598082,
      "nameEn": "nan",
      "nameTh": "nan",
      "system": "BMTA",
      "color": "#FACC15",
      "source": "osm",
      "betweenness": 0.0012,
      "degree": 32
    },
    {
      "id": "('node', 2634810635)",
      "lat": 13.605382,
      "lng": 100.712859,
      "nameEn": "nan",
      "nameTh": "nan",
      "system": "BMTA",
      "color": "#FACC15",
      "source": "osm",
      "betweenness": 0.0,
      "degree": 1
    },
    {
      "id": "('node', 2634810816)",
      "lat": 13.602171,
      "lng": 100.708311,
      "nameEn": "nan",
      "nameTh": "nan",
      "system": "BMTA",
      "color": "#FACC15",
      "source": "osm",
      "betweenness": 0.0,
      "degree": 1
    },
    {
      "id": "('node', 2649308329)",
      "lat": 13.841592,
      "lng": 100.576501,
      "nameEn": "nan",
      "nameTh": "nan",
      "system": "BMTA",
      "color": "#FACC15",
      "source": "osm",
      "betweenness": 0.0027,
      "degree": 88
    },
    {
      "id": "('node', 2649308438)",
      "lat": 13.847167,
      "lng": 100.568033,
      "nameEn": "nan",
      "nameTh": "nan",
      "system": "BMTA",
      "color": "#FACC15",
      "source": "osm",
      "betweenness": 0.0004,
      "degree": 87
    },
    {
      "id": "('node', 2686511620)",
      "lat": 13.750022,
      "lng": 100.489571,
      "nameEn": "nan",
      "nameTh": "nan",
      "system": "BMTA",
      "color": "#FACC15",
      "source": "osm",
      "betweenness": 0.0011,
      "degree": 212
    },
    {
      "id": "('node', 2687337676)",
      "lat": 13.751862,
      "lng": 100.489294,
      "nameEn": "Tha Chang",
      "nameTh": "ท่าช้าง",
      "system": "BMTA",
      "color": "#FACC15",
      "source": "osm",
      "betweenness": 0.001,
      "degree": 216
    },
    {
      "id": "('node', 2697471542)",
      "lat": 13.853564,
      "lng": 100.565038,
      "nameEn": "nan",
      "nameTh": "nan",
      "system": "BMTA",
      "color": "#FACC15",
      "source": "osm",
      "betweenness": 0.0004,
      "degree": 87
    },
    {
      "id": "('node', 2699351211)",
      "lat": 13.852581,
      "lng": 100.570831,
      "nameEn": "nan",
      "nameTh": "nan",
      "system": "BMTA",
      "color": "#FACC15",
      "source": "osm",
      "betweenness": 0.0003,
      "degree": 80
    },
    {
      "id": "('node', 2699351212)",
      "lat": 13.852594,
      "lng": 100.569502,
      "nameEn": "nan",
      "nameTh": "nan",
      "system": "BMTA",
      "color": "#FACC15",
      "source": "osm",
      "betweenness": 0.0006,
      "degree": 83
    },
    {
      "id": "('node', 2699351213)",
      "lat": 13.852755,
      "lng": 100.567725,
      "nameEn": "nan",
      "nameTh": "nan",
      "system": "BMTA",
      "color": "#FACC15",
      "source": "osm",
      "betweenness": 0.0003,
      "degree": 84
    },
    {
      "id": "('node', 2699351214)",
      "lat": 13.852966,
      "lng": 100.567054,
      "nameEn": "nan",
      "nameTh": "nan",
      "system": "BMTA",
      "color": "#FACC15",
      "source": "osm",
      "betweenness": 0.0004,
      "degree": 85
    },
    {
      "id": "('node', 2699351215)",
      "lat": 13.85265,
      "lng": 100.565955,
      "nameEn": "nan",
      "nameTh": "nan",
      "system": "BMTA",
      "color": "#FACC15",
      "source": "osm",
      "betweenness": 0.0006,
      "degree": 87
    },
    {
      "id": "('node', 2699351216)",
      "lat": 13.850242,
      "lng": 100.565501,
      "nameEn": "nan",
      "nameTh": "nan",
      "system": "BMTA",
      "color": "#FACC15",
      "source": "osm",
      "betweenness": 0.0005,
      "degree": 89
    },
    {
      "id": "('node', 2699351217)",
      "lat": 13.848802,
      "lng": 100.565418,
      "nameEn": "nan",
      "nameTh": "nan",
      "system": "BMTA",
      "color": "#FACC15",
      "source": "osm",
      "betweenness": 0.0003,
      "degree": 87
    },
    {
      "id": "('node', 2699351218)",
      "lat": 13.849213,
      "lng": 100.564132,
      "nameEn": "nan",
      "nameTh": "nan",
      "system": "BMTA",
      "color": "#FACC15",
      "source": "osm",
      "betweenness": 0.001,
      "degree": 91
    },
    {
      "id": "('node', 2699351219)",
      "lat": 13.847524,
      "lng": 100.565092,
      "nameEn": "nan",
      "nameTh": "nan",
      "system": "BMTA",
      "color": "#FACC15",
      "source": "osm",
      "betweenness": 0.0008,
      "degree": 90
    },
    {
      "id": "('node', 2699351220)",
      "lat": 13.845365,
      "lng": 100.566901,
      "nameEn": "nan",
      "nameTh": "nan",
      "system": "BMTA",
      "color": "#FACC15",
      "source": "osm",
      "betweenness": 0.0005,
      "degree": 92
    },
    {
      "id": "('node', 2699351221)",
      "lat": 13.844291,
      "lng": 100.568834,
      "nameEn": "nan",
      "nameTh": "nan",
      "system": "BMTA",
      "color": "#FACC15",
      "source": "osm",
      "betweenness": 0.0003,
      "degree": 90
    },
    {
      "id": "('node', 2699351222)",
      "lat": 13.843739,
      "lng": 100.569841,
      "nameEn": "nan",
      "nameTh": "nan",
      "system": "BMTA",
      "color": "#FACC15",
      "source": "osm",
      "betweenness": 0.0004,
      "degree": 90
    },
    {
      "id": "('node', 2699351223)",
      "lat": 13.843801,
      "lng": 100.570352,
      "nameEn": "nan",
      "nameTh": "nan",
      "system": "BMTA",
      "color": "#FACC15",
      "source": "osm",
      "betweenness": 0.0003,
      "degree": 89
    },
    {
      "id": "('node', 2699351224)",
      "lat": 13.845743,
      "lng": 100.57055,
      "nameEn": "Faculty of Science Bus Stop",
      "nameTh": "nan",
      "system": "BMTA",
      "color": "#FACC15",
      "source": "osm",
      "betweenness": 0.0017,
      "degree": 88
    },
    {
      "id": "('node', 2712349057)",
      "lat": 13.72852,
      "lng": 100.778185,
      "nameEn": "nan",
      "nameTh": "nan",
      "system": "BMTA",
      "color": "#FACC15",
      "source": "osm",
      "betweenness": 0.0001,
      "degree": 35
    },
    {
      "id": "('node', 2713419140)",
      "lat": 13.846857,
      "lng": 100.56939,
      "nameEn": "nan",
      "nameTh": "nan",
      "system": "BMTA",
      "color": "#FACC15",
      "source": "osm",
      "betweenness": 0.0007,
      "degree": 86
    },
    {
      "id": "('node', 2713419153)",
      "lat": 13.847794,
      "lng": 100.566867,
      "nameEn": "nan",
      "nameTh": "nan",
      "system": "BMTA",
      "color": "#FACC15",
      "source": "osm",
      "betweenness": 0.0003,
      "degree": 85
    },
    {
      "id": "('node', 2713419154)",
      "lat": 13.84877,
      "lng": 100.56493,
      "nameEn": "nan",
      "nameTh": "nan",
      "system": "BMTA",
      "color": "#FACC15",
      "source": "osm",
      "betweenness": 0.0006,
      "degree": 90
    },
    {
      "id": "('node', 2713419155)",
      "lat": 13.85038,
      "lng": 100.566818,
      "nameEn": "nan",
      "nameTh": "nan",
      "system": "BMTA",
      "color": "#FACC15",
      "source": "osm",
      "betweenness": 0.0005,
      "degree": 87
    },
    {
      "id": "('node', 2713419156)",
      "lat": 13.850346,
      "lng": 100.56895,
      "nameEn": "nan",
      "nameTh": "nan",
      "system": "BMTA",
      "color": "#FACC15",
      "source": "osm",
      "betweenness": 0.0004,
      "degree": 85
    },
    {
      "id": "('node', 2713419157)",
      "lat": 13.85046,
      "lng": 100.570117,
      "nameEn": "nan",
      "nameTh": "nan",
      "system": "BMTA",
      "color": "#FACC15",
      "source": "osm",
      "betweenness": 0.0008,
      "degree": 84
    },
    {
      "id": "('node', 2713419158)",
      "lat": 13.850372,
      "lng": 100.571219,
      "nameEn": "nan",
      "nameTh": "nan",
      "system": "BMTA",
      "color": "#FACC15",
      "source": "osm",
      "betweenness": 0.0023,
      "degree": 85
    },
    {
      "id": "('node', 2713419159)",
      "lat": 13.850117,
      "lng": 100.572477,
      "nameEn": "nan",
      "nameTh": "nan",
      "system": "BMTA",
      "color": "#FACC15",
      "source": "osm",
      "betweenness": 0.0011,
      "degree": 83
    },
    {
      "id": "('node', 2713419160)",
      "lat": 13.850995,
      "lng": 100.572467,
      "nameEn": "nan",
      "nameTh": "nan",
      "system": "BMTA",
      "color": "#FACC15",
      "source": "osm",
      "betweenness": 0.0015,
      "degree": 83
    },
    {
      "id": "('node', 2713419163)",
      "lat": 13.848748,
      "lng": 100.572618,
      "nameEn": "nan",
      "nameTh": "nan",
      "system": "BMTA",
      "color": "#FACC15",
      "source": "osm",
      "betweenness": 0.0025,
      "degree": 86
    },
    {
      "id": "('node', 2713419164)",
      "lat": 13.846511,
      "lng": 100.572665,
      "nameEn": "nan",
      "nameTh": "nan",
      "system": "BMTA",
      "color": "#FACC15",
      "source": "osm",
      "betweenness": 0.0008,
      "degree": 86
    },
    {
      "id": "('node', 2713419165)",
      "lat": 13.845962,
      "lng": 100.572636,
      "nameEn": "nan",
      "nameTh": "nan",
      "system": "BMTA",
      "color": "#FACC15",
      "source": "osm",
      "betweenness": 0.0009,
      "degree": 87
    },
    {
      "id": "('node', 2766777608)",
      "lat": 13.931862,
      "lng": 100.533003,
      "nameEn": "nan",
      "nameTh": "nan",
      "system": "BMTA",
      "color": "#FACC15",
      "source": "osm",
      "betweenness": 0.0007,
      "degree": 33
    },
    {
      "id": "('node', 2766777634)",
      "lat": 13.939597,
      "lng": 100.541734,
      "nameEn": "nan",
      "nameTh": "nan",
      "system": "BMTA",
      "color": "#FACC15",
      "source": "osm",
      "betweenness": 0.0008,
      "degree": 34
    },
    {
      "id": "('node', 2988995233)",
      "lat": 13.761717,
      "lng": 100.566616,
      "nameEn": "Soi Ratchadaphisek 3",
      "nameTh": "ซอยรัชดาภิเษก 3",
      "system": "BMTA",
      "color": "#FACC15",
      "source": "osm",
      "betweenness": 0.001,
      "degree": 97
    },
    {
      "id": "('node', 2989029733)",
      "lat": 13.758793,
      "lng": 100.565362,
      "nameEn": "nan",
      "nameTh": "nan",
      "system": "BMTA",
      "color": "#FACC15",
      "source": "osm",
      "betweenness": 0.0007,
      "degree": 111
    },
    {
      "id": "('node', 3036730024)",
      "lat": 13.74801,
      "lng": 100.484368,
      "nameEn": "nan",
      "nameTh": "nan",
      "system": "BMTA",
      "color": "#FACC15",
      "source": "osm",
      "betweenness": 0.0019,
      "degree": 185
    },
    {
      "id": "('node', 3036787056)",
      "lat": 13.681227,
      "lng": 100.438908,
      "nameEn": "nan",
      "nameTh": "nan",
      "system": "BMTA",
      "color": "#FACC15",
      "source": "osm",
      "betweenness": 0.002,
      "degree": 53
    },
    {
      "id": "('node', 3036908302)",
      "lat": 13.755176,
      "lng": 100.501561,
      "nameEn": "nan",
      "nameTh": "ศาลาว่าการ กทม.",
      "system": "BMTA",
      "color": "#FACC15",
      "source": "osm",
      "betweenness": 0.0005,
      "degree": 271
    },
    {
      "id": "('node', 3036908342)",
      "lat": 13.750192,
      "lng": 100.500344,
      "nameEn": "Wat Suthat",
      "nameTh": "วัดสุทัศน์ฯ",
      "system": "BMTA",
      "color": "#FACC15",
      "source": "osm",
      "betweenness": 0.0008,
      "degree": 281
    },
    {
      "id": "('node', 3037231714)",
      "lat": 13.758094,
      "lng": 100.502117,
      "nameEn": "Dinso (Satriwithaya School)",
      "nameTh": "ดินสอ (รร.สตรีวิทยา)",
      "system": "BMTA",
      "color": "#FACC15",
      "source": "osm",
      "betweenness": 0.0008,
      "degree": 269
    },
    {
      "id": "('node', 3038610414)",
      "lat": 13.679031,
      "lng": 100.435066,
      "nameEn": "nan",
      "nameTh": "nan",
      "system": "BMTA",
      "color": "#FACC15",
      "source": "osm",
      "betweenness": 0.0008,
      "degree": 49
    },
    {
      "id": "('node', 3039147137)",
      "lat": 13.758915,
      "lng": 100.503327,
      "nameEn": "nan",
      "nameTh": "nan",
      "system": "BMTA",
      "color": "#FACC15",
      "source": "osm",
      "betweenness": 0.0007,
      "degree": 269
    },
    {
      "id": "('node', 3039147832)",
      "lat": 13.76043,
      "lng": 100.500818,
      "nameEn": "Phra Sumen (Wat Bowonniwet)",
      "nameTh": "วัดบวรนิเวศ (ฝั่งพระสุเมรุ)",
      "system": "BMTA",
      "color": "#FACC15",
      "source": "osm",
      "betweenness": 0.0007,
      "degree": 259
    },
    {
      "id": "('node', 3039147939)",
      "lat": 13.756939,
      "lng": 100.504689,
      "nameEn": "nan",
      "nameTh": "nan",
      "system": "BMTA",
      "color": "#FACC15",
      "source": "osm",
      "betweenness": 0.0008,
      "degree": 286
    },
    {
      "id": "('node', 3039149111)",
      "lat": 13.750761,
      "lng": 100.538493,
      "nameEn": "nan",
      "nameTh": "nan",
      "system": "BMTA",
      "color": "#FACC15",
      "source": "osm",
      "betweenness": 0.0014,
      "degree": 218
    },
    {
      "id": "('node', 3045833332)",
      "lat": 13.734407,
      "lng": 100.540562,
      "nameEn": "MBK Life Building",
      "nameTh": "อาคาร เอ็ม บี เค ไลฟ์",
      "system": "BMTA",
      "color": "#FACC15",
      "source": "osm",
      "betweenness": 0.0026,
      "degree": 210
    },
    {
      "id": "('node', 3047573235)",
      "lat": 13.73411,
      "lng": 100.564308,
      "nameEn": "Soi Sai Nam Phueng",
      "nameTh": "ซอยสายน้ำผึ้ง",
      "system": "BMTA",
      "color": "#FACC15",
      "source": "osm",
      "betweenness": 0.0021,
      "degree": 114
    },
    {
      "id": "('node', 3056924364)",
      "lat": 13.65327,
      "lng": 100.424645,
      "nameEn": "Kheha Thonburi 2",
      "nameTh": "nan",
      "system": "BMTA",
      "color": "#FACC15",
      "source": "osm",
      "betweenness": 0.0003,
      "degree": 57
    },
    {
      "id": "('node', 3057124333)",
      "lat": 13.651528,
      "lng": 100.422312,
      "nameEn": "PMG Hospital",
      "nameTh": "nan",
      "system": "BMTA",
      "color": "#FACC15",
      "source": "osm",
      "betweenness": 0.0007,
      "degree": 57
    },
    {
      "id": "('node', 3101731945)",
      "lat": 13.676039,
      "lng": 100.429848,
      "nameEn": "nan",
      "nameTh": "nan",
      "system": "BMTA",
      "color": "#FACC15",
      "source": "osm",
      "betweenness": 0.0008,
      "degree": 50
    },
    {
      "id": "('node', 3106338333)",
      "lat": 13.667202,
      "lng": 100.428428,
      "nameEn": "nan",
      "nameTh": "nan",
      "system": "BMTA",
      "color": "#FACC15",
      "source": "osm",
      "betweenness": 0.0033,
      "degree": 58
    },
    {
      "id": "('node', 3112665855)",
      "lat": 13.573157,
      "lng": 100.422586,
      "nameEn": "nan",
      "nameTh": "nan",
      "system": "BMTA",
      "color": "#FACC15",
      "source": "osm",
      "betweenness": 0.0,
      "degree": 7
    },
    {
      "id": "('node', 3112799601)",
      "lat": 13.658667,
      "lng": 100.429676,
      "nameEn": "nan",
      "nameTh": "nan",
      "system": "BMTA",
      "color": "#FACC15",
      "source": "osm",
      "betweenness": 0.0018,
      "degree": 50
    },
    {
      "id": "('node', 3130731534)",
      "lat": 13.728066,
      "lng": 100.471827,
      "nameEn": "nan",
      "nameTh": "nan",
      "system": "BMTA",
      "color": "#FACC15",
      "source": "osm",
      "betweenness": 0.0012,
      "degree": 104
    },
    {
      "id": "('node', 3130745700)",
      "lat": 13.733416,
      "lng": 100.448968,
      "nameEn": "nan",
      "nameTh": "nan",
      "system": "BMTA",
      "color": "#FACC15",
      "source": "osm",
      "betweenness": 0.0039,
      "degree": 61
    },
    {
      "id": "('node', 3130745703)",
      "lat": 13.722627,
      "lng": 100.457405,
      "nameEn": "nan",
      "nameTh": "BTS บางหว้า (ทางออก 1, 2)",
      "system": "BMTA",
      "color": "#FACC15",
      "source": "osm",
      "betweenness": 0.0031,
      "degree": 93
    },
    {
      "id": "('node', 3130745704)",
      "lat": 13.722255,
      "lng": 100.457974,
      "nameEn": "nan",
      "nameTh": "nan",
      "system": "BMTA",
      "color": "#FACC15",
      "source": "osm",
      "betweenness": 0.0033,
      "degree": 95
    },
    {
      "id": "('node', 3130745705)",
      "lat": 13.728803,
      "lng": 100.476799,
      "nameEn": "nan",
      "nameTh": "nan",
      "system": "BMTA",
      "color": "#FACC15",
      "source": "osm",
      "betweenness": 0.002,
      "degree": 123
    },
    {
      "id": "('node', 3130745706)",
      "lat": 13.726857,
      "lng": 100.494974,
      "nameEn": "nan",
      "nameTh": "nan",
      "system": "BMTA",
      "color": "#FACC15",
      "source": "osm",
      "betweenness": 0.0019,
      "degree": 192
    },
    {
      "id": "('node', 3130745707)",
      "lat": 13.726779,
      "lng": 100.495529,
      "nameEn": "nan",
      "nameTh": "nan",
      "system": "BMTA",
      "color": "#FACC15",
      "source": "osm",
      "betweenness": 0.0019,
      "degree": 192
    },
    {
      "id": "('node', 3130745708)",
      "lat": 13.73297,
      "lng": 100.4921,
      "nameEn": "nan",
      "nameTh": "nan",
      "system": "BMTA",
      "color": "#FACC15",
      "source": "osm",
      "betweenness": 0.0016,
      "degree": 194
    },
    {
      "id": "('node', 3130745709)",
      "lat": 13.732045,
      "lng": 100.493244,
      "nameEn": "nan",
      "nameTh": "nan",
      "system": "BMTA",
      "color": "#FACC15",
      "source": "osm",
      "betweenness": 0.0019,
      "degree": 197
    },
    {
      "id": "('node', 3130745711)",
      "lat": 13.734451,
      "lng": 100.490167,
      "nameEn": "nan",
      "nameTh": "nan",
      "system": "BMTA",
      "color": "#FACC15",
      "source": "osm",
      "betweenness": 0.0018,
      "degree": 187
    },
    {
      "id": "('node', 3130745712)",
      "lat": 13.73703,
      "lng": 100.486062,
      "nameEn": "nan",
      "nameTh": "nan",
      "system": "BMTA",
      "color": "#FACC15",
      "source": "osm",
      "betweenness": 0.0009,
      "degree": 168
    },
    {
      "id": "('node', 3130745714)",
      "lat": 13.743118,
      "lng": 100.48191,
      "nameEn": "nan",
      "nameTh": "nan",
      "system": "BMTA",
      "color": "#FACC15",
      "source": "osm",
      "betweenness": 0.0025,
      "degree": 169
    },
    {
      "id": "('node', 3130745716)",
      "lat": 13.744774,
      "lng": 100.480701,
      "nameEn": "nan",
      "nameTh": "nan",
      "system": "BMTA",
      "color": "#FACC15",
      "source": "osm",
      "betweenness": 0.0029,
      "degree": 160
    },
    {
      "id": "('node', 3178943373)",
      "lat": 13.75652,
      "lng": 100.535685,
      "nameEn": "Phaya Thai",
      "nameTh": "พญาไท",
      "system": "ARL",
      "color": "#C8102E",
      "source": "osm",
      "betweenness": 0.0015,
      "degree": 204
    },
    {
      "id": "('node', 3178943413)",
      "lat": 13.750749,
      "lng": 100.562194,
      "nameEn": "Makkasan",
      "nameTh": "มักกะสัน",
      "system": "ARL",
      "color": "#C8102E",
      "source": "osm",
      "betweenness": 0.001,
      "degree": 114
    },
    {
      "id": "('node', 3180277903)",
      "lat": 13.694297,
      "lng": 100.75134,
      "nameEn": "Suvarnabhumi",
      "nameTh": "สุวรรณภูมิ",
      "system": "ARL",
      "color": "#C8102E",
      "source": "osm",
      "betweenness": 0.0001,
      "degree": 20
    },
    {
      "id": "('node', 3180278583)",
      "lat": 13.742973,
      "lng": 100.600618,
      "nameEn": "Ramkhamhaeng",
      "nameTh": "รามคำแหง",
      "system": "ARL",
      "color": "#C8102E",
      "source": "osm",
      "betweenness": 0.0015,
      "degree": 56
    },
    {
      "id": "('node', 3180278584)",
      "lat": 13.727708,
      "lng": 100.74932,
      "nameEn": "Lat Krabang",
      "nameTh": "ลาดกระบัง",
      "system": "ARL",
      "color": "#C8102E",
      "source": "osm",
      "betweenness": 0.0016,
      "degree": 42
    },
    {
      "id": "('node', 3180278585)",
      "lat": 13.73806,
      "lng": 100.645878,
      "nameEn": "Hua Mak",
      "nameTh": "หัวหมาก",
      "system": "ARL",
      "color": "#C8102E",
      "source": "osm",
      "betweenness": 0.0011,
      "degree": 58
    },
    {
      "id": "('node', 3200918674)",
      "lat": 13.919507,
      "lng": 100.68471,
      "nameEn": "Wongsakorn Market (Sukhaphiban 5 side)",
      "nameTh": "ตลาดวงศกร (ฝั่งสุขาภิบาล 5)",
      "system": "BMTA",
      "color": "#FACC15",
      "source": "osm",
      "betweenness": 0.0004,
      "degree": 30
    },
    {
      "id": "('node', 3202523078)",
      "lat": 13.673333,
      "lng": 100.424743,
      "nameEn": "nan",
      "nameTh": "nan",
      "system": "BMTA",
      "color": "#FACC15",
      "source": "osm",
      "betweenness": 0.0024,
      "degree": 54
    },
    {
      "id": "('node', 3204379765)",
      "lat": 13.844598,
      "lng": 100.572632,
      "nameEn": "nan",
      "nameTh": "nan",
      "system": "BMTA",
      "color": "#FACC15",
      "source": "osm",
      "betweenness": 0.0007,
      "degree": 87
    },
    {
      "id": "('node', 3225124863)",
      "lat": 13.772005,
      "lng": 100.65218,
      "nameEn": "nan",
      "nameTh": "nan",
      "system": "BMTA",
      "color": "#FACC15",
      "source": "osm",
      "betweenness": 0.0009,
      "degree": 104
    },
    {
      "id": "('node', 3225247608)",
      "lat": 13.797331,
      "lng": 100.650409,
      "nameEn": "nan",
      "nameTh": "nan",
      "system": "BMTA",
      "color": "#FACC15",
      "source": "osm",
      "betweenness": 0.0007,
      "degree": 51
    },
    {
      "id": "('node', 3225269380)",
      "lat": 13.794137,
      "lng": 100.651631,
      "nameEn": "nan",
      "nameTh": "nan",
      "system": "BMTA",
      "color": "#FACC15",
      "source": "osm",
      "betweenness": 0.0004,
      "degree": 58
    },
    {
      "id": "('node', 3225270784)",
      "lat": 13.794975,
      "lng": 100.651446,
      "nameEn": "nan",
      "nameTh": "nan",
      "system": "BMTA",
      "color": "#FACC15",
      "source": "osm",
      "betweenness": 0.0005,
      "degree": 55
    },
    {
      "id": "('node', 3225273348)",
      "lat": 13.792797,
      "lng": 100.652228,
      "nameEn": "nan",
      "nameTh": "nan",
      "system": "BMTA",
      "color": "#FACC15",
      "source": "osm",
      "betweenness": 0.0014,
      "degree": 63
    },
    {
      "id": "('node', 3225274510)",
      "lat": 13.790168,
      "lng": 100.65155,
      "nameEn": "nan",
      "nameTh": "nan",
      "system": "BMTA",
      "color": "#FACC15",
      "source": "osm",
      "betweenness": 0.0019,
      "degree": 75
    },
    {
      "id": "('node', 3248986965)",
      "lat": 13.68248,
      "lng": 100.610501,
      "nameEn": "nan",
      "nameTh": "nan",
      "system": "BMTA",
      "color": "#FACC15",
      "source": "osm",
      "betweenness": 0.0012,
      "degree": 44
    },
    {
      "id": "('node', 3257770480)",
      "lat": 13.670282,
      "lng": 100.418948,
      "nameEn": "nan",
      "nameTh": "nan",
      "system": "BMTA",
      "color": "#FACC15",
      "source": "osm",
      "betweenness": 0.0019,
      "degree": 58
    },
    {
      "id": "('node', 3257774561)",
      "lat": 13.668996,
      "lng": 100.416551,
      "nameEn": "nan",
      "nameTh": "nan",
      "system": "BMTA",
      "color": "#FACC15",
      "source": "osm",
      "betweenness": 0.0033,
      "degree": 57
    },
    {
      "id": "('node', 3257780403)",
      "lat": 13.666995,
      "lng": 100.413063,
      "nameEn": "nan",
      "nameTh": "nan",
      "system": "BMTA",
      "color": "#FACC15",
      "source": "osm",
      "betweenness": 0.0005,
      "degree": 53
    },
    {
      "id": "('node', 3257899774)",
      "lat": 13.657976,
      "lng": 100.397206,
      "nameEn": "nan",
      "nameTh": "nan",
      "system": "BMTA",
      "color": "#FACC15",
      "source": "osm",
      "betweenness": 0.0019,
      "degree": 38
    },
    {
      "id": "('node', 3268425577)",
      "lat": 13.655485,
      "lng": 100.393572,
      "nameEn": "nan",
      "nameTh": "nan",
      "system": "BMTA",
      "color": "#FACC15",
      "source": "osm",
      "betweenness": 0.0002,
      "degree": 34
    },
    {
      "id": "('node', 3268503125)",
      "lat": 13.653225,
      "lng": 100.390733,
      "nameEn": "nan",
      "nameTh": "nan",
      "system": "BMTA",
      "color": "#FACC15",
      "source": "osm",
      "betweenness": 0.0017,
      "degree": 29
    },
    {
      "id": "('node', 3268515144)",
      "lat": 13.651922,
      "lng": 100.389008,
      "nameEn": "nan",
      "nameTh": "nan",
      "system": "BMTA",
      "color": "#FACC15",
      "source": "osm",
      "betweenness": 0.0004,
      "degree": 27
    },
    {
      "id": "('node', 3268541300)",
      "lat": 13.650624,
      "lng": 100.387324,
      "nameEn": "nan",
      "nameTh": "nan",
      "system": "BMTA",
      "color": "#FACC15",
      "source": "osm",
      "betweenness": 0.0006,
      "degree": 27
    },
    {
      "id": "('node', 3280049523)",
      "lat": 13.646226,
      "lng": 100.381737,
      "nameEn": "nan",
      "nameTh": "nan",
      "system": "BMTA",
      "color": "#FACC15",
      "source": "osm",
      "betweenness": 0.0011,
      "degree": 18
    },
    {
      "id": "('node', 3280079959)",
      "lat": 13.644313,
      "lng": 100.379343,
      "nameEn": "nan",
      "nameTh": "nan",
      "system": "BMTA",
      "color": "#FACC15",
      "source": "osm",
      "betweenness": 0.0006,
      "degree": 16
    },
    {
      "id": "('node', 3283346877)",
      "lat": 13.660186,
      "lng": 100.400592,
      "nameEn": "nan",
      "nameTh": "nan",
      "system": "BMTA",
      "color": "#FACC15",
      "source": "osm",
      "betweenness": 0.0004,
      "degree": 40
    },
    {
      "id": "('node', 3283351858)",
      "lat": 13.659084,
      "lng": 100.398655,
      "nameEn": "nan",
      "nameTh": "nan",
      "system": "BMTA",
      "color": "#FACC15",
      "source": "osm",
      "betweenness": 0.0009,
      "degree": 37
    },
    {
      "id": "('node', 3397831058)",
      "lat": 13.921386,
      "lng": 100.684933,
      "nameEn": "Wongsakorn Market (Sai Mai side)",
      "nameTh": "ตลาดวงศกร",
      "system": "BMTA",
      "color": "#FACC15",
      "source": "osm",
      "betweenness": 0.0001,
      "degree": 29
    },
    {
      "id": "('node', 3397835781)",
      "lat": 13.921558,
      "lng": 100.685524,
      "nameEn": "Amarin Niwet 3 Village Zone 2",
      "nameTh": "nan",
      "system": "BMTA",
      "color": "#FACC15",
      "source": "osm",
      "betweenness": 0.0001,
      "degree": 29
    },
    {
      "id": "('node', 3405418885)",
      "lat": 13.933749,
      "lng": 100.714975,
      "nameEn": "nan",
      "nameTh": "nan",
      "system": "BMTA",
      "color": "#FACC15",
      "source": "osm",
      "betweenness": 0.0012,
      "degree": 12
    },
    {
      "id": "('node', 3448823835)",
      "lat": 13.709094,
      "lng": 100.495109,
      "nameEn": "nan",
      "nameTh": "nan",
      "system": "BMTA",
      "color": "#FACC15",
      "source": "osm",
      "betweenness": 0.0023,
      "degree": 123
    },
    {
      "id": "('node', 3478305872)",
      "lat": 13.709763,
      "lng": 100.397749,
      "nameEn": "nan",
      "nameTh": "nan",
      "system": "BMTA",
      "color": "#FACC15",
      "source": "osm",
      "betweenness": 0.0016,
      "degree": 59
    },
    {
      "id": "('node', 3480411909)",
      "lat": 13.709489,
      "lng": 100.394569,
      "nameEn": "nan",
      "nameTh": "nan",
      "system": "BMTA",
      "color": "#FACC15",
      "source": "osm",
      "betweenness": 0.0025,
      "degree": 62
    },
    {
      "id": "('node', 3488647635)",
      "lat": 13.731624,
      "lng": 100.54531,
      "nameEn": "Lumphini Park (Gate 1)",
      "nameTh": "สวนลุมพินี (ประตู 1)",
      "system": "BMTA",
      "color": "#FACC15",
      "source": "osm",
      "betweenness": 0.0022,
      "degree": 191
    },
    {
      "id": "('node', 3488647636)",
      "lat": 13.73644,
      "lng": 100.546191,
      "nameEn": "nan",
      "nameTh": "nan",
      "system": "BMTA",
      "color": "#FACC15",
      "source": "osm",
      "betweenness": 0.0019,
      "degree": 194
    },
    {
      "id": "('node', 3488647637)",
      "lat": 13.742081,
      "lng": 100.547108,
      "nameEn": "nan",
      "nameTh": "nan",
      "system": "BMTA",
      "color": "#FACC15",
      "source": "osm",
      "betweenness": 0.002,
      "degree": 200
    },
    {
      "id": "('node', 3488652929)",
      "lat": 13.74351,
      "lng": 100.545782,
      "nameEn": "Soi Ton Son",
      "nameTh": "ซอยต้นสน",
      "system": "BMTA",
      "color": "#FACC15",
      "source": "osm",
      "betweenness": 0.0022,
      "degree": 207
    },
    {
      "id": "('node', 3488652931)",
      "lat": 13.720085,
      "lng": 100.523627,
      "nameEn": "Bangkok Christian College",
      "nameTh": "โรงเรียนกรุงเทพคริสเตียนวิทยาลัย",
      "system": "BMTA",
      "color": "#FACC15",
      "source": "osm",
      "betweenness": 0.0018,
      "degree": 206
    },
    {
      "id": "('node', 3492638218)",
      "lat": 13.709328,
      "lng": 100.392532,
      "nameEn": "nan",
      "nameTh": "nan",
      "system": "BMTA",
      "color": "#FACC15",
      "source": "osm",
      "betweenness": 0.0011,
      "degree": 63
    },
    {
      "id": "('node', 3623099134)",
      "lat": 13.709151,
      "lng": 100.390193,
      "nameEn": "nan",
      "nameTh": "nan",
      "system": "BMTA",
      "color": "#FACC15",
      "source": "osm",
      "betweenness": 0.001,
      "degree": 59
    },
    {
      "id": "('node', 3643531403)",
      "lat": 13.707863,
      "lng": 100.374804,
      "nameEn": "nan",
      "nameTh": "nan",
      "system": "BMTA",
      "color": "#FACC15",
      "source": "osm",
      "betweenness": 0.0007,
      "degree": 47
    },
    {
      "id": "('node', 3646871663)",
      "lat": 13.708685,
      "lng": 100.384624,
      "nameEn": "nan",
      "nameTh": "nan",
      "system": "BMTA",
      "color": "#FACC15",
      "source": "osm",
      "betweenness": 0.002,
      "degree": 52
    },
    {
      "id": "('node', 3646884015)",
      "lat": 13.708537,
      "lng": 100.38299,
      "nameEn": "nan",
      "nameTh": "nan",
      "system": "BMTA",
      "color": "#FACC15",
      "source": "osm",
      "betweenness": 0.001,
      "degree": 51
    },
    {
      "id": "('node', 3686035216)",
      "lat": 13.710447,
      "lng": 100.402293,
      "nameEn": "nan",
      "nameTh": "nan",
      "system": "BMTA",
      "color": "#FACC15",
      "source": "osm",
      "betweenness": 0.003,
      "degree": 55
    },
    {
      "id": "('node', 3707009128)",
      "lat": 13.782344,
      "lng": 100.573699,
      "nameEn": "nan",
      "nameTh": "nan",
      "system": "BMTA",
      "color": "#FACC15",
      "source": "osm",
      "betweenness": 0.0074,
      "degree": 76
    },
    {
      "id": "('node', 3721818729)",
      "lat": 13.783625,
      "lng": 100.567117,
      "nameEn": "nan",
      "nameTh": "nan",
      "system": "BMTA",
      "color": "#FACC15",
      "source": "osm",
      "betweenness": 0.0001,
      "degree": 87
    },
    {
      "id": "('node', 3721818732)",
      "lat": 13.786391,
      "lng": 100.567019,
      "nameEn": "nan",
      "nameTh": "nan",
      "system": "BMTA",
      "color": "#FACC15",
      "source": "osm",
      "betweenness": 0.0071,
      "degree": 104
    },
    {
      "id": "('node', 3721818743)",
      "lat": 13.788639,
      "lng": 100.566875,
      "nameEn": "nan",
      "nameTh": "nan",
      "system": "BMTA",
      "color": "#FACC15",
      "source": "osm",
      "betweenness": 0.0077,
      "degree": 107
    },
    {
      "id": "('node', 3733367295)",
      "lat": 13.787242,
      "lng": 100.57423,
      "nameEn": "nan",
      "nameTh": "nan",
      "system": "BMTA",
      "color": "#FACC15",
      "source": "osm",
      "betweenness": 0.0048,
      "degree": 81
    },
    {
      "id": "('node', 3733862996)",
      "lat": 13.708317,
      "lng": 100.38027,
      "nameEn": "nan",
      "nameTh": "nan",
      "system": "BMTA",
      "color": "#FACC15",
      "source": "osm",
      "betweenness": 0.0007,
      "degree": 50
    },
    {
      "id": "('node', 3800262169)",
      "lat": 13.708112,
      "lng": 100.37765,
      "nameEn": "nan",
      "nameTh": "nan",
      "system": "BMTA",
      "color": "#FACC15",
      "source": "osm",
      "betweenness": 0.0004,
      "degree": 48
    },
    {
      "id": "('node', 3800276885)",
      "lat": 13.704782,
      "lng": 100.375041,
      "nameEn": "nan",
      "nameTh": "nan",
      "system": "BMTA",
      "color": "#FACC15",
      "source": "osm",
      "betweenness": 0.0003,
      "degree": 43
    },
    {
      "id": "('node', 3860194630)",
      "lat": 13.738242,
      "lng": 100.558483,
      "nameEn": "Korean Town",
      "nameTh": "โคเรียนทาวน์",
      "system": "BMTA",
      "color": "#FACC15",
      "source": "osm",
      "betweenness": 0.0009,
      "degree": 126
    },
    {
      "id": "('node', 3860313782)",
      "lat": 13.739888,
      "lng": 100.556544,
      "nameEn": "Soi Sukhumvit 11/1",
      "nameTh": "ซอยสุขุมวิท 11/1",
      "system": "BMTA",
      "color": "#FACC15",
      "source": "osm",
      "betweenness": 0.0012,
      "degree": 137
    },
    {
      "id": "('node', 3877687716)",
      "lat": 13.73414,
      "lng": 100.560193,
      "nameEn": "Opposite Soi Sukhumvit 16",
      "nameTh": "ตรงข้ามซอยสุขุมวิท 16",
      "system": "BMTA",
      "color": "#FACC15",
      "source": "osm",
      "betweenness": 0.0023,
      "degree": 124
    },
    {
      "id": "('node', 3877985924)",
      "lat": 13.729949,
      "lng": 100.560003,
      "nameEn": "Ocean Tower 1",
      "nameTh": "โอเชียน ทาวเวอร์ 1",
      "system": "BMTA",
      "color": "#FACC15",
      "source": "osm",
      "betweenness": 0.0028,
      "degree": 120
    },
    {
      "id": "('node', 3879758201)",
      "lat": 13.719664,
      "lng": 100.560808,
      "nameEn": "Soi Phai Singto",
      "nameTh": "ซอยไผ่สิงห์โต",
      "system": "BMTA",
      "color": "#FACC15",
      "source": "osm",
      "betweenness": 0.0009,
      "degree": 103
    },
    {
      "id": "('node', 3925008455)",
      "lat": 13.707462,
      "lng": 100.369475,
      "nameEn": "nan",
      "nameTh": "nan",
      "system": "BMTA",
      "color": "#FACC15",
      "source": "osm",
      "betweenness": 0.0002,
      "degree": 40
    },
    {
      "id": "('node', 3930788457)",
      "lat": 13.747011,
      "lng": 100.490508,
      "nameEn": "#1",
      "nameTh": "nan",
      "system": "BMTA",
      "color": "#FACC15",
      "source": "osm",
      "betweenness": 0.0009,
      "degree": 213
    },
    {
      "id": "('node', 3937670903)",
      "lat": 13.751196,
      "lng": 100.609143,
      "nameEn": "nan",
      "nameTh": "nan",
      "system": "BMTA",
      "color": "#FACC15",
      "source": "osm",
      "betweenness": 0.0021,
      "degree": 67
    },
    {
      "id": "('node', 3937670904)",
      "lat": 13.751985,
      "lng": 100.610319,
      "nameEn": "58, 60,71,92,137,168,173,182,207,501",
      "nameTh": "nan",
      "system": "BMTA",
      "color": "#FACC15",
      "source": "osm",
      "betweenness": 0.0051,
      "degree": 67
    },
    {
      "id": "('node', 3937760407)",
      "lat": 13.742195,
      "lng": 100.601333,
      "nameEn": "1, 3, 12, 17, 18, 19, 22, 40, 58, 60, 71, 92, 93, 99, 109, 113, 126",
      "nameTh": "nan",
      "system": "BMTA",
      "color": "#FACC15",
      "source": "osm",
      "betweenness": 0.0015,
      "degree": 56
    },
    {
      "id": "('node', 3937771212)",
      "lat": 13.744299,
      "lng": 100.602244,
      "nameEn": "nan",
      "nameTh": "nan",
      "system": "BMTA",
      "color": "#FACC15",
      "source": "osm",
      "betweenness": 0.0041,
      "degree": 60
    },
    {
      "id": "('node', 3939759556)",
      "lat": 13.740975,
      "lng": 100.511689,
      "nameEn": "Charoenkrung (Mo Mi)",
      "nameTh": "เจริญกรุง (หมอมี)",
      "system": "BMTA",
      "color": "#FACC15",
      "source": "osm",
      "betweenness": 0.0015,
      "degree": 318
    },
    {
      "id": "('node', 3939763895)",
      "lat": 13.745096,
      "lng": 100.515532,
      "nameEn": "Before Nopphawong Int.",
      "nameTh": "ก่อนแยกนพวงศ์",
      "system": "BMTA",
      "color": "#FACC15",
      "source": "osm",
      "betweenness": 0.0016,
      "degree": 323
    },
    {
      "id": "('node', 3939765857)",
      "lat": 13.74405,
      "lng": 100.507709,
      "nameEn": "Khlong Thom (Charoenkrung Side)",
      "nameTh": "คลองถม (ฝั่งเจริญกรุง)",
      "system": "BMTA",
      "color": "#FACC15",
      "source": "osm",
      "betweenness": 0.0012,
      "degree": 307
    },
    {
      "id": "('node', 4134821828)",
      "lat": 13.706274,
      "lng": 100.507186,
      "nameEn": "Opposite Ramada Plaza Menam Hotel",
      "nameTh": "ตรงข้ามโรงแรมแม่น้ำรามาดาพลาซา",
      "system": "BMTA",
      "color": "#FACC15",
      "source": "osm",
      "betweenness": 0.0016,
      "degree": 113
    },
    {
      "id": "('node', 4134821831)",
      "lat": 13.7129,
      "lng": 100.512711,
      "nameEn": "Wat Sutthi Wararam",
      "nameTh": "วัดสุทธิวราราม",
      "system": "BMTA",
      "color": "#FACC15",
      "source": "osm",
      "betweenness": 0.001,
      "degree": 123
    },
    {
      "id": "('node', 4142664394)",
      "lat": 13.749774,
      "lng": 100.551412,
      "nameEn": "nan",
      "nameTh": "nan",
      "system": "BMTA",
      "color": "#FACC15",
      "source": "osm",
      "betweenness": 0.0044,
      "degree": 156
    },
    {
      "id": "('node', 4142664396)",
      "lat": 13.898297,
      "lng": 100.589128,
      "nameEn": "nan",
      "nameTh": "nan",
      "system": "BMTA",
      "color": "#FACC15",
      "source": "osm",
      "betweenness": 0.0049,
      "degree": 36
    },
    {
      "id": "('node', 4142664491)",
      "lat": 13.74945,
      "lng": 100.546577,
      "nameEn": "Vanit Building",
      "nameTh": "อาคารวานิช",
      "system": "BMTA",
      "color": "#FACC15",
      "source": "osm",
      "betweenness": 0.0018,
      "degree": 189
    },
    {
      "id": "('node', 4144120890)",
      "lat": 13.749336,
      "lng": 100.559261,
      "nameEn": "nan",
      "nameTh": "nan",
      "system": "BMTA",
      "color": "#FACC15",
      "source": "osm",
      "betweenness": 0.0023,
      "degree": 123
    },
    {
      "id": "('node', 4207508215)",
      "lat": 13.585879,
      "lng": 100.799171,
      "nameEn": "nan",
      "nameTh": "nan",
      "system": "BMTA",
      "color": "#FACC15",
      "source": "osm",
      "betweenness": 0.0,
      "degree": 23
    },
    {
      "id": "('node', 4278021854)",
      "lat": 13.707277,
      "lng": 100.366764,
      "nameEn": "nan",
      "nameTh": "nan",
      "system": "BMTA",
      "color": "#FACC15",
      "source": "osm",
      "betweenness": 0.0006,
      "degree": 39
    },
    {
      "id": "('node', 4278037194)",
      "lat": 13.706934,
      "lng": 100.362862,
      "nameEn": "nan",
      "nameTh": "nan",
      "system": "BMTA",
      "color": "#FACC15",
      "source": "osm",
      "betweenness": 0.0013,
      "degree": 40
    },
    {
      "id": "('node', 4347046722)",
      "lat": 13.871386,
      "lng": 100.54878,
      "nameEn": "Dhurakij Pundit University",
      "nameTh": "มหาวิทยาลัยธุรกิจบัณฑิตย์",
      "system": "BMTA",
      "color": "#FACC15",
      "source": "osm",
      "betweenness": 0.0009,
      "degree": 40
    },
    {
      "id": "('node', 4348163154)",
      "lat": 13.651815,
      "lng": 100.495421,
      "nameEn": "nan",
      "nameTh": "nan",
      "system": "BMTA",
      "color": "#FACC15",
      "source": "osm",
      "betweenness": 0.0,
      "degree": 23
    },
    {
      "id": "('node', 4362380892)",
      "lat": 13.688629,
      "lng": 100.406909,
      "nameEn": "Wongwaen Center",
      "nameTh": "nan",
      "system": "BMTA",
      "color": "#FACC15",
      "source": "osm",
      "betweenness": 0.001,
      "degree": 31
    },
    {
      "id": "('node', 4364328808)",
      "lat": 13.706758,
      "lng": 100.360474,
      "nameEn": "nan",
      "nameTh": "nan",
      "system": "BMTA",
      "color": "#FACC15",
      "source": "osm",
      "betweenness": 0.002,
      "degree": 42
    },
    {
      "id": "('node', 4398812793)",
      "lat": 13.74655,
      "lng": 100.528206,
      "nameEn": "National Stadium",
      "nameTh": "สนามกีฬาแห่งชาติ",
      "system": "BMTA",
      "color": "#FACC15",
      "source": "osm",
      "betweenness": 0.001,
      "degree": 267
    },
    {
      "id": "('node', 4398873789)",
      "lat": 13.756064,
      "lng": 100.50384,
      "nameEn": "Rattanakosin Exhibition Hall",
      "nameTh": "นิทรรศน์รัตนโกสินทร์",
      "system": "BMTA",
      "color": "#FACC15",
      "source": "osm",
      "betweenness": 0.0005,
      "degree": 279
    },
    {
      "id": "('node', 4401008298)",
      "lat": 13.748169,
      "lng": 100.519989,
      "nameEn": "nan",
      "nameTh": "วัดสามง่าม",
      "system": "BMTA",
      "color": "#FACC15",
      "source": "osm",
      "betweenness": 0.0013,
      "degree": 300
    },
    {
      "id": "('node', 4401008998)",
      "lat": 13.747161,
      "lng": 100.526019,
      "nameEn": "nan",
      "nameTh": "Lotus Patumwan 48",
      "system": "BMTA",
      "color": "#FACC15",
      "source": "osm",
      "betweenness": 0.0014,
      "degree": 284
    },
    {
      "id": "('node', 4401009400)",
      "lat": 13.751537,
      "lng": 100.51001,
      "nameEn": "Soi Maen Si",
      "nameTh": "ซอยแม้นศรี",
      "system": "BMTA",
      "color": "#FACC15",
      "source": "osm",
      "betweenness": 0.0011,
      "degree": 309
    },
    {
      "id": "('node', 4401051295)",
      "lat": 13.7448,
      "lng": 100.538086,
      "nameEn": "Royal Thai Police",
      "nameTh": "สำนักงานตำรวจแห่งชาติ",
      "system": "BMTA",
      "color": "#FACC15",
      "source": "osm",
      "betweenness": 0.0017,
      "degree": 226
    },
    {
      "id": "('node', 4401070689)",
      "lat": 13.75033,
      "lng": 100.513462,
      "nameEn": "nan",
      "nameTh": "nan",
      "system": "BMTA",
      "color": "#FACC15",
      "source": "osm",
      "betweenness": 0.0016,
      "degree": 319
    },
    {
      "id": "('node', 4402281796)",
      "lat": 13.723732,
      "lng": 100.537265,
      "nameEn": "nan",
      "nameTh": "nan",
      "system": "BMTA",
      "color": "#FACC15",
      "source": "osm",
      "betweenness": 0.0023,
      "degree": 187
    },
    {
      "id": "('node', 4402329990)",
      "lat": 13.725335,
      "lng": 100.542555,
      "nameEn": "Soi Sathon 1",
      "nameTh": "ซอยสาทร 1",
      "system": "BMTA",
      "color": "#FACC15",
      "source": "osm",
      "betweenness": 0.0017,
      "degree": 185
    },
    {
      "id": "('node', 4402329991)",
      "lat": 13.722238,
      "lng": 100.532072,
      "nameEn": "nan",
      "nameTh": "nan",
      "system": "BMTA",
      "color": "#FACC15",
      "source": "osm",
      "betweenness": 0.0013,
      "degree": 197
    },
    {
      "id": "('node', 4402329992)",
      "lat": 13.717193,
      "lng": 100.514587,
      "nameEn": "Opposite Wat Yannawa",
      "nameTh": "ฝั่งตรงข้าม วัดยานนาวา",
      "system": "BMTA",
      "color": "#FACC15",
      "source": "osm",
      "betweenness": 0.0013,
      "degree": 162
    },
    {
      "id": "('node', 4402346390)",
      "lat": 13.720171,
      "lng": 100.525196,
      "nameEn": "nan",
      "nameTh": "nan",
      "system": "BMTA",
      "color": "#FACC15",
      "source": "osm",
      "betweenness": 0.0023,
      "degree": 207
    },
    {
      "id": "('node', 4422461689)",
      "lat": 13.91138,
      "lng": 100.552426,
      "nameEn": "nan",
      "nameTh": "nan",
      "system": "BMTA",
      "color": "#FACC15",
      "source": "osm",
      "betweenness": 0.0,
      "degree": 33
    },
    {
      "id": "('node', 4423368091)",
      "lat": 13.909515,
      "lng": 100.55233,
      "nameEn": "nan",
      "nameTh": "Bus stop",
      "system": "BMTA",
      "color": "#FACC15",
      "source": "osm",
      "betweenness": 0.0009,
      "degree": 33
    },
    {
      "id": "('node', 4441448462)",
      "lat": 13.910023,
      "lng": 100.617121,
      "nameEn": "nan",
      "nameTh": "nan",
      "system": "BMTA",
      "color": "#FACC15",
      "source": "osm",
      "betweenness": 0.0003,
      "degree": 52
    },
    {
      "id": "('node', 4460800328)",
      "lat": 13.739665,
      "lng": 100.561899,
      "nameEn": "nan",
      "nameTh": "nan",
      "system": "BMTA",
      "color": "#FACC15",
      "source": "osm",
      "betweenness": 0.0035,
      "degree": 127
    },
    {
      "id": "('node', 4462541150)",
      "lat": 13.745674,
      "lng": 100.562615,
      "nameEn": "nan",
      "nameTh": "nan",
      "system": "BMTA",
      "color": "#FACC15",
      "source": "osm",
      "betweenness": 0.0023,
      "degree": 110
    },
    {
      "id": "('node', 4475441500)",
      "lat": 13.724739,
      "lng": 100.577994,
      "nameEn": "2",
      "nameTh": "nan",
      "system": "BMTA",
      "color": "#FACC15",
      "source": "osm",
      "betweenness": 0.0021,
      "degree": 99
    },
    {
      "id": "('node', 4476658423)",
      "lat": 13.797133,
      "lng": 100.574621,
      "nameEn": "nan",
      "nameTh": "nan",
      "system": "BMTA",
      "color": "#FACC15",
      "source": "osm",
      "betweenness": 0.0041,
      "degree": 87
    },
    {
      "id": "('node', 4476658433)",
      "lat": 13.811408,
      "lng": 100.575094,
      "nameEn": "nan",
      "nameTh": "nan",
      "system": "BMTA",
      "color": "#FACC15",
      "source": "osm",
      "betweenness": 0.0033,
      "degree": 73
    },
    {
      "id": "('node', 4476658436)",
      "lat": 13.812585,
      "lng": 100.575464,
      "nameEn": "nan",
      "nameTh": "nan",
      "system": "BMTA",
      "color": "#FACC15",
      "source": "osm",
      "betweenness": 0.0015,
      "degree": 67
    },
    {
      "id": "('node', 4484738393)",
      "lat": 13.797061,
      "lng": 100.561276,
      "nameEn": "nan",
      "nameTh": "nan",
      "system": "BMTA",
      "color": "#FACC15",
      "source": "osm",
      "betweenness": 0.0069,
      "degree": 132
    },
    {
      "id": "('node', 4487938929)",
      "lat": 13.75649,
      "lng": 100.514273,
      "nameEn": "nan",
      "nameTh": "หลังแยกสะพานขาว",
      "system": "BMTA",
      "color": "#FACC15",
      "source": "osm",
      "betweenness": 0.0014,
      "degree": 297
    },
    {
      "id": "('node', 4505266994)",
      "lat": 13.854503,
      "lng": 100.549312,
      "nameEn": "nan",
      "nameTh": "nan",
      "system": "BMTA",
      "color": "#FACC15",
      "source": "osm",
      "betweenness": 0.0036,
      "degree": 74
    },
    {
      "id": "('node', 4505266995)",
      "lat": 13.85819,
      "lng": 100.527639,
      "nameEn": "nan",
      "nameTh": "nan",
      "system": "BMTA",
      "color": "#FACC15",
      "source": "osm",
      "betweenness": 0.0021,
      "degree": 55
    },
    {
      "id": "('node', 4505323200)",
      "lat": 13.858389,
      "lng": 100.528651,
      "nameEn": "nan",
      "nameTh": "nan",
      "system": "BMTA",
      "color": "#FACC15",
      "source": "osm",
      "betweenness": 0.0016,
      "degree": 52
    },
    {
      "id": "('node', 4505323201)",
      "lat": 13.849845,
      "lng": 100.562407,
      "nameEn": "nan",
      "nameTh": "nan",
      "system": "BMTA",
      "color": "#FACC15",
      "source": "osm",
      "betweenness": 0.002,
      "degree": 94
    },
    {
      "id": "('node', 4505323202)",
      "lat": 13.84663,
      "lng": 100.560691,
      "nameEn": "nan",
      "nameTh": "nan",
      "system": "BMTA",
      "color": "#FACC15",
      "source": "osm",
      "betweenness": 0.0022,
      "degree": 100
    },
    {
      "id": "('node', 4505323203)",
      "lat": 13.850867,
      "lng": 100.555132,
      "nameEn": "nan",
      "nameTh": "nan",
      "system": "BMTA",
      "color": "#FACC15",
      "source": "osm",
      "betweenness": 0.0004,
      "degree": 83
    },
    {
      "id": "('node', 4505323204)",
      "lat": 13.853063,
      "lng": 100.55121,
      "nameEn": "Opposite Soi Chinnakhet 2",
      "nameTh": "nan",
      "system": "BMTA",
      "color": "#FACC15",
      "source": "osm",
      "betweenness": 0.0014,
      "degree": 82
    },
    {
      "id": "('node', 4505323205)",
      "lat": 13.879372,
      "lng": 100.50724,
      "nameEn": "Opposite Office of the National Anti-Corruption Commission (NACC)",
      "nameTh": "ฝั่งตรงข้าม สำนักงานคณะกรรมการป้องกันและปราบปรามการทุจริตแห่งชาติ (ป.ช.ช.)",
      "system": "BMTA",
      "color": "#FACC15",
      "source": "osm",
      "betweenness": 0.0033,
      "degree": 45
    },
    {
      "id": "('node', 4505337590)",
      "lat": 13.862468,
      "lng": 100.520854,
      "nameEn": "Central Chest Institute Of Thailand",
      "nameTh": "สถาบันโรคทรวงอก",
      "system": "BMTA",
      "color": "#FACC15",
      "source": "osm",
      "betweenness": 0.0039,
      "degree": 52
    },
    {
      "id": "('node', 4505337591)",
      "lat": 13.858636,
      "lng": 100.526623,
      "nameEn": "nan",
      "nameTh": "nan",
      "system": "BMTA",
      "color": "#FACC15",
      "source": "osm",
      "betweenness": 0.0053,
      "degree": 58
    },