{
  "nodes": [
    {
      "id": "('node', 70753469)",
      "lat": 13.779445,
      "lng": 100.529937,
      "nameEn": "Sam Sen",
      "nameTh": "สามเสน",
      "system": "OTHER",
      "color": "#6B7280",
      "source": "osm"
    },
    {
      "id": "('node', 88122604)",
      "lat": 13.75256,
      "lng": 100.488271,
      "nameEn": "Tha Chang N9",
      "nameTh": "ท่าช้าง",
      "system": "OTHER",
      "color": "#6B7280",
      "source": "osm"
    },
    {
      "id": "('node', 247799583)",
      "lat": 13.595088,
      "lng": 100.595749,
      "nameEn": "Wibun Si Pier",
      "nameTh": "ท่าเรือวิบูลย์ศรี",
      "system": "OTHER",
      "color": "#6B7280",
      "source": "osm"
    },
    {
      "id": "('node', 249403520)",
      "lat": 13.745978,
      "lng": 100.490008,
      "nameEn": "Tha Tien N8",
      "nameTh": "ท่าเตียน",
      "system": "OTHER",
      "color": "#6B7280",
      "source": "osm"
    },
    {
      "id": "('node', 257066779)",
      "lat": 13.719268,
      "lng": 100.521462,
      "nameEn": "Surasak",
      "nameTh": "สุรศักดิ์",
      "system": "BTS",
      "color": "#3aa537",
      "source": "osm"
    },
    {
      "id": "('node', 257066790)",
      "lat": 13.723797,
      "lng": 100.529325,
      "nameEn": "Chong Nonsi",
      "nameTh": "ช่องนนทรี",
      "system": "OTHER",
      "color": "#6B7280",
      "source": "osm"
    },
    {
      "id": "('node', 257066809)",
      "lat": 13.739471,
      "lng": 100.53945,
      "nameEn": "Ratchadamri",
      "nameTh": "ราชดำริ",
      "system": "OTHER",
      "color": "#6B7280",
      "source": "osm"
    },
    {
      "id": "('node', 257066819)",
      "lat": 13.746532,
      "lng": 100.52909,
      "nameEn": "National Stadium",
      "nameTh": "สนามกีฬาแห่งชาติ",
      "system": "OTHER",
      "color": "#6B7280",
      "source": "osm"
    },
    {
      "id": "('node', 257067085)",
      "lat": 13.718813,
      "lng": 100.514223,
      "nameEn": "Saphan Taksin",
      "nameTh": "สะพานตากสิน",
      "system": "OTHER",
      "color": "#6B7280",
      "source": "osm"
    },
    {
      "id": "('node', 259723396)",
      "lat": 13.766539,
      "lng": 100.524707,
      "nameEn": "Chitlada",
      "nameTh": "จิตรลดา",
      "system": "OTHER",
      "color": "#6B7280",
      "source": "osm"
    },
    {
      "id": "('node', 259729383)",
      "lat": 13.791988,
      "lng": 100.477535,
      "nameEn": "Bang Bamru",
      "nameTh": "บางบำหรุ",
      "system": "OTHER",
      "color": "#6B7280",
      "source": "osm"
    },
    {
      "id": "('node', 259729384)",
      "lat": 13.789127,
      "lng": 100.439926,
      "nameEn": "Taling Chan Junction",
      "nameTh": "nan",
      "system": "OTHER",
      "color": "#6B7280",
      "source": "osm"
    },
    {
      "id": "('node', 269347981)",
      "lat": 13.762992,
      "lng": 100.490691,
      "nameEn": "Phra Pinklao Bridge N12",
      "nameTh": "พระปิ่นเกล้า",
      "system": "OTHER",
      "color": "#6B7280",
      "source": "osm"
    },
    {
      "id": "('node', 269747367)",
      "lat": 13.740983,
      "lng": 100.494693,
      "nameEn": "Yodpiman",
      "nameTh": "nan",
      "system": "OTHER",
      "color": "#6B7280",
      "source": "osm"
    },
    {
      "id": "('node', 269747411)",
      "lat": 13.725849,
      "lng": 100.511976,
      "nameEn": "Icon Siam Pier 1",
      "nameTh": "ท่าเรือไอคอนสยาม 1",
      "system": "OTHER",
      "color": "#6B7280",
      "source": "osm"
    },
    {
      "id": "('node', 270666787)",
      "lat": 13.751879,
      "lng": 100.531572,
      "nameEn": "Ratchathewi",
      "nameTh": "ราชเทวี",
      "system": "OTHER",
      "color": "#6B7280",
      "source": "osm"
    },
    {
      "id": "('node', 270666790)",
      "lat": 13.756978,
      "lng": 100.533807,
      "nameEn": "Phaya Thai",
      "nameTh": "พญาไท",
      "system": "OTHER",
      "color": "#6B7280",
      "source": "osm"
    },
    {
      "id": "('node', 270666791)",
      "lat": 13.762753,
      "lng": 100.537067,
      "nameEn": "Victory Monument",
      "nameTh": "อนุสาวรีย์ชัยสมรภูมิ",
      "system": "OTHER",
      "color": "#6B7280",
      "source": "osm"
    },
    {
      "id": "('node', 270666802)",
      "lat": 13.772615,
      "lng": 100.542093,
      "nameEn": "Sanam Pao",
      "nameTh": "สนามเป้า",
      "system": "OTHER",
      "color": "#6B7280",
      "source": "osm"
    },
    {
      "id": "('node', 270666804)",
      "lat": 13.779706,
      "lng": 100.54464,
      "nameEn": "Ari",
      "nameTh": "อารีย์",
      "system": "OTHER",
      "color": "#6B7280",
      "source": "osm"
    },
    {
      "id": "('node', 270666805)",
      "lat": 13.785936,
      "lng": 100.546865,
      "nameEn": "Sena Ruam",
      "nameTh": "เสนาร่วม",
      "system": "BTS",
      "color": "#3aa537",
      "source": "osm"
    },
    {
      "id": "('node', 270666806)",
      "lat": 13.793819,
      "lng": 100.549724,
      "nameEn": "Saphan Khwai",
      "nameTh": "สะพานควาย",
      "system": "OTHER",
      "color": "#6B7280",
      "source": "osm"
    },
    {
      "id": "('node', 270666810)",
      "lat": 13.802598,
      "lng": 100.553811,
      "nameEn": "Mo Chit",
      "nameTh": "หมอชิต",
      "system": "OTHER",
      "color": "#6B7280",
      "source": "osm"
    },
    {
      "id": "('node', 270668230)",
      "lat": 13.740555,
      "lng": 100.555443,
      "nameEn": "Nana",
      "nameTh": "นานา",
      "system": "OTHER",
      "color": "#6B7280",
      "source": "osm"
    },
    {
      "id": "('node', 270668232)",
      "lat": 13.744119,
      "lng": 100.543073,
      "nameEn": "Chit Lom",
      "nameTh": "ชิดลม",
      "system": "OTHER",
      "color": "#6B7280",
      "source": "osm"
    },
    {
      "id": "('node', 275514306)",
      "lat": 13.730452,
      "lng": 100.569724,
      "nameEn": "Phrom Phong",
      "nameTh": "พร้อมพงษ์",
      "system": "OTHER",
      "color": "#6B7280",
      "source": "osm"
    },
    {
      "id": "('node', 275514816)",
      "lat": 13.73703,
      "lng": 100.560342,
      "nameEn": "Asok",
      "nameTh": "อโศก",
      "system": "OTHER",
      "color": "#6B7280",
      "source": "osm"
    },
    {
      "id": "('node', 275515851)",
      "lat": 13.74305,
      "lng": 100.548971,
      "nameEn": "Phloen Chit",
      "nameTh": "เพลินจิต",
      "system": "OTHER",
      "color": "#6B7280",
      "source": "osm"
    },
    {
      "id": "('node', 277360712)",
      "lat": 13.724257,
      "lng": 100.57853,
      "nameEn": "Thong Lo",
      "nameTh": "ทองหล่อ",
      "system": "OTHER",
      "color": "#6B7280",
      "source": "osm"
    },
    {
      "id": "('node', 277360862)",
      "lat": 13.719551,
      "lng": 100.585128,
      "nameEn": "Ekkamai BTS Station",
      "nameTh": "ekkamai",
      "system": "BTS",
      "color": "#3aa537",
      "source": "osm"
    },
    {
      "id": "('node', 277360879)",
      "lat": 13.715157,
      "lng": 100.591225,
      "nameEn": "Phra Khanong",
      "nameTh": "พระโขนง",
      "system": "OTHER",
      "color": "#6B7280",
      "source": "osm"
    },
    {
      "id": "('node', 277361532)",
      "lat": 13.705619,
      "lng": 100.600983,
      "nameEn": "On Nut",
      "nameTh": "อ่อนนุช",
      "system": "OTHER",
      "color": "#6B7280",
      "source": "osm"
    },
    {
      "id": "('node', 280179404)",
      "lat": 13.737571,
      "lng": 100.517135,
      "nameEn": "Hua Lamphong",
      "nameTh": "หัวลำโพง",
      "system": "OTHER",
      "color": "#6B7280",
      "source": "osm"
    },
    {
      "id": "('node', 280179421)",
      "lat": 13.737496,
      "lng": 100.561396,
      "nameEn": "Sukhumvit",
      "nameTh": "สุขุมวิท",
      "system": "OTHER",
      "color": "#6B7280",
      "source": "osm"
    },
    {
      "id": "('node', 280179426)",
      "lat": 13.7492,
      "lng": 100.563338,
      "nameEn": "Phetchaburi",
      "nameTh": "เพชรบุรี",
      "system": "OTHER",
      "color": "#6B7280",
      "source": "osm"
    },
    {
      "id": "('node', 280179427)",
      "lat": 13.757817,
      "lng": 100.565277,
      "nameEn": "Phra Ram 9",
      "nameTh": "พระราม 9",
      "system": "OTHER",
      "color": "#6B7280",
      "source": "osm"
    },
    {
      "id": "('node', 280179442)",
      "lat": 13.729174,
      "lng": 100.537068,
      "nameEn": "Si Lom",
      "nameTh": "สีลม",
      "system": "OTHER",
      "color": "#6B7280",
      "source": "osm"
    },
    {
      "id": "('node', 280179448)",
      "lat": 13.722672,
      "lng": 100.559913,
      "nameEn": "Queen Sirikit National Convention Centre",
      "nameTh": "ศูนย์การประชุมแห่งชาติสิริกิติ์",
      "system": "OTHER",
      "color": "#6B7280",
      "source": "osm"
    },
    {
      "id": "('node', 280222462)",
      "lat": 13.725607,
      "lng": 100.545725,
      "nameEn": "Lumphini",
      "nameTh": "ลุมพินี",
      "system": "OTHER",
      "color": "#6B7280",
      "source": "osm"
    },
    {
      "id": "('node', 280222869)",
      "lat": 13.732046,
      "lng": 100.530114,
      "nameEn": "Sam Yan",
      "nameTh": "สามย่าน",
      "system": "OTHER",
      "color": "#6B7280",
      "source": "osm"
    },
    {
      "id": "('node', 280239009)",
      "lat": 13.778688,
      "lng": 100.573566,
      "nameEn": "Huai Khwang",
      "nameTh": "ห้วยขวาง",
      "system": "OTHER",
      "color": "#6B7280",
      "source": "osm"
    },
    {
      "id": "('node', 280239362)",
      "lat": 13.789488,
      "lng": 100.57408,
      "nameEn": "Sutthisan",
      "nameTh": "สุทธิสาร",
      "system": "OTHER",
      "color": "#6B7280",
      "source": "osm"
    },
    {
      "id": "('node', 280239363)",
      "lat": 13.798971,
      "lng": 100.574554,
      "nameEn": "Ratchadaphisek",
      "nameTh": "รัชดาภิเษก",
      "system": "OTHER",
      "color": "#6B7280",
      "source": "osm"
    },
    {
      "id": "('node', 280240574)",
      "lat": 13.766158,
      "lng": 100.570119,
      "nameEn": "Thailand Cultural Centre",
      "nameTh": "ศูนย์วัฒนธรรมแห่งประเทศไทย",
      "system": "OTHER",
      "color": "#6B7280",
      "source": "osm"
    },
    {
      "id": "('node', 280240577)",
      "lat": 13.806503,
      "lng": 100.57287,
      "nameEn": "Lat Phrao",
      "nameTh": "ลาดพร้าว",
      "system": "OTHER",
      "color": "#6B7280",
      "source": "osm"
    },
    {
      "id": "('node', 280240580)",
      "lat": 13.812881,
      "lng": 100.561463,
      "nameEn": "Phahon Yothin",
      "nameTh": "พหลโยธิน",
      "system": "OTHER",
      "color": "#6B7280",
      "source": "osm"
    },
    {
      "id": "('node', 280240585)",
      "lat": 13.802964,
      "lng": 100.553285,
      "nameEn": "Chatuchak Park",
      "nameTh": "สวนจตุจักร",
      "system": "MRT",
      "color": "#1964B7",
      "source": "osm"
    },
    {
      "id": "('node', 280240589)",
      "lat": 13.797948,
      "lng": 100.547884,
      "nameEn": "Kamphaeng Phet",
      "nameTh": "กำแพงเพชร",
      "system": "OTHER",
      "color": "#6B7280",
      "source": "osm"
    },
    {
      "id": "('node', 280246418)",
      "lat": 13.802354,
      "lng": 100.54103,
      "nameEn": "Bang Sue",
      "nameTh": "บางซื่อ",
      "system": "OTHER",
      "color": "#6B7280",
      "source": "osm"
    },
    {
      "id": "('node', 280729450)",
      "lat": 13.722126,
      "lng": 100.55437,
      "nameEn": "Khlong Toei",
      "nameTh": "คลองเตย",
      "system": "OTHER",
      "color": "#6B7280",
      "source": "osm"
    },
    {
      "id": "('node', 305693940)",
      "lat": 13.719243,
      "lng": 100.485968,
      "nameEn": "Pho Nimit",
      "nameTh": "โพธิ์นิมิตร",
      "system": "BTS",
      "color": "#3aa537",
      "source": "osm"
    },
    {
      "id": "('node', 330201434)",
      "lat": 13.760663,
      "lng": 100.478694,
      "nameEn": "Thonburi",
      "nameTh": "ธนบุรี",
      "system": "OTHER",
      "color": "#6B7280",
      "source": "osm"
    },
    {
      "id": "('node', 340133002)",
      "lat": 13.71422,
      "lng": 100.476691,
      "nameEn": "Talat Phlu",
      "nameTh": "ตลาดพลู",
      "system": "BTS",
      "color": "#3aa537",
      "source": "osm"
    },
    {
      "id": "('node', 358613848)",
      "lat": 13.758628,
      "lng": 100.521474,
      "nameEn": "Yommarat",
      "nameTh": "ยมราช",
      "system": "OTHER",
      "color": "#6B7280",
      "source": "osm"
    },
    {
      "id": "('node', 360166991)",
      "lat": 13.768507,
      "lng": 100.525505,
      "nameEn": "Ramathibodi Hospital",
      "nameTh": "โรงพยาบาลรามาธิบดี",
      "system": "OTHER",
      "color": "#6B7280",
      "source": "osm"
    },
    {
      "id": "('node', 443815142)",
      "lat": 13.721082,
      "lng": 100.495159,
      "nameEn": "Wongwian Yai",
      "nameTh": "วงเวียนใหญ่",
      "system": "BTS",
      "color": "#3aa537",
      "source": "osm"
    },
    {
      "id": "('node', 443815144)",
      "lat": 13.720931,
      "lng": 100.502718,
      "nameEn": "Krung Thon Buri",
      "nameTh": "กรุงธนบุรี",
      "system": "BTS",
      "color": "#3aa537",
      "source": "osm"
    },
    {
      "id": "('node', 444979563)",
      "lat": 13.732963,
      "lng": 100.68873,
      "nameEn": "Ban Thap Chang",
      "nameTh": "บ้านทับช้าง",
      "system": "OTHER",
      "color": "#6B7280",
      "source": "osm"
    },
    {
      "id": "('node', 451697335)",
      "lat": 13.728568,
      "lng": 100.534342,
      "nameEn": "Sala Daeng",
      "nameTh": "ศาลาแดง",
      "system": "OTHER",
      "color": "#6B7280",
      "source": "osm"
    },
    {
      "id": "('node', 487075253)",
      "lat": 13.682475,
      "lng": 100.58723,
      "nameEn": "Wat Bang Namphueng Nok Pier",
      "nameTh": "nan",
      "system": "OTHER",
      "color": "#6B7280",
      "source": "osm"
    },
    {
      "id": "('node', 487075255)",
      "lat": 13.676631,
      "lng": 100.587369,
      "nameEn": "Wat Bang Na Nok Pier",
      "nameTh": "nan",
      "system": "OTHER",
      "color": "#6B7280",
      "source": "osm"
    },
    {
      "id": "('node', 487075704)",
      "lat": 13.704289,
      "lng": 100.562811,
      "nameEn": "Bang Kachao Pier",
      "nameTh": "nan",
      "system": "OTHER",
      "color": "#6B7280",
      "source": "osm"
    },
    {
      "id": "('node', 566342924)",
      "lat": 13.715697,
      "lng": 100.61196,
      "nameEn": "Suan Luang",
      "nameTh": "สวนหลวง",
      "system": "OTHER",
      "color": "#6B7280",
      "source": "osm"
    },
    {
      "id": "('node', 566622414)",
      "lat": 13.749358,
      "lng": 100.541493,
      "nameEn": "Pratunam",
      "nameTh": "ประตูน้ำ",
      "system": "OTHER",
      "color": "#6B7280",
      "source": "osm"
    },
    {
      "id": "('node', 566622607)",
      "lat": 13.748705,
      "lng": 100.544574,
      "nameEn": "Chidlom",
      "nameTh": "ชิดลม",
      "system": "OTHER",
      "color": "#6B7280",
      "source": "osm"
    },
    {
      "id": "('node', 566622771)",
      "lat": 13.748267,
      "lng": 100.548185,
      "nameEn": "Wireless",
      "nameTh": "สะพานวิทยุ",
      "system": "OTHER",
      "color": "#6B7280",
      "source": "osm"
    },
    {
      "id": "('node', 566622818)",
      "lat": 13.748247,
      "lng": 100.554032,
      "nameEn": "Nana Nua",
      "nameTh": "นานาเหนือ",
      "system": "OTHER",
      "color": "#6B7280",
      "source": "osm"
    },
    {
      "id": "('node', 566623226)",
      "lat": 13.748327,
      "lng": 100.559119,
      "nameEn": "Nana Chard",
      "nameTh": "นานาชาติ",
      "system": "OTHER",
      "color": "#6B7280",
      "source": "osm"
    },
    {
      "id": "('node', 566623721)",
      "lat": 13.747855,
      "lng": 100.562949,
      "nameEn": "Asok Pier",
      "nameTh": "อโศก",
      "system": "OTHER",
      "color": "#6B7280",
      "source": "osm"
    },
    {
      "id": "('node', 566624462)",
      "lat": 13.74739,
      "lng": 100.565742,
      "nameEn": "Prasanmit",
      "nameTh": "มศว ประสานมิตร",
      "system": "OTHER",
      "color": "#6B7280",
      "source": "osm"
    },
    {
      "id": "('node', 566629748)",
      "lat": 13.745923,
      "lng": 100.573481,
      "nameEn": "Italthai",
      "nameTh": "อิตัลไทย",
      "system": "OTHER",
      "color": "#6B7280",
      "source": "osm"
    },
    {
      "id": "('node', 566629891)",
      "lat": 13.745707,
      "lng": 100.574371,
      "nameEn": "Wat Mai Chonglom",
      "nameTh": "วัดใหม่ช่องลม",
      "system": "OTHER",
      "color": "#6B7280",
      "source": "osm"
    },
    {
      "id": "('node', 566630005)",
      "lat": 13.744149,
      "lng": 100.581455,
      "nameEn": "Baan Don Mosque",
      "nameTh": "สุเหร่าบ้านดอน",
      "system": "OTHER",
      "color": "#6B7280",
      "source": "osm"
    },
    {
      "id": "('node', 566630007)",
      "lat": 13.743191,
      "lng": 100.585888,
      "nameEn": "Soi Thonglor",
      "nameTh": "ซอยทองหล่อ",
      "system": "OTHER",
      "color": "#6B7280",
      "source": "osm"
    },
    {
      "id": "('node', 566630278)",
      "lat": 13.741912,
      "lng": 100.598264,
      "nameEn": "Sapan Klongtun",
      "nameTh": "สะพานคลองตัน",
      "system": "OTHER",
      "color": "#6B7280",
      "source": "osm"
    },
    {
      "id": "('node', 566630389)",
      "lat": 13.754653,
      "lng": 100.608131,
      "nameEn": "The Mall Ram",
      "nameTh": "เดอะมอลล์ราม",
      "system": "OTHER",
      "color": "#6B7280",
      "source": "osm"
    },
    {
      "id": "('node', 566630861)",
      "lat": 13.757822,
      "lng": 100.611581,
      "nameEn": "Ramkhamhaeng 29",
      "nameTh": "รามคำแหง 29",
      "system": "OTHER",
      "color": "#6B7280",
      "source": "osm"
    },
    {
      "id": "('node', 566631063)",
      "lat": 13.759954,
      "lng": 100.613781,
      "nameEn": "Wat Thepleela",
      "nameTh": "วัดเทพลีลา",
      "system": "OTHER",
      "color": "#6B7280",
      "source": "osm"
    },
    {
      "id": "('node', 566631207)",
      "lat": 13.761527,
      "lng": 100.618316,
      "nameEn": "Ramkhamhaeng",
      "nameTh": "ม.รามคำแหง",
      "system": "OTHER",
      "color": "#6B7280",
      "source": "osm"
    },
    {
      "id": "('node', 566631808)",
      "lat": 13.764643,
      "lng": 100.643446,
      "nameEn": "The Mall Bangkapi",
      "nameTh": "เดอะมอลล์บางกะปิ",
      "system": "OTHER",
      "color": "#6B7280",
      "source": "osm"
    },
    {
      "id": "('node', 566631929)",
      "lat": 13.767724,
      "lng": 100.652109,
      "nameEn": "Wat Sriboonrueng",
      "nameTh": "วัดศรีบุญเรือง",
      "system": "OTHER",
      "color": "#6B7280",
      "source": "osm"
    },
    {
      "id": "('node', 567013469)",
      "lat": 13.74982,
      "lng": 100.524312,
      "nameEn": "Sapan Charoenpol",
      "nameTh": "สะพานเจริญผล",
      "system": "OTHER",
      "color": "#6B7280",
      "source": "osm"
    },
    {
      "id": "('node', 567014146)",
      "lat": 13.753424,
      "lng": 100.515961,
      "nameEn": "Talad Bobae",
      "nameTh": "ตลาดโบ๊เบ๊",
      "system": "OTHER",
      "color": "#6B7280",
      "source": "osm"
    },
    {
      "id": "('node', 567014290)",
      "lat": 13.755512,
      "lng": 100.506445,
      "nameEn": "Phanfa Leelard",
      "nameTh": "ผ่านฟ้าลีลาศ",
      "system": "OTHER",
      "color": "#6B7280",
      "source": "osm"
    },
    {
      "id": "('node', 674670279)",
      "lat": 13.620983,
      "lng": 100.378014,
      "nameEn": "Phrom Daen",
      "nameTh": "พรมแดน",
      "system": "OTHER",
      "color": "#6B7280",
      "source": "osm"
    },
    {
      "id": "('node', 674670289)",
      "lat": 13.683249,
      "lng": 100.447658,
      "nameEn": "Wat Sing",
      "nameTh": "วัดสิงห์",
      "system": "OTHER",
      "color": "#6B7280",
      "source": "osm"
    },
    {
      "id": "('node', 674670294)",
      "lat": 13.691558,
      "lng": 100.45756,
      "nameEn": "Wat Sai",
      "nameTh": "วัดไทร",
      "system": "OTHER",
      "color": "#6B7280",
      "source": "osm"
    },
    {
      "id": "('node', 674670328)",
      "lat": 13.720819,
      "lng": 100.478018,
      "nameEn": "Talat Phlu",
      "nameTh": "ตลาดพลู",
      "system": "OTHER",
      "color": "#6B7280",
      "source": "osm"
    },
    {
      "id": "('node', 674670334)",
      "lat": 13.724393,
      "lng": 100.491232,
      "nameEn": "Wongwian Yai",
      "nameTh": "วงเวียนใหญ่",
      "system": "OTHER",
      "color": "#6B7280",
      "source": "osm"
    },
    {
      "id": "('node', 917014949)",
      "lat": 13.751067,
      "lng": 100.559813,
      "nameEn": "Makkasan",
      "nameTh": "มักกะสัน",
      "system": "ARL",
      "color": "#C8102E",
      "source": "osm"
    },
    {
      "id": "('node', 917014975)",
      "lat": 13.75683,
      "lng": 100.53449,
      "nameEn": "Phaya Thai",
      "nameTh": "พญาไท",
      "system": "ARL",
      "color": "#C8102E",
      "source": "osm"
    },
    {
      "id": "('node', 917014985)",
      "lat": 13.755089,
      "lng": 100.542048,
      "nameEn": "Ratchaprarop",
      "nameTh": "ราชปรารภ",
      "system": "ARL",
      "color": "#C8102E",
      "source": "osm"
    },
    {
      "id": "('node', 917022633)",
      "lat": 13.694843,
      "lng": 100.751388,
      "nameEn": "Suvarnabhumi",
      "nameTh": "สุวรรณภูมิ",
      "system": "ARL",
      "color": "#C8102E",
      "source": "osm"
    },
    {
      "id": "('node', 970112998)",
      "lat": 13.738017,
      "lng": 100.645262,
      "nameEn": "Hua Mak",
      "nameTh": "หัวหมาก",
      "system": "ARL",
      "color": "#C8102E",
      "source": "osm"
    },
    {
      "id": "('node', 974438572)",
      "lat": 13.736982,
      "lng": 100.503848,
      "nameEn": "Tha Din Daeng",
      "nameTh": "ท่าดินแดง",
      "system": "OTHER",
      "color": "#6B7280",
      "source": "osm"
    },
    {
      "id": "('node', 974438658)",
      "lat": 13.738465,
      "lng": 100.504365,
      "nameEn": "Ratchawong N 5",
      "nameTh": "ราชวงศ์",
      "system": "OTHER",
      "color": "#6B7280",
      "source": "osm"
    },
    {
      "id": "('node', 999013479)",
      "lat": 13.743018,
      "lng": 100.599744,
      "nameEn": "Ramkhamhaeng",
      "nameTh": "รามคำแหง",
      "system": "ARL",
      "color": "#C8102E",
      "source": "osm"
    },
    {
      "id": "('node', 999013485)",
      "lat": 13.727645,
      "lng": 100.747833,
      "nameEn": "Lat Krabang",
      "nameTh": "ลาดกระบัง",
      "system": "ARL",
      "color": "#C8102E",
      "source": "osm"
    },
    {
      "id": "('node', 999013489)",
      "lat": 13.73286,
      "lng": 100.690808,
      "nameEn": "Ban Thap Chang",
      "nameTh": "บ้านทับช้าง",
      "system": "ARL",
      "color": "#C8102E",
      "source": "osm"
    },
    {
      "id": "('node', 1103023738)",
      "lat": 13.586954,
      "lng": 100.340105,
      "nameEn": "Khok Khwai",
      "nameTh": "คอกควาย",
      "system": "OTHER",
      "color": "#6B7280",
      "source": "osm"
    },
    {
      "id": "('node', 1113055052)",
      "lat": 13.713023,
      "lng": 100.468903,
      "nameEn": "Wutthakat",
      "nameTh": "วุฒากาศ",
      "system": "OTHER",
      "color": "#6B7280",
      "source": "osm"
    },
    {
      "id": "('node', 1133815617)",
      "lat": 13.663147,
      "lng": 100.439436,
      "nameEn": "Central Rama 2 Van-Minibus Terminal",
      "nameTh": "nan",
      "system": "OTHER",
      "color": "#6B7280",
      "source": "osm"
    },
    {
      "id": "('node', 1183545716)",
      "lat": 13.66651,
      "lng": 100.428825,
      "nameEn": "Bang Bon",
      "nameTh": "บางบอน",
      "system": "OTHER",
      "color": "#6B7280",
      "source": "osm"
    },
    {
      "id": "('node', 1183545761)",
      "lat": 13.639139,
      "lng": 100.398229,
      "nameEn": "Rang Pho",
      "nameTh": "รางโพธิ์",
      "system": "OTHER",
      "color": "#6B7280",
      "source": "osm"
    },
    {
      "id": "('node', 1183545948)",
      "lat": 13.605118,
      "lng": 100.36027,
      "nameEn": "Bang Nam Chuet",
      "nameTh": "บางน้ำจืด",
      "system": "OTHER",
      "color": "#6B7280",
      "source": "osm"
    },
    {
      "id": "('node', 1183546364)",
      "lat": 13.652598,
      "lng": 100.41323,
      "nameEn": "Kan Kheha",
      "nameTh": "การเคหะ",
      "system": "OTHER",
      "color": "#6B7280",
      "source": "osm"
    },
    {
      "id": "('node', 1183593073)",
      "lat": 13.612642,
      "lng": 100.368724,
      "nameEn": "Thung Si Thong",
      "nameTh": "ทุ่งสีทอง",
      "system": "OTHER",
      "color": "#6B7280",
      "source": "osm"
    },
    {
      "id": "('node', 1183593081)",
      "lat": 13.630266,
      "lng": 100.388366,
      "nameEn": "Sam Yaek",
      "nameTh": "สามแยก",
      "system": "OTHER",
      "color": "#6B7280",
      "source": "osm"
    },
    {
      "id": "('node', 1189125946)",
      "lat": 13.657069,
      "lng": 100.537468,
      "nameEn": "Phetra Pier",
      "nameTh": "ท่าเรือเภตรา",
      "system": "OTHER",
      "color": "#6B7280",
      "source": "osm"
    },
    {
      "id": "('node', 1199581265)",
      "lat": 13.658454,
      "lng": 100.535087,
      "nameEn": "Phra Pradaeng Town Municipality Pier",
      "nameTh": "ท่าเรือเทศบาลเมืองพระประแดง",
      "system": "OTHER",
      "color": "#6B7280",
      "source": "osm"
    },
    {
      "id": "('node', 1283653411)",
      "lat": 13.715079,
      "lng": 100.606436,
      "nameEn": "Wat Maha But",
      "nameTh": "วัดมหาบุศย์",
      "system": "OTHER",
      "color": "#6B7280",
      "source": "osm"
    },
    {
      "id": "('node', 1286879041)",
      "lat": 13.711225,
      "lng": 100.620054,
      "nameEn": "Wat Yang",
      "nameTh": "วัดยาง",
      "system": "OTHER",
      "color": "#6B7280",
      "source": "osm"
    },
    {
      "id": "('node', 1342348755)",
      "lat": 13.781548,
      "lng": 100.501088,
      "nameEn": "Krung Thon Bridge",
      "nameTh": "สะพานกรุงธน",
      "system": "OTHER",
      "color": "#6B7280",
      "source": "osm"
    },
    {
      "id": "('node', 1347844713)",
      "lat": 13.728248,
      "lng": 100.782908,
      "nameEn": "Hua Takhe",
      "nameTh": "หัวตะเข้",
      "system": "OTHER",
      "color": "#6B7280",
      "source": "osm"
    },
    {
      "id": "('node', 1371997436)",
      "lat": 13.715224,
      "lng": 100.628465,
      "nameEn": "Surao Al-Kubra",
      "nameTh": "สุเหร่าอัลกุ๊บรอ",
      "system": "OTHER",
      "color": "#6B7280",
      "source": "osm"
    },
    {
      "id": "('node', 1387912487)",
      "lat": 13.91533,
      "lng": 100.49465,
      "nameEn": "Pakkret",
      "nameTh": "nan",
      "system": "OTHER",
      "color": "#6B7280",
      "source": "osm"
    },
    {
      "id": "('node', 1388321881)",
      "lat": 13.912826,
      "lng": 100.49168,
      "nameEn": "Wat Sanam Nuea Ferry Pier",
      "nameTh": "ท่าวัดสนามเหนือ",
      "system": "OTHER",
      "color": "#6B7280",
      "source": "osm"
    },
    {
      "id": "('node', 1408337589)",
      "lat": 13.798807,
      "lng": 100.517104,
      "nameEn": "Kiak Kai",
      "nameTh": "เกียกกาย",
      "system": "OTHER",
      "color": "#6B7280",
      "source": "osm"
    },
    {
      "id": "('node', 1408337592)",
      "lat": 13.832209,
      "lng": 100.493891,
      "nameEn": "Rama 5 Bridge",
      "nameTh": "สะพานพระราม 5",
      "system": "OTHER",
      "color": "#6B7280",
      "source": "osm"
    },
    {
      "id": "('node', 1408337602)",
      "lat": 13.828219,
      "lng": 100.496902,
      "nameEn": "Wat Kien",
      "nameTh": "วัดเขียน",
      "system": "OTHER",
      "color": "#6B7280",
      "source": "osm"
    },
    {
      "id": "('node', 1408337604)",
      "lat": 13.841862,
      "lng": 100.491156,
      "nameEn": "Nonthaburi",
      "nameTh": "นนทบุรี",
      "system": "OTHER",
      "color": "#6B7280",
      "source": "osm"
    },
    {
      "id": "('node', 1408337608)",
      "lat": 13.81284,
      "lng": 100.513745,
      "nameEn": "Rama 7 Bridge",
      "nameTh": "พระราม 7",
      "system": "OTHER",
      "color": "#6B7280",
      "source": "osm"
    },
    {
      "id": "('node', 1408346288)",
      "lat": 13.787543,
      "lng": 100.508141,
      "nameEn": "Payap",
      "nameTh": "พายัพ",
      "system": "OTHER",
      "color": "#6B7280",
      "source": "osm"
    },
    {
      "id": "('node', 1408390195)",
      "lat": 13.767532,
      "lng": 100.49773,
      "nameEn": "Rama 8 Bridge",
      "nameTh": "พระราม 8",
      "system": "OTHER",
      "color": "#6B7280",
      "source": "osm"
    },
    {
      "id": "('node', 1408394726)",
      "lat": 13.806359,
      "lng": 100.518785,
      "nameEn": "Bang Po",
      "nameTh": "บางโพ",
      "system": "OTHER",
      "color": "#6B7280",
      "source": "osm"
    },
    {
      "id": "('node', 1408469372)",
      "lat": 13.755693,
      "lng": 100.486828,
      "nameEn": "Tha Wang Lang",
      "nameTh": "ท่าวังหลัง",
      "system": "OTHER",
      "color": "#6B7280",
      "source": "osm"
    },
    {
      "id": "('node', 1408498124)",
      "lat": 13.732494,
      "lng": 100.511879,
      "nameEn": "Marine Department",
      "nameTh": "กรมเจ้าท่า",
      "system": "OTHER",
      "color": "#6B7280",
      "source": "osm"
    },
    {
      "id": "('node', 1408509168)",
      "lat": 13.728416,
      "lng": 100.513106,
      "nameEn": "Si Phraya",
      "nameTh": "สี่พระยา",
      "system": "OTHER",
      "color": "#6B7280",
      "source": "osm"
    },
    {
      "id": "('node', 1408521453)",
      "lat": 13.723315,
      "lng": 100.513519,
      "nameEn": "Oriental Pier",
      "nameTh": "ท่าเรือโอเรียนเต็ล",
      "system": "OTHER",
      "color": "#6B7280",
      "source": "osm"
    },
    {
      "id": "('node', 1408524159)",
      "lat": 13.706539,
      "lng": 100.503845,
      "nameEn": "Wat Rajsingkorn",
      "nameTh": "วัดราชสิงขร",
      "system": "OTHER",
      "color": "#6B7280",
      "source": "osm"
    },
    {
      "id": "('node', 1408524161)",
      "lat": 13.709543,
      "lng": 100.50686,
      "nameEn": "Wat Worachanyawas",
      "nameTh": "วัดวรจรรยาวาส",
      "system": "OTHER",
      "color": "#6B7280",
      "source": "osm"
    },
    {
      "id": "('node', 1538274371)",
      "lat": 13.836152,
      "lng": 100.498675,
      "nameEn": "Pongsawadi Technological College",
      "nameTh": "วิทยาลัยเทคโนโลยีพงษ์สวัสดิ์",
      "system": "OTHER",
      "color": "#6B7280",
      "source": "osm"
    },
    {
      "id": "('node', 1540358680)",
      "lat": 13.84834,
      "lng": 100.437042,
      "nameEn": "Bang Len Soi 21",
      "nameTh": "บางเลน ซอย 21",
      "system": "OTHER",
      "color": "#6B7280",
      "source": "osm"
    },
    {
      "id": "('node', 1540358749)",
      "lat": 13.872761,
      "lng": 100.435313,
      "nameEn": "Wat Molee",
      "nameTh": "วัดโมลี",
      "system": "OTHER",
      "color": "#6B7280",
      "source": "osm"
    },
    {
      "id": "('node', 1540358765)",
      "lat": 13.851368,
      "lng": 100.437656,
      "nameEn": "Bang Len Soi 13",
      "nameTh": "บางเลน ซอย 13",
      "system": "OTHER",
      "color": "#6B7280",
      "source": "osm"
    },
    {
      "id": "('node', 1560656072)",
      "lat": 13.696756,
      "lng": 100.605318,
      "nameEn": "Bang Chak",
      "nameTh": "บางจาก",
      "system": "OTHER",
      "color": "#6B7280",
      "source": "osm"
    },
    {
      "id": "('node', 1623682066)",
      "lat": 13.657034,
      "lng": 100.534159,
      "nameEn": "Phra Pradaeng Pier",
      "nameTh": "nan",
      "system": "OTHER",
      "color": "#6B7280",
      "source": "osm"
    },
    {
      "id": "('node', 1632812009)",
      "lat": 13.762427,
      "lng": 100.489983,
      "nameEn": "Phra Pin Klao Pier (Thon Buri) 12",
      "nameTh": "nan",
      "system": "OTHER",
      "color": "#6B7280",
      "source": "osm"
    },
    {
      "id": "('node', 1632824440)",
      "lat": 13.765395,
      "lng": 100.493404,
      "nameEn": "Wat Daowaduengsaram",
      "nameTh": "วัดดาวดึงษาราม",
      "system": "OTHER",
      "color": "#6B7280",
      "source": "osm"
    },
    {
      "id": "('node', 1637548696)",
      "lat": 13.753861,
      "lng": 100.547366,
      "nameEn": "Makkasan",
      "nameTh": "มักกะสัน",
      "system": "OTHER",
      "color": "#6B7280",
      "source": "osm"
    },
    {
      "id": "('node', 1645239685)",
      "lat": 13.905173,
      "lng": 100.491383,
      "nameEn": "Wat Klangkret",
      "nameTh": "nan",
      "system": "OTHER",
      "color": "#6B7280",
      "source": "osm"
    },
    {
      "id": "('node', 1645239724)",
      "lat": 13.883267,
      "lng": 100.485163,
      "nameEn": "Ministry of Commerce",
      "nameTh": "nan",
      "system": "OTHER",
      "color": "#6B7280",
      "source": "osm"
    },
    {
      "id": "('node', 1648414719)",
      "lat": 13.822154,
      "lng": 100.534215,
      "nameEn": "Bang Son",
      "nameTh": "บางซ่อน",
      "system": "OTHER",
      "color": "#6B7280",
      "source": "osm"
    },
    {
      "id": "('node', 1672566455)",
      "lat": 13.720796,
      "lng": 100.457805,
      "nameEn": "Bang Wa",
      "nameTh": "บางหว้า",
      "system": "OTHER",
      "color": "#6B7280",
      "source": "osm"
    },
    {
      "id": "('node', 1681039896)",
      "lat": 13.696353,
      "lng": 100.545366,
      "nameEn": "Nararam 3",
      "nameTh": "nan",
      "system": "BRT",
      "color": "#F97316",
      "source": "osm"
    },
    {
      "id": "('node', 1692209237)",
      "lat": 13.745624,
      "lng": 100.53422,
      "nameEn": "Siam",
      "nameTh": "สยาม",
      "system": "BTS",
      "color": "#3aa537",
      "source": "osm"
    },
    {
      "id": "('node', 1692810681)",
      "lat": 13.713913,
      "lng": 100.553861,
      "nameEn": "Mae Nam",
      "nameTh": "แม่น้ำ",
      "system": "OTHER",
      "color": "#6B7280",
      "source": "osm"
    },
    {
      "id": "('node', 1692912081)",
      "lat": 13.757011,
      "lng": 100.533194,
      "nameEn": "Phaya Thai",
      "nameTh": "พญาไท",
      "system": "OTHER",
      "color": "#6B7280",
      "source": "osm"
    },
    {
      "id": "('node', 1705451863)",
      "lat": 13.847723,
      "lng": 100.495774,
      "nameEn": "Opposite Soi Pracharat 26 Yak 3",
      "nameTh": "ตรงข้าม ซอยประชาราษฎร์ 26 แยก 3",
      "system": "OTHER",
      "color": "#6B7280",
      "source": "osm"
    },
    {
      "id": "('node', 1724588735)",
      "lat": 13.804142,
      "lng": 100.539962,
      "nameEn": "Bang Sue Junction",
      "nameTh": "ชุมทางบางซื่อ",
      "system": "OTHER",
      "color": "#6B7280",
      "source": "osm"
    },
    {
      "id": "('node', 1726172762)",
      "lat": 13.689272,
      "lng": 100.608977,
      "nameEn": "Punnawithi",
      "nameTh": "ปุณณวิถี",
      "system": "OTHER",
      "color": "#6B7280",
      "source": "osm"
    },
    {
      "id": "('node', 1726175401)",
      "lat": 13.679868,
      "lng": 100.60949,
      "nameEn": "Udom Suk",
      "nameTh": "อุดมสุข",
      "system": "OTHER",
      "color": "#6B7280",
      "source": "osm"
    },
    {
      "id": "('node', 1726177803)",
      "lat": 13.668136,
      "lng": 100.604681,
      "nameEn": "Bang Na",
      "nameTh": "บางนา",
      "system": "OTHER",
      "color": "#6B7280",
      "source": "osm"
    },
    {
      "id": "('node', 1726177804)",
      "lat": 13.661194,
      "lng": 100.601789,
      "nameEn": "Bearing",
      "nameTh": "แบริ่ง",
      "system": "OTHER",
      "color": "#6B7280",
      "source": "osm"
    },
    {
      "id": "('node', 1726307666)",
      "lat": 13.727508,
      "lng": 100.748554,
      "nameEn": "Lat Krabang",
      "nameTh": "ลาดกระบัง",
      "system": "OTHER",
      "color": "#6B7280",
      "source": "osm"
    },
    {
      "id": "('node', 1726307669)",
      "lat": 13.729681,
      "lng": 100.718185,
      "nameEn": "Soi Wat Lan Boon",
      "nameTh": "ซอยวัดลานบุญ",
      "system": "OTHER",
      "color": "#6B7280",
      "source": "osm"
    },
    {
      "id": "('node', 1726324367)",
      "lat": 13.717,
      "lng": 100.532572,
      "nameEn": "nan",
      "nameTh": "nan",
      "system": "OTHER",
      "color": "#6B7280",
      "source": "osm"
    },
    {
      "id": "('node', 1730560919)",
      "lat": 13.761423,
      "lng": 100.491689,
      "nameEn": "Phra Pin Klao Pier (Phra Nakhon)",
      "nameTh": "nan",
      "system": "OTHER",
      "color": "#6B7280",
      "source": "osm"
    },
    {
      "id": "('node', 1795297733)",
      "lat": 13.673173,
      "lng": 100.580008,
      "nameEn": "Ta Luean Pier",
      "nameTh": "nan",
      "system": "OTHER",
      "color": "#6B7280",
      "source": "osm"
    },
    {
      "id": "('node', 1870259848)",
      "lat": 13.869505,
      "lng": 100.592398,
      "nameEn": "Bang Khen Bus Depot",
      "nameTh": "กลุ่มปฏิบัติการเดินรถที่ 1 เขตการเดินรถที่ 1 (อู่บางเขน)",
      "system": "OTHER",
      "color": "#6B7280",
      "source": "osm"
    },
    {
      "id": "('node', 1886961381)",
      "lat": 13.74134,
      "lng": 100.494186,
      "nameEn": "Atsadang Pier",
      "nameTh": "nan",
      "system": "OTHER",
      "color": "#6B7280",
      "source": "osm"
    },
    {
      "id": "('node', 1905838341)",
      "lat": 13.754478,
      "lng": 100.488427,
      "nameEn": "Maharaj",
      "nameTh": "มหาราช",
      "system": "OTHER",
      "color": "#6B7280",
      "source": "osm"
    },
    {
      "id": "('node', 1905838342)",
      "lat": 13.763558,
      "lng": 100.494037,
      "nameEn": "Phra Arthit",
      "nameTh": "พระอาทิตย์",
      "system": "OTHER",
      "color": "#6B7280",
      "source": "osm"
    },
    {
      "id": "('node', 1905838343)",
      "lat": 13.832906,
      "lng": 100.49627,
      "nameEn": "Pibul 2",
      "nameTh": "พิบูลสงคราม 2",
      "system": "OTHER",
      "color": "#6B7280",
      "source": "osm"
    },
    {
      "id": "('node', 1905838344)",
      "lat": 13.718864,
      "lng": 100.512711,
      "nameEn": "Sathorn (Taksin)",
      "nameTh": "สาทร (ตากสิน)",
      "system": "OTHER",
      "color": "#6B7280",
      "source": "osm"
    },
    {
      "id": "('node', 2013379450)",
      "lat": 13.72818,
      "lng": 100.775468,
      "nameEn": "Phra Chom Klao",
      "nameTh": "พระจอมเกล้า",
      "system": "OTHER",
      "color": "#6B7280",
      "source": "osm"
    },
    {
      "id": "('node', 2074694261)",
      "lat": 13.70495,
      "lng": 100.501688,
      "nameEn": "Asiatique",
      "nameTh": "เอเชียทีค",
      "system": "OTHER",
      "color": "#6B7280",
      "source": "osm"
    },
    {
      "id": "('node', 2089581535)",
      "lat": 13.704453,
      "lng": 100.538967,
      "nameEn": "nan",
      "nameTh": "nan",
      "system": "OTHER",
      "color": "#6B7280",
      "source": "osm"
    },
    {
      "id": "('node', 2089581562)",
      "lat": 13.712692,
      "lng": 100.534727,
      "nameEn": "nan",
      "nameTh": "nan",
      "system": "OTHER",
      "color": "#6B7280",
      "source": "osm"
    },
    {
      "id": "('node', 2090403330)",
      "lat": 13.690275,
      "lng": 100.504196,
      "nameEn": "Charoenrat",
      "nameTh": "nan",
      "system": "BRT",
      "color": "#F97316",
      "source": "osm"
    },
    {
      "id": "('node', 2090403344)",
      "lat": 13.693935,
      "lng": 100.500072,
      "nameEn": "Rama III Bridge",
      "nameTh": "nan",
      "system": "BRT",
      "color": "#F97316",
      "source": "osm"
    },
    {
      "id": "('node', 2090403349)",
      "lat": 13.688201,
      "lng": 100.515458,
      "nameEn": "Rama IX Bridge",
      "nameTh": "nan",
      "system": "BRT",
      "color": "#F97316",
      "source": "osm"
    },
    {
      "id": "('node', 2090403355)",
      "lat": 13.674234,
      "lng": 100.54316,
      "nameEn": "Wat Dan",
      "nameTh": "nan",
      "system": "BRT",
      "color": "#F97316",
      "source": "osm"
    },
    {
      "id": "('node', 2090403361)",
      "lat": 13.682389,
      "lng": 100.525377,
      "nameEn": "Wat Dokmai",
      "nameTh": "nan",
      "system": "BRT",
      "color": "#F97316",
      "source": "osm"
    },
    {
      "id": "('node', 2090403366)",
      "lat": 13.674688,
      "lng": 100.534261,
      "nameEn": "Wat Priwat",
      "nameTh": "nan",
      "system": "BRT",
      "color": "#F97316",
      "source": "osm"
    },
    {
      "id": "('node', 2093901408)",
      "lat": 13.715892,
      "lng": 100.47895,
      "nameEn": "Ratchaphruek",
      "nameTh": "nan",
      "system": "BRT",
      "color": "#F97316",
      "source": "osm"
    },
    {
      "id": "('node', 2094758805)",
      "lat": 13.729647,
      "lng": 100.474042,
      "nameEn": "Tha Phra",
      "nameTh": "ท่าพระ",
      "system": "OTHER",
      "color": "#6B7280",
      "source": "osm"
    },
    {
      "id": "('node', 2094758837)",
      "lat": 13.763325,
      "lng": 100.473296,
      "nameEn": "Bang Khun Non",
      "nameTh": "บางขุนนนท์",
      "system": "OTHER",
      "color": "#6B7280",
      "source": "osm"
    },
    {
      "id": "('node', 2107224382)",
      "lat": 13.798127,
      "lng": 100.548683,
      "nameEn": "Phet Kamphaeng MRT",
      "nameTh": "nan",
      "system": "MRT",
      "color": "#1964B7",
      "source": "osm"
    },
    {
      "id": "('node', 2122824255)",
      "lat": 13.800876,
      "lng": 100.37074,
      "nameEn": "Sala Thammasop",
      "nameTh": "nan",
      "system": "OTHER",
      "color": "#6B7280",
      "source": "osm"
    },
    {
      "id": "('node', 2214834032)",
      "lat": 13.710762,
      "lng": 100.769012,
      "nameEn": "Suvarnabhumi Bus Terminal",
      "nameTh": "สนามบินสุวรรณภูมิ (ศูนย์การขนส่งสาธารณะ)",
      "system": "ARL",
      "color": "#C8102E",
      "source": "osm"
    },
    {
      "id": "('node', 2297786221)",
      "lat": 13.912739,
      "lng": 100.552353,
      "nameEn": "Muang Thong Thani van station",
      "nameTh": "nan",
      "system": "OTHER",
      "color": "#6B7280",
      "source": "osm"
    },
    {
      "id": "('node', 2324802007)",
      "lat": 13.746981,
      "lng": 100.502303,
      "nameEn": "Sam Yot",
      "nameTh": "สามยอด",
      "system": "MRT",
      "color": "#1964B7",
      "source": "osm"
    },
    {
      "id": "('node', 2330683327)",
      "lat": 13.741483,
      "lng": 100.594072,
      "nameEn": "Vijit School",
      "nameTh": "ร.ร.วิจิตร",
      "system": "OTHER",
      "color": "#6B7280",
      "source": "osm"
    },
    {
      "id": "('node', 2331436115)",
      "lat": 13.690901,
      "lng": 100.550329,
      "nameEn": "Chong Nonsi Pier",
      "nameTh": "nan",
      "system": "OTHER",
      "color": "#6B7280",
      "source": "osm"
    },
    {
      "id": "('node', 2339057520)",
      "lat": 13.765032,
      "lng": 100.64739,
      "nameEn": "Bangkapi",
      "nameTh": "บางกะปิ",
      "system": "OTHER",
      "color": "#6B7280",
      "source": "osm"
    },
    {
      "id": "('node', 2339057521)",
      "lat": 13.762165,
      "lng": 100.623695,
      "nameEn": "Sapan Mit Mahadthai",
      "nameTh": "สะพานมิตรมหาดไทย",
      "system": "OTHER",
      "color": "#6B7280",
      "source": "osm"
    },
    {
      "id": "('node', 2367398625)",
      "lat": 13.73974,
      "lng": 100.498219,
      "nameEn": "Memorial Bridge",
      "nameTh": "สะพานพุทธ",
      "system": "OTHER",
      "color": "#6B7280",
      "source": "osm"
    },
    {
      "id": "('node', 2393548001)",
      "lat": 13.669796,
      "lng": 100.527736,
      "nameEn": "Khlong Lat Luang Pier",
      "nameTh": "nan",
      "system": "OTHER",
      "color": "#6B7280",
      "source": "osm"
    },
    {
      "id": "('node', 2393558026)",
      "lat": 13.676977,
      "lng": 100.527249,
      "nameEn": "Sathu Pradit Pier",
      "nameTh": "nan",
      "system": "OTHER",
      "color": "#6B7280",
      "source": "osm"
    },
    {
      "id": "('node', 2397987932)",
      "lat": 13.726309,
      "lng": 100.51348,
      "nameEn": "Wat Muang Kae",
      "nameTh": "วัดม่วงแค",
      "system": "OTHER",
      "color": "#6B7280",
      "source": "osm"
    },
    {
      "id": "('node', 2465782414)",
      "lat": 13.806147,
      "lng": 100.530771,
      "nameEn": "Tao Poon",
      "nameTh": "nan",
      "system": "OTHER",
      "color": "#6B7280",
      "source": "osm"
    },
    {
      "id": "('node', 2519640795)",
      "lat": 13.742693,
      "lng": 100.588456,
      "nameEn": "Charn Issara",
      "nameTh": "ชาญอิสสระ",
      "system": "OTHER",
      "color": "#6B7280",
      "source": "osm"
    },
    {
      "id": "('node', 2757817163)",
      "lat": 13.90466,
      "lng": 100.49159,
      "nameEn": "Wat Klang Kret Ferry",
      "nameTh": "nan",
      "system": "OTHER",
      "color": "#6B7280",
      "source": "osm"
    },
    {
      "id": "('node', 2757817164)",
      "lat": 13.904662,
      "lng": 100.490312,
      "nameEn": "Pa Fai",
      "nameTh": "nan",
      "system": "OTHER",
      "color": "#6B7280",
      "source": "osm"
    },
    {
      "id": "('node', 2902806579)",
      "lat": 13.763459,
      "lng": 100.633571,
      "nameEn": "Wat Klang",
      "nameTh": "วัดกลาง",
      "system": "OTHER",
      "color": "#6B7280",
      "source": "osm"
    },
    {
      "id": "('node', 2993468033)",
      "lat": 13.752513,
      "lng": 100.486708,
      "nameEn": "Wat Rakhang Pier",
      "nameTh": "nan",
      "system": "OTHER",
      "color": "#6B7280",
      "source": "osm"
    },
    {
      "id": "('node', 2993472311)",
      "lat": 13.740963,
      "lng": 100.492197,
      "nameEn": "Wat Kanlayanamit Pier",
      "nameTh": "ท่าเรือวัดกัลยาณมิตร",
      "system": "OTHER",
      "color": "#6B7280",
      "source": "osm"
    },
    {
      "id": "('node', 3013711885)",
      "lat": 13.826701,
      "lng": 100.492339,
      "nameEn": "Wat Sanghathan",
      "nameTh": "วัดสังฆทาน",
      "system": "OTHER",
      "color": "#6B7280",
      "source": "osm"
    },
    {
      "id": "('node', 3053005367)",
      "lat": 13.759207,
      "lng": 100.487804,
      "nameEn": "Thonburi Railway",
      "nameTh": "ท่ารถไฟ",
      "system": "OTHER",
      "color": "#6B7280",
      "source": "osm"
    },
    {
      "id": "('node', 3053005368)",
      "lat": 13.75631,
      "lng": 100.486873,
      "nameEn": "Prannok",
      "nameTh": "พรานนก",
      "system": "OTHER",
      "color": "#6B7280",
      "source": "osm"
    },
    {
      "id": "('node', 3178943373)",
      "lat": 13.75652,
      "lng": 100.535685,
      "nameEn": "Phaya Thai",
      "nameTh": "พญาไท",
      "system": "ARL",
      "color": "#C8102E",
      "source": "osm"
    },
    {
      "id": "('node', 3178943413)",
      "lat": 13.750749,
      "lng": 100.562194,
      "nameEn": "Makkasan",
      "nameTh": "มักกะสัน",
      "system": "ARL",
      "color": "#C8102E",
      "source": "osm"
    },
    {
      "id": "('node', 3180277903)",
      "lat": 13.694297,
      "lng": 100.75134,
      "nameEn": "Suvarnabhumi",
      "nameTh": "สุวรรณภูมิ",
      "system": "ARL",
      "color": "#C8102E",
      "source": "osm"
    },
    {
      "id": "('node', 3180278583)",
      "lat": 13.742973,
      "lng": 100.600618,
      "nameEn": "Ramkhamhaeng",
      "nameTh": "รามคำแหง",
      "system": "ARL",
      "color": "#C8102E",
      "source": "osm"
    },
    {
      "id": "('node', 3180278584)",
      "lat": 13.727708,
      "lng": 100.74932,
      "nameEn": "Lat Krabang",
      "nameTh": "ลาดกระบัง",
      "system": "ARL",
      "color": "#C8102E",
      "source": "osm"
    },
    {
      "id": "('node', 3180278585)",
      "lat": 13.73806,
      "lng": 100.645878,
      "nameEn": "Hua Mak",
      "nameTh": "หัวหมาก",
      "system": "ARL",
      "color": "#C8102E",
      "source": "osm"
    },
    {
      "id": "('node', 3309041468)",
      "lat": 13.753155,
      "lng": 100.488318,
      "nameEn": "Tha Chang",
      "nameTh": "ท่าช้าง",
      "system": "OTHER",
      "color": "#6B7280",
      "source": "osm"
    },
    {
      "id": "('node', 3309041506)",
      "lat": 13.756517,
      "lng": 100.488676,
      "nameEn": "Tha Phra Chan",
      "nameTh": "ท่าพระจันทร์",
      "system": "OTHER",
      "color": "#6B7280",
      "source": "osm"
    },
    {
      "id": "('node', 3487510793)",
      "lat": 13.820087,
      "lng": 100.532521,
      "nameEn": "Bang Son",
      "nameTh": "nan",
      "system": "OTHER",
      "color": "#6B7280",
      "source": "osm"
    },
    {
      "id": "('node', 3487510833)",
      "lat": 13.829821,
      "lng": 100.526456,
      "nameEn": "Wong Sawang",
      "nameTh": "nan",
      "system": "OTHER",
      "color": "#6B7280",
      "source": "osm"
    },
    {
      "id": "('node', 3487510857)",
      "lat": 13.839483,
      "lng": 100.51493,
      "nameEn": "Yaek Tiwanon",
      "nameTh": "nan",
      "system": "OTHER",
      "color": "#6B7280",
      "source": "osm"
    },
    {
      "id": "('node', 3487511003)",
      "lat": 13.848499,
      "lng": 100.514776,
      "nameEn": "Ministry of Public Health",
      "nameTh": "nan",
      "system": "OTHER",
      "color": "#6B7280",
      "source": "osm"
    },
    {
      "id": "('node', 3487511058)",
      "lat": 13.860113,
      "lng": 100.513056,
      "nameEn": "Nonthaburi Civic Center",
      "nameTh": "nan",
      "system": "OTHER",
      "color": "#6B7280",
      "source": "osm"
    },
    {
      "id": "('node', 3487511083)",
      "lat": 13.861597,
      "lng": 100.504635,
      "nameEn": "Bang Krasor",
      "nameTh": "nan",
      "system": "OTHER",
      "color": "#6B7280",
      "source": "osm"
    },
    {
      "id": "('node', 3487511211)",
      "lat": 13.865906,
      "lng": 100.494046,
      "nameEn": "Yaek Nonthaburi 1",
      "nameTh": "nan",
      "system": "OTHER",
      "color": "#6B7280",
      "source": "osm"
    },
    {
      "id": "('node', 3487511257)",
      "lat": 13.870227,
      "lng": 100.480138,
      "nameEn": "Phra Nang Klao Bridge",
      "nameTh": "nan",
      "system": "OTHER",
      "color": "#6B7280",
      "source": "osm"
    },
    {
      "id": "('node', 3487511280)",
      "lat": 13.870451,
      "lng": 100.466677,
      "nameEn": "Sai Ma",
      "nameTh": "nan",
      "system": "OTHER",
      "color": "#6B7280",
      "source": "osm"
    },
    {
      "id": "('node', 3487511428)",
      "lat": 13.874612,
      "lng": 100.419369,
      "nameEn": "Sam Yaek Bang Yai",
      "nameTh": "nan",
      "system": "OTHER",
      "color": "#6B7280",
      "source": "osm"
    },
    {
      "id": "('node', 3487511436)",
      "lat": 13.874752,
      "lng": 100.455943,
      "nameEn": "Bang Rak Noi Tha It",
      "nameTh": "nan",
      "system": "OTHER",
      "color": "#6B7280",
      "source": "osm"
    },
    {
      "id": "('node', 3487511461)",
      "lat": 13.875708,
      "lng": 100.433809,
      "nameEn": "Bang Phlu",
      "nameTh": "nan",
      "system": "OTHER",
      "color": "#6B7280",
      "source": "osm"
    },
    {
      "id": "('node', 3487511490)",
      "lat": 13.876544,
      "lng": 100.444943,
      "nameEn": "Bang Rak Yai",
      "nameTh": "nan",
      "system": "OTHER",
      "color": "#6B7280",
      "source": "osm"
    },
    {
      "id": "('node', 3487511733)",
      "lat": 13.88101,
      "lng": 100.409225,
      "nameEn": "Talad Bang Yai",
      "nameTh": "nan",
      "system": "OTHER",
      "color": "#6B7280",
      "source": "osm"
    },
    {
      "id": "('node', 3487511747)",
      "lat": 13.892429,
      "lng": 100.408156,
      "nameEn": "Khlong Bang Phai",
      "nameTh": "nan",
      "system": "OTHER",
      "color": "#6B7280",
      "source": "osm"
    },
    {
      "id": "('node', 3493488226)",
      "lat": 13.744966,
      "lng": 100.489208,
      "nameEn": "Wat Arun Pier",
      "nameTh": "ท่าเรือวัดอรุณฯ",
      "system": "OTHER",
      "color": "#6B7280",
      "source": "osm"
    },
    {
      "id": "('node', 3505137003)",
      "lat": 13.726964,
      "lng": 100.513468,
      "nameEn": "nan",
      "nameTh": "ท่าเรือกสท. โทรคมนาคม",
      "system": "OTHER",
      "color": "#6B7280",
      "source": "osm"
    },
    {
      "id": "('node', 3542061069)",
      "lat": 13.772043,
      "lng": 100.500098,
      "nameEn": "Thewet",
      "nameTh": "เทเวศร์",
      "system": "OTHER",
      "color": "#6B7280",
      "source": "osm"
    },
    {
      "id": "('node', 3578648768)",
      "lat": 13.915465,
      "lng": 100.485023,
      "nameEn": "nan",
      "nameTh": "nan",
      "system": "OTHER",
      "color": "#6B7280",
      "source": "osm"
    },
    {
      "id": "('node', 3578648769)",
      "lat": 13.914234,
      "lng": 100.483286,
      "nameEn": "nan",
      "nameTh": "nan",
      "system": "OTHER",
      "color": "#6B7280",
      "source": "osm"
    },
    {
      "id": "('node', 3578835663)",
      "lat": 13.720015,
      "lng": 100.51132,
      "nameEn": "Taksin Pier",
      "nameTh": "ท่าเรือตากสิน",
      "system": "OTHER",
      "color": "#6B7280",
      "source": "osm"
    },
    {
      "id": "('node', 3608386001)",
      "lat": 13.712951,
      "lng": 100.626497,
      "nameEn": "Wat Ton Sai",
      "nameTh": "วัดต้นไทรย์",
      "system": "OTHER",
      "color": "#6B7280",
      "source": "osm"
    },
    {
      "id": "('node', 3667972113)",
      "lat": 13.597175,
      "lng": 100.586556,
      "nameEn": "Phra Samut Chedi Pier",
      "nameTh": "ท่าเรือพระสมุทรเจดีย์",
      "system": "OTHER",
      "color": "#6B7280",
      "source": "osm"
    },
    {
      "id": "('node', 3699968297)",
      "lat": 13.886289,
      "lng": 100.581987,
      "nameEn": "Lak Si",
      "nameTh": "nan",
      "system": "OTHER",
      "color": "#6B7280",
      "source": "osm"
    },
    {
      "id": "('node', 3801037850)",
      "lat": 13.740171,
      "lng": 100.470709,
      "nameEn": "Charan 13",
      "nameTh": "จรัญฯ 13",
      "system": "OTHER",
      "color": "#6B7280",
      "source": "osm"
    },
    {
      "id": "('node', 3801037852)",
      "lat": 13.792411,
      "lng": 100.504888,
      "nameEn": "Bang Phlat",
      "nameTh": "บางพลัด",
      "system": "OTHER",
      "color": "#6B7280",
      "source": "osm"
    },
    {
      "id": "('node', 3801037853)",
      "lat": 13.777382,
      "lng": 100.485256,
      "nameEn": "Bang Yi Khan",
      "nameTh": "บางยี่ขัน",
      "system": "OTHER",
      "color": "#6B7280",
      "source": "osm"
    },
    {
      "id": "('node', 3801037854)",
      "lat": 13.720259,
      "lng": 100.457037,
      "nameEn": "Bang Wa",
      "nameTh": "nan",
      "system": "OTHER",
      "color": "#6B7280",
      "source": "osm"
    },
    {
      "id": "('node', 3801037855)",
      "lat": 13.79898,
      "lng": 100.509786,
      "nameEn": "Bang O",
      "nameTh": "บางอ้อ",
      "system": "OTHER",
      "color": "#6B7280",
      "source": "osm"
    },
    {
      "id": "('node', 3801037856)",
      "lat": 13.711944,
      "lng": 100.422337,
      "nameEn": "Bang Khae",
      "nameTh": "บางแค",
      "system": "OTHER",
      "color": "#6B7280",
      "source": "osm"
    },
    {
      "id": "('node', 3801040557)",
      "lat": 13.806403,
      "lng": 100.52101,
      "nameEn": "Bang Pho",
      "nameTh": "บางโพ",
      "system": "OTHER",
      "color": "#6B7280",
      "source": "osm"
    },
    {
      "id": "('node', 3801040558)",
      "lat": 13.724618,
      "lng": 100.465079,
      "nameEn": "Bang Phai",
      "nameTh": "บางไผ่",
      "system": "OTHER",
      "color": "#6B7280",
      "source": "osm"
    },
    {
      "id": "('node', 3801040559)",
      "lat": 13.71291,
      "lng": 100.434326,
      "nameEn": "Phasi Charoen",
      "nameTh": "ภาษีเจริญ",
      "system": "OTHER",
      "color": "#6B7280",
      "source": "osm"
    },
    {
      "id": "('node', 3801040560)",
      "lat": 13.744334,
      "lng": 100.494692,
      "nameEn": "Sanam Chai",
      "nameTh": "nan",
      "system": "OTHER",
      "color": "#6B7280",
      "source": "osm"
    },
    {
      "id": "('node', 3801040561)",
      "lat": 13.710877,
      "lng": 100.409485,
      "nameEn": "Lak Song",
      "nameTh": "หลักสอง",
      "system": "OTHER",
      "color": "#6B7280",
      "source": "osm"
    },
    {
      "id": "('node', 3801040562)",
      "lat": 13.738327,
      "lng": 100.485702,
      "nameEn": "Itsaraphap",
      "nameTh": "nan",
      "system": "OTHER",
      "color": "#6B7280",
      "source": "osm"
    },
    {
      "id": "('node', 3801040563)",
      "lat": 13.742201,
      "lng": 100.509905,
      "nameEn": "Wat Mangkon",
      "nameTh": "nan",
      "system": "OTHER",
      "color": "#6B7280",
      "source": "osm"
    },
    {
      "id": "('node', 3801040564)",
      "lat": 13.715559,
      "lng": 100.445451,
      "nameEn": "Phetkasem 48",
      "nameTh": "เพชรเกษม 48",
      "system": "OTHER",
      "color": "#6B7280",
      "source": "osm"
    },
    {
      "id": "('node', 3805378261)",
      "lat": 13.875277,
      "lng": 100.596732,
      "nameEn": "Wat Phra Sri Mahathat",
      "nameTh": "nan",
      "system": "BTS",
      "color": "#3aa537",
      "source": "osm"
    },
    {
      "id": "('node', 3812958499)",
      "lat": 13.771892,
      "lng": 100.49717,
      "nameEn": "Wat Kharuehabodi",
      "nameTh": "nan",
      "system": "OTHER",
      "color": "#6B7280",
      "source": "osm"
    },
    {
      "id": "('node', 3812958959)",
      "lat": 13.774209,
      "lng": 100.498077,
      "nameEn": "Wat Bowon Mongkhon Pier",
      "nameTh": "nan",
      "system": "OTHER",
      "color": "#6B7280",
      "source": "osm"
    },
    {
      "id": "('node', 3946362036)",
      "lat": 13.724088,
      "lng": 100.511844,
      "nameEn": "Wat Suwan Pier",
      "nameTh": "ท่าเรือวัดสุวรรณ",
      "system": "OTHER",
      "color": "#6B7280",
      "source": "osm"
    },
    {
      "id": "('node', 3946372581)",
      "lat": 13.729432,
      "lng": 100.512944,
      "nameEn": "Si Phraya Pier (Gate 1)",
      "nameTh": "ท่าเรือสี่พระยา (ประตู 1)",
      "system": "OTHER",
      "color": "#6B7280",
      "source": "osm"
    },
    {
      "id": "('node', 3946372582)",
      "lat": 13.729108,
      "lng": 100.511605,
      "nameEn": "Khlong San Pier",
      "nameTh": "ท่าเรือคลองสาน",
      "system": "OTHER",
      "color": "#6B7280",
      "source": "osm"
    },
    {
      "id": "('node', 3984123367)",
      "lat": 13.715119,
      "lng": 100.639418,
      "nameEn": "Surao Al Iatisorm",
      "nameTh": "สุเหร่าอัลเอี๊ยะติซอม",
      "system": "OTHER",
      "color": "#6B7280",
      "source": "osm"
    },
    {
      "id": "('node', 4327591716)",
      "lat": 13.740906,
      "lng": 100.515764,
      "nameEn": "Hua Lamphong Pier",
      "nameTh": "nan",
      "system": "OTHER",
      "color": "#6B7280",
      "source": "osm"
    },
    {
      "id": "('node', 4476658426)",
      "lat": 13.797551,
      "lng": 100.574453,
      "nameEn": "nan",
      "nameTh": "nan",
      "system": "OTHER",
      "color": "#6B7280",
      "source": "osm"
    },
    {
      "id": "('node', 4561417665)",
      "lat": 13.667872,
      "lng": 100.538761,
      "nameEn": "Khlong Lat Pho Pier",
      "nameTh": "nan",
      "system": "OTHER",
      "color": "#6B7280",
      "source": "osm"
    },
    {
      "id": "('node', 4561417666)",
      "lat": 13.670374,
      "lng": 100.538448,
      "nameEn": "Rama III Pier",
      "nameTh": "nan",
      "system": "OTHER",
      "color": "#6B7280",
      "source": "osm"
    },
    {
      "id": "('node', 4566970962)",
      "lat": 13.718373,
      "lng": 100.512566,
      "nameEn": "Sathorn Pier",
      "nameTh": "nan",
      "system": "OTHER",
      "color": "#6B7280",
      "source": "osm"
    },
    {
      "id": "('node', 4586843050)",
      "lat": 13.749197,
      "lng": 100.530883,
      "nameEn": "Sapan Hua Chang",
      "nameTh": "สะพานหัวช้าง",
      "system": "OTHER",
      "color": "#6B7280",
      "source": "osm"
    },
    {
      "id": "('node', 4659143529)",
      "lat": 13.706485,
      "lng": 100.469774,
      "nameEn": "Khlong Ton Sai",
      "nameTh": "คลองต้นไทร",
      "system": "OTHER",
      "color": "#6B7280",
      "source": "osm"
    },
    {
      "id": "('node', 4659155415)",
      "lat": 13.701828,
      "lng": 100.465136,
      "nameEn": "Chom Thong",
      "nameTh": "จอมทอง",
      "system": "OTHER",
      "color": "#6B7280",
      "source": "osm"
    },
    {
      "id": "('node', 4774928037)",
      "lat": 13.64647,
      "lng": 100.595855,
      "nameEn": "Samrong",
      "nameTh": "สำโรง",
      "system": "OTHER",
      "color": "#6B7280",
      "source": "osm"
    },
    {
      "id": "('node', 4778113871)",
      "lat": 13.646467,
      "lng": 100.680775,
      "nameEn": "nan",
      "nameTh": "nan",
      "system": "OTHER",
      "color": "#6B7280",
      "source": "osm"
    },
    {
      "id": "('node', 4801299808)",
      "lat": 13.707203,
      "lng": 100.563582,
      "nameEn": "Wat Khlong Toei Nok Pier",
      "nameTh": "nan",
      "system": "OTHER",
      "color": "#6B7280",
      "source": "osm"
    },
    {
      "id": "('node', 4969354723)",
      "lat": 13.780026,
      "lng": 100.424444,
      "nameEn": "Sai Tai Taling Chan City Bus Terminal",
      "nameTh": "nan",
      "system": "OTHER",
      "color": "#6B7280",
      "source": "osm"
    },
    {
      "id": "('node', 4985578403)",
      "lat": 13.807119,
      "lng": 100.511675,
      "nameEn": "Opposite Charan Sanit Wong 96/2",
      "nameTh": "ตรงข้ามซอยจรัญสนิทวงศ์ 96/2",
      "system": "OTHER",
      "color": "#6B7280",
      "source": "osm"
    },
    {
      "id": "('node', 4985578405)",
      "lat": 13.803937,
      "lng": 100.512129,
      "nameEn": "Phra Ram Hok Technological College",
      "nameTh": "วิทยาลัยเทคโนโลยีพระรามหก",
      "system": "OTHER",
      "color": "#6B7280",
      "source": "osm"
    },
    {
      "id": "('node', 4985578406)",
      "lat": 13.802594,
      "lng": 100.511628,
      "nameEn": "Opposite Bang O Fire Station",
      "nameTh": "ฝั่งตรงข้าม สถานีตำรวจดับเพลิงบางอ้อ",
      "system": "OTHER",
      "color": "#6B7280",
      "source": "osm"
    },
    {
      "id": "('node', 4985596721)",
      "lat": 13.800607,
      "lng": 100.511067,
      "nameEn": "Yan Hee Hospital",
      "nameTh": "โรงพยาบาลยันฮี",
      "system": "OTHER",
      "color": "#6B7280",
      "source": "osm"
    },
    {
      "id": "('node', 4985596723)",
      "lat": 13.796616,
      "lng": 100.50797,
      "nameEn": "Charan Sanit Wong 89/1",
      "nameTh": "จรัญสนิทวงศ์ 89/1",
      "system": "OTHER",
      "color": "#6B7280",
      "source": "osm"
    },
    {
      "id": "('node', 4985596725)",
      "lat": 13.794921,
      "lng": 100.506878,
      "nameEn": "Charan Sanit Wong 82",
      "nameTh": "จรัญสนิทวงศ์ 82",
      "system": "OTHER",
      "color": "#6B7280",
      "source": "osm"
    },
    {
      "id": "('node', 4985596726)",
      "lat": 13.794518,
      "lng": 100.506392,
      "nameEn": "nan",
      "nameTh": "nan",
      "system": "OTHER",
      "color": "#6B7280",
      "source": "osm"
    },
    {
      "id": "('node', 4985596727)",
      "lat": 13.792906,
      "lng": 100.505193,
      "nameEn": "nan",
      "nameTh": "nan",
      "system": "OTHER",
      "color": "#6B7280",
      "source": "osm"
    },
    {
      "id": "('node', 4985598045)",
      "lat": 13.788513,
      "lng": 100.500846,
      "nameEn": "Tesco Lotus Charan Sanit Wong",
      "nameTh": "เทสโก้ โลตัส สาขาจรัญสนิทวงศ์",
      "system": "OTHER",
      "color": "#6B7280",
      "source": "osm"
    },
    {
      "id": "('node', 4985598047)",
      "lat": 13.787035,
      "lng": 100.498259,
      "nameEn": "nan",
      "nameTh": "nan",
      "system": "OTHER",
      "color": "#6B7280",
      "source": "osm"
    },
    {
      "id": "('node', 4985598048)",
      "lat": 13.786094,
      "lng": 100.497073,
      "nameEn": "nan",
      "nameTh": "nan",
      "system": "OTHER",
      "color": "#6B7280",
      "source": "osm"
    },
    {
      "id": "('node', 5226271723)",
      "lat": 13.758565,
      "lng": 100.526309,
      "nameEn": "Uruphong",
      "nameTh": "อุรุพงษ์",
      "system": "OTHER",
      "color": "#6B7280",
      "source": "osm"
    },
    {
      "id": "('node', 5302792325)",
      "lat": 13.922825,
      "lng": 100.626188,
      "nameEn": "nan",
      "nameTh": "nan",
      "system": "OTHER",
      "color": "#6B7280",
      "source": "osm"
    },
    {
      "id": "('node', 5302794816)",
      "lat": 13.919494,
      "lng": 100.68483,
      "nameEn": "Wat Nong Yai",
      "nameTh": "วัดหนองใหญ่",
      "system": "OTHER",
      "color": "#6B7280",
      "source": "osm"
    },
    {
      "id": "('node', 5302997924)",
      "lat": 13.85855,
      "lng": 100.627228,
      "nameEn": "Market Kor Mor 4",
      "nameTh": "ตลาด กม.4",
      "system": "OTHER",
      "color": "#6B7280",
      "source": "osm"
    },
    {
      "id": "('node', 5472737123)",
      "lat": 13.744339,
      "lng": 100.589517,
      "nameEn": "Khlong Tan",
      "nameTh": "คลองตัน",
      "system": "OTHER",
      "color": "#6B7280",
      "source": "osm"
    },
    {
      "id": "('node', 5528633076)",
      "lat": 13.573261,
      "lng": 100.595172,
      "nameEn": "Farm Chorakhe Bus Depot",
      "nameTh": "กลุ่มปฏิบัติการเดินรถที่ 2 เขตการเดินรถที่ 3 (อู่ฟาร์มจระเข้)",
      "system": "OTHER",
      "color": "#6B7280",
      "source": "osm"
    },
    {
      "id": "('node', 5556240034)",
      "lat": 13.709764,
      "lng": 100.563743,
      "nameEn": "Khlong Toei Port",
      "nameTh": "ท่าเรือคลองเตย",
      "system": "OTHER",
      "color": "#6B7280",
      "source": "osm"
    },
    {
      "id": "('node', 5812248586)",
      "lat": 13.726462,
      "lng": 100.509069,
      "nameEn": "Charoen Nakhon",
      "nameTh": "เจริญนคร",
      "system": "BTS",
      "color": "#3aa537",
      "source": "osm"
    },
    {
      "id": "('node', 5812248587)",
      "lat": 13.730307,
      "lng": 100.507721,
      "nameEn": "Khlong San",
      "nameTh": "คลองสาน",
      "system": "BTS",
      "color": "#3aa537",
      "source": "osm"
    },
    {
      "id": "('node', 5818119896)",
      "lat": 13.812095,
      "lng": 100.517481,
      "nameEn": "Wat Soi Thong",
      "nameTh": "วัดสร้อยทอง",
      "system": "OTHER",
      "color": "#6B7280",
      "source": "osm"
    },
    {
      "id": "('node', 5835645103)",
      "lat": 13.762714,
      "lng": 100.498374,
      "nameEn": "Kllong Banglamphu (not operated)",
      "nameTh": "ท่าเรือคลองบางลำพู",
      "system": "OTHER",
      "color": "#6B7280",
      "source": "osm"
    },
    {
      "id": "('node', 6123597367)",
      "lat": 13.637287,
      "lng": 100.59199,
      "nameEn": "Pu Chao",
      "nameTh": "ปู่เจ้า",
      "system": "OTHER",
      "color": "#6B7280",
      "source": "osm"
    },
    {
      "id": "('node', 6123597368)",
      "lat": 13.621541,
      "lng": 100.590161,
      "nameEn": "Chang Erawan",
      "nameTh": "ช้างเอราวัณ",
      "system": "OTHER",
      "color": "#6B7280",
      "source": "osm"
    },
    {
      "id": "('node', 6123597369)",
      "lat": 13.608433,
      "lng": 100.59494,
      "nameEn": "Royal Thai Naval Academy",
      "nameTh": "โรงเรียนนายเรือ",
      "system": "OTHER",
      "color": "#6B7280",
      "source": "osm"
    },
    {
      "id": "('node', 6123597370)",
      "lat": 13.602095,
      "lng": 100.597137,
      "nameEn": "Pak Nam",
      "nameTh": "ปากน้ำ",
      "system": "OTHER",
      "color": "#6B7280",
      "source": "osm"
    },
    {
      "id": "('node', 6123597371)",
      "lat": 13.592018,
      "lng": 100.608985,
      "nameEn": "Srinagarindra",
      "nameTh": "ศรีนครินทร์",
      "system": "OTHER",
      "color": "#6B7280",
      "source": "osm"
    },
    {
      "id": "('node', 6123597372)",
      "lat": 13.584235,
      "lng": 100.607861,
      "nameEn": "Phraek Sa",
      "nameTh": "แพรกษา",
      "system": "OTHER",
      "color": "#6B7280",
      "source": "osm"
    },
    {
      "id": "('node', 6123597373)",
      "lat": 13.577872,
      "lng": 100.605467,
      "nameEn": "Sai Luat",
      "nameTh": "สายลวด",
      "system": "OTHER",
      "color": "#6B7280",
      "source": "osm"
    },
    {
      "id": "('node', 6123597374)",
      "lat": 13.567706,
      "lng": 100.607726,
      "nameEn": "Kheha",
      "nameTh": "เคหะฯ",
      "system": "OTHER",
      "color": "#6B7280",
      "source": "osm"
    },
    {
      "id": "('node', 6150815344)",
      "lat": 13.726627,
      "lng": 100.511854,
      "nameEn": "Icon Siam Pier 2",
      "nameTh": "ท่าเรือไอคอนสยาม 2",
      "system": "OTHER",
      "color": "#6B7280",
      "source": "osm"
    },
    {
      "id": "('node', 6150815346)",
      "lat": 13.727559,
      "lng": 100.511795,
      "nameEn": "Icon Siam Pier 4",
      "nameTh": "ท่าเรือไอคอนสยาม 4",
      "system": "OTHER",
      "color": "#6B7280",
      "source": "osm"
    },
    {
      "id": "('node', 6158336920)",
      "lat": 13.841895,
      "lng": 100.489273,
      "nameEn": "Bang Si Mueang Ferry Pier",
      "nameTh": "ท่าเรือข้ามฟากบางศรีเมือง",
      "system": "OTHER",
      "color": "#6B7280",
      "source": "osm"
    },
    {
      "id": "('node', 6160645330)",
      "lat": 13.84183,
      "lng": 100.487994,
      "nameEn": "Bang Si Mueang 38",
      "nameTh": "บางศรีเมือง 38",
      "system": "OTHER",
      "color": "#6B7280",
      "source": "osm"
    },
    {
      "id": "('node', 6160648802)",
      "lat": 13.840138,
      "lng": 100.496477,
      "nameEn": "Nonthaburi Market",
      "nameTh": "ตลาดนนท์",
      "system": "OTHER",
      "color": "#6B7280",
      "source": "osm"
    },
    {
      "id": "('node', 6162592737)",
      "lat": 13.834991,
      "lng": 100.470113,
      "nameEn": "Soi Bang Si Mueang 3",
      "nameTh": "ซอย บางศรีเมือง 3",
      "system": "OTHER",
      "color": "#6B7280",
      "source": "osm"
    },
    {
      "id": "('node', 6162592738)",
      "lat": 13.833077,
      "lng": 100.468012,
      "nameEn": "Bang Si Mueang T-junction branch",
      "nameTh": "สามแยกบางศรีเมือง",
      "system": "OTHER",
      "color": "#6B7280",
      "source": "osm"
    },
    {
      "id": "('node', 6162592739)",
      "lat": 13.831159,
      "lng": 100.469707,
      "nameEn": "Bangkruai-Sainoi Rd. 42",
      "nameTh": "ถนนบางกรวย-ไทรน้อย 42",
      "system": "OTHER",
      "color": "#6B7280",
      "source": "osm"
    },
    {
      "id": "('node', 6162600269)",
      "lat": 13.877889,
      "lng": 100.409832,
      "nameEn": "CentralPlaza Westgate Kanchanaphisek Road (Exit)",
      "nameTh": "เซ็นทรัลพลาซาเวสเกต ประตูทางออกฝั่งถนนกาญจนาภิเษก",
      "system": "OTHER",
      "color": "#6B7280",
      "source": "osm"
    },
    {
      "id": "('node', 6162631440)",
      "lat": 13.917308,
      "lng": 100.421267,
      "nameEn": "Muang Bang Bua Thong Market",
      "nameTh": "ตลาดสดเทศบาลเมืองบางบัวทอง",
      "system": "OTHER",
      "color": "#6B7280",
      "source": "osm"
    },
    {
      "id": "('node', 6162660121)",
      "lat": 13.861759,
      "lng": 100.503641,
      "nameEn": "Big C Rattanathibeth 2",
      "nameTh": "Big C รัตนาธิเบศร์ 2",
      "system": "OTHER",
      "color": "#6B7280",
      "source": "osm"
    },
    {
      "id": "('node', 6165137949)",
      "lat": 13.842165,
      "lng": 100.495927,
      "nameEn": "Opposite Nonthaburi Market",
      "nameTh": "ตรงข้ามตลาดนนท์",
      "system": "OTHER",
      "color": "#6B7280",
      "source": "osm"
    },
    {
      "id": "('node', 6165137952)",
      "lat": 13.823507,
      "lng": 100.479139,
      "nameEn": "Opposite Wat Bang Aoi Chang",
      "nameTh": "ตรงข้ามวัดบางอ้อยช้าง",
      "system": "OTHER",
      "color": "#6B7280",
      "source": "osm"
    },
    {
      "id": "('node', 6167664148)",
      "lat": 13.835536,
      "lng": 100.470714,
      "nameEn": "Opposite Soi Bang Si Mueang 7",
      "nameTh": "ฝั่งตรงข้าม ซอย บางศรีเมือง 7",
      "system": "OTHER",
      "color": "#6B7280",
      "source": "osm"
    },
    {
      "id": "('node', 6167665197)",
      "lat": 13.838121,
      "lng": 100.474346,
      "nameEn": "Soi Bang Si Mueang 27",
      "nameTh": "ซอย บางศรีเมือง 27",
      "system": "OTHER",
      "color": "#6B7280",
      "source": "osm"
    },
    {
      "id": "('node', 6167666353)",
      "lat": 13.839104,
      "lng": 100.476098,
      "nameEn": "Soi Bang Si Mueang 31",
      "nameTh": "ซอย บางศรีเมือง 31",
      "system": "OTHER",
      "color": "#6B7280",
      "source": "osm"
    },
    {
      "id": "('node', 6167669331)",
      "lat": 13.840318,
      "lng": 100.478141,
      "nameEn": "Bang Si Mueang 41",
      "nameTh": "บางศรีเมือง 41",
      "system": "OTHER",
      "color": "#6B7280",
      "source": "osm"
    },
    {
      "id": "('node', 6167671990)",
      "lat": 13.84175,
      "lng": 100.480466,
      "nameEn": "Bang Si Mueang Municipality Pawnshop",
      "nameTh": "สถานธนานุบาลเทศบาลเมืองบางศรีเมือง",
      "system": "OTHER",
      "color": "#6B7280",
      "source": "osm"
    },
    {
      "id": "('node', 6167672973)",
      "lat": 13.842395,
      "lng": 100.483395,
      "nameEn": "Gusto Thanamnon - Rama 5 Village",
      "nameTh": "หมู่บ้านกัสโต้ ท่าน้ำนนท์-พระราม 5",
      "system": "OTHER",
      "color": "#6B7280",
      "source": "osm"
    },
    {
      "id": "('node', 6167718985)",
      "lat": 13.764108,
      "lng": 100.496315,
      "nameEn": "Phra Sumen Fort",
      "nameTh": "ป้อมพระสุเมรุ",
      "system": "OTHER",
      "color": "#6B7280",
      "source": "osm"
    },
    {
      "id": "('node', 6168037679)",
      "lat": 13.860487,
      "lng": 100.43936,
      "nameEn": "Opposite Wat Suan Kaew",
      "nameTh": "ตรงข้ามวัดสวนแก้ว",
      "system": "OTHER",
      "color": "#6B7280",
      "source": "osm"
    },
    {
      "id": "('node', 6168052849)",
      "lat": 13.842236,
      "lng": 100.484486,
      "nameEn": "Bang Si Mueang 53",
      "nameTh": "บางศรีเมือง 53",
      "system": "OTHER",
      "color": "#6B7280",
      "source": "osm"
    },
    {
      "id": "('node', 6169961291)",
      "lat": 13.833219,
      "lng": 100.468467,
      "nameEn": "Entrance to Bang Si Mueang Road",
      "nameTh": "ปากทางเข้าถนนบางศรีเมือง",
      "system": "OTHER",
      "color": "#6B7280",
      "source": "osm"
    },
    {
      "id": "('node', 6169961294)",
      "lat": 13.832656,
      "lng": 100.468387,
      "nameEn": "Gusto Ratchaphruek-Rama 5 Village",
      "nameTh": "หมู่บ้าน กัสโต้ ราชพฤกษ์-พระราม 5",
      "system": "OTHER",
      "color": "#6B7280",
      "source": "osm"
    },
    {
      "id": "('node', 6169970319)",
      "lat": 13.87714,
      "lng": 100.409342,
      "nameEn": "Opposite Central Westgate Kanchanaphisek Road (Exit)",
      "nameTh": "ฝั่งตรงข้ามเซ็นทรัลเวสเกต ประตูทางออกฝั่งถนนกาญจนาภิเษก",
      "system": "OTHER",
      "color": "#6B7280",
      "source": "osm"
    },
    {
      "id": "('node', 6169972763)",
      "lat": 13.915124,
      "lng": 100.422525,
      "nameEn": "Watlahan School",
      "nameTh": "โรงเรียนเทศบาลวัดละหาร",
      "system": "OTHER",
      "color": "#6B7280",
      "source": "osm"
    },
    {
      "id": "('node', 6169997426)",
      "lat": 13.824943,
      "lng": 100.480712,
      "nameEn": "Tesco Lotus Nakorn-In",
      "nameTh": "เทสโก้ โลตัส นครอินทร์",
      "system": "OTHER",
      "color": "#6B7280",
      "source": "osm"
    },
    {
      "id": "('node', 6170004335)",
      "lat": 13.823883,
      "lng": 100.459691,
      "nameEn": "Rajapruk University",
      "nameTh": "มหาวิทยาลัยราชพฤกษ์",
      "system": "OTHER",
      "color": "#6B7280",
      "source": "osm"
    },
    {
      "id": "('node', 6177765903)",
      "lat": 13.854617,
      "lng": 100.542516,
      "nameEn": "The Mall Ngam Wong Wan G Floor Van station",
      "nameTh": "สถานีรถตู้ ที่ลานจอดรถชั้น G เดอะมอลล์งามวงศ์วาน",
      "system": "OTHER",
      "color": "#6B7280",
      "source": "osm"
    },
    {
      "id": "('node', 6179946672)",
      "lat": 13.844848,
      "lng": 100.479581,
      "nameEn": "Bangsrimueng-Wat Bot 1",
      "nameTh": "บางศรีเมือง-วัดโบสถ์ 1",
      "system": "OTHER",
      "color": "#6B7280",
      "source": "osm"
    },
    {
      "id": "('node', 6179946673)",
      "lat": 13.845397,
      "lng": 100.478938,
      "nameEn": "Bangsrimueng-Wat Bot 2",
      "nameTh": "บางศรีเมือง-วัดโบสถ์ 2",
      "system": "OTHER",
      "color": "#6B7280",
      "source": "osm"
    },
    {
      "id": "('node', 6202810903)",
      "lat": 13.84992,
      "lng": 100.43724,
      "nameEn": "Opposite Villa Park Rattanathibet",
      "nameTh": "ฝั่งตรงข้ามวิลล่า พาร์ค รัตนาธิเบศร์",
      "system": "OTHER",
      "color": "#6B7280",
      "source": "osm"
    },
    {
      "id": "('node', 6202944025)",
      "lat": 13.8757,
      "lng": 100.435311,
      "nameEn": "MRT Bang Phlu Exit 3",
      "nameTh": "MRT บางพลู ทางออก 3",
      "system": "MRT",
      "color": "#1964B7",
      "source": "osm"
    },
    {
      "id": "('node', 6202944026)",
      "lat": 13.876113,
      "lng": 100.435691,
      "nameEn": "MRT Bang Phlu Exit 2",
      "nameTh": "MRT บางพลู ทางออก 2",
      "system": "MRT",
      "color": "#1964B7",
      "source": "osm"
    },
    {
      "id": "('node', 6203078160)",
      "lat": 13.875863,
      "lng": 100.432205,
      "nameEn": "MRT Bang Phlu Exit 1",
      "nameTh": "MRT บางพลู ทางออก 1",
      "system": "MRT",
      "color": "#1964B7",
      "source": "osm"
    },
    {
      "id": "('node', 6203287166)",
      "lat": 13.845118,
      "lng": 100.440603,
      "nameEn": "Don Phrom Market",
      "nameTh": "ตลาดสดดอนพรหม",
      "system": "OTHER",
      "color": "#6B7280",
      "source": "osm"
    },
    {
      "id": "('node', 6204775905)",
      "lat": 13.837985,
      "lng": 100.461785,
      "nameEn": "Opposite Wat Bang Krang",
      "nameTh": "ตรงข้าม วัดบางกร่าง",
      "system": "OTHER",
      "color": "#6B7280",
      "source": "osm"
    },
    {
      "id": "('node', 6204776171)",
      "lat": 13.839665,
      "lng": 100.456625,
      "nameEn": "Bangkrang 54",
      "nameTh": "บางกร่าง 54",
      "system": "OTHER",
      "color": "#6B7280",
      "source": "osm"
    },
    {
      "id": "('node', 6204784086)",
      "lat": 13.839238,
      "lng": 100.454822,
      "nameEn": "Bangkrang 59",
      "nameTh": "บางกร่าง 59",
      "system": "OTHER",
      "color": "#6B7280",
      "source": "osm"
    },
    {
      "id": "('node', 6204784825)",
      "lat": 13.840179,
      "lng": 100.450233,
      "nameEn": "Bangkrang 38",
      "nameTh": "บางกร่าง 38",
      "system": "OTHER",
      "color": "#6B7280",
      "source": "osm"
    },
    {
      "id": "('node', 6204789142)",
      "lat": 13.845686,
      "lng": 100.43997,
      "nameEn": "Bang Len Soi 23/5",
      "nameTh": "บางเลน ซอย 23/5",
      "system": "OTHER",
      "color": "#6B7280",
      "source": "osm"
    },
    {
      "id": "('node', 6204817168)",
      "lat": 13.853077,
      "lng": 100.43809,
      "nameEn": "Opposite Homeplace Rattanathibet",
      "nameTh": "ฝั่งตรงข้าม โฮมเพลส รัตนาธิเบศร์",
      "system": "OTHER",
      "color": "#6B7280",
      "source": "osm"
    },
    {
      "id": "('node', 6204817169)",
      "lat": 13.853619,
      "lng": 100.438209,
      "nameEn": "Homeplace Rattanathibet",
      "nameTh": "โฮมเพลส รัตนาธิเบศร์",
      "system": "OTHER",
      "color": "#6B7280",
      "source": "osm"
    },
    {
      "id": "('node', 6204817178)",
      "lat": 13.854907,
      "lng": 100.438544,
      "nameEn": "Bang Len Sub-district Health Promoting Hospital",
      "nameTh": "โรงพยาบาลส่งเสริมสุขภาพตำบลบางเลน",
      "system": "OTHER",
      "color": "#6B7280",
      "source": "osm"
    },
    {
      "id": "('node', 6204821092)",
      "lat": 13.866758,
      "lng": 100.437735,
      "nameEn": "Phatchara Ville",
      "nameTh": "พัชรวิลล์",
      "system": "OTHER",
      "color": "#6B7280",
      "source": "osm"
    },
    {
      "id": "('node', 6204821252)",
      "lat": 13.869537,
      "lng": 100.437042,
      "nameEn": "Bang Len Soi 2",
      "nameTh": "บางเลน ซอย 2",
      "system": "OTHER",
      "color": "#6B7280",
      "source": "osm"
    },
    {
      "id": "('node', 6204847831)",
      "lat": 13.888592,
      "lng": 100.432061,
      "nameEn": "Soi Romphothong 1",
      "nameTh": "ซอย ชุมชนร่มโพธิ์ทอง 1",
      "system": "OTHER",
      "color": "#6B7280",
      "source": "osm"
    },
    {
      "id": "('node', 6204864113)",
      "lat": 13.892833,
      "lng": 100.431015,
      "nameEn": "Chan Thong Iam Road",
      "nameTh": "ถนน จันทร์ทองเอี่ยม",
      "system": "OTHER",
      "color": "#6B7280",
      "source": "osm"
    },
    {
      "id": "('node', 6204864247)",
      "lat": 13.891395,
      "lng": 100.431499,
      "nameEn": "Soi Tessaban 4",
      "nameTh": "ซอย เทศบาล 4",
      "system": "OTHER",
      "color": "#6B7280",
      "source": "osm"
    },
    {
      "id": "('node', 6204889244)",
      "lat": 13.894603,
      "lng": 100.430695,
      "nameEn": "Jurinjadson",
      "nameTh": "ชุมชนจุรินทร์จัดสรร",
      "system": "OTHER",
      "color": "#6B7280",
      "source": "osm"
    },
    {
      "id": "('node', 6204895218)",
      "lat": 13.897597,
      "lng": 100.429987,
      "nameEn": "Aksara Village",
      "nameTh": "หมู่บ้านอักษรา",
      "system": "OTHER",
      "color": "#6B7280",
      "source": "osm"
    },
    {
      "id": "('node', 6204898836)",
      "lat": 13.899682,
      "lng": 100.429467,
      "nameEn": "Maitree u-tid",
      "nameTh": "ชุมชนไมตรีอุทิศ",
      "system": "OTHER",
      "color": "#6B7280",
      "source": "osm"
    },
    {
      "id": "('node', 6204899804)",
      "lat": 13.903238,
      "lng": 100.428623,
      "nameEn": "Chor-RungRoung patana",
      "nameTh": "ชุมชนช.รุ่งเรืองพัฒนา",
      "system": "OTHER",
      "color": "#6B7280",
      "source": "osm"
    },
    {
      "id": "('node', 6204903220)",
      "lat": 13.907071,
      "lng": 100.427192,
      "nameEn": "Phayabanlue Operation and maintenance project",
      "nameTh": "โครงการส่งน้ำและบำรุงรักษาพระยาบรรลือ",
      "system": "OTHER",
      "color": "#6B7280",
      "source": "osm"
    },
    {
      "id": "('node', 6206829119)",
      "lat": 13.825493,
      "lng": 100.477812,
      "nameEn": "Bangkruai-Sainoi 36",
      "nameTh": "บางกรวย-ไทรน้อย 36",
      "system": "OTHER",
      "color": "#6B7280",
      "source": "osm"
    },
    {
      "id": "('node', 6209285559)",
      "lat": 13.82736,
      "lng": 100.484601,
      "nameEn": "Makro Nakorn-In",
      "nameTh": "แม็คโคร สาขานครอินทร์",
      "system": "OTHER",
      "color": "#6B7280",
      "source": "osm"
    },
    {
      "id": "('node', 6209285560)",
      "lat": 13.826856,
      "lng": 100.484526,
      "nameEn": "Opposite Makro Nakorn-In",
      "nameTh": "ฝั่งตรงข้าม แม็คโคร สาขานครอินทร์",
      "system": "OTHER",
      "color": "#6B7280",
      "source": "osm"
    },
    {
      "id": "('node', 6209296796)",
      "lat": 13.838675,
      "lng": 100.497306,
      "nameEn": "Soi Sukkasem",
      "nameTh": "ซอย สุขเกษม",
      "system": "OTHER",
      "color": "#6B7280",
      "source": "osm"
    },
    {
      "id": "('node', 6209421224)",
      "lat": 13.818983,
      "lng": 100.449316,
      "nameEn": "The Walk Shopping Center Ratchaphruek",
      "nameTh": "เดอะวอล์ค ราชพฤกษ์",
      "system": "OTHER",
      "color": "#6B7280",
      "source": "osm"
    },
    {
      "id": "('node', 6209421225)",
      "lat": 13.818717,
      "lng": 100.448925,
      "nameEn": "HomePro Ratchapruek",
      "nameTh": "โฮมโปร ราชพฤกษ์",
      "system": "OTHER",
      "color": "#6B7280",
      "source": "osm"
    },
    {
      "id": "('node', 6209423011)",
      "lat": 13.809734,
      "lng": 100.449439,
      "nameEn": "The Crystal SB Ratchapruek",
      "nameTh": "เดอะ คริสตัล เอสบี ราชพฤกษ์",
      "system": "OTHER",
      "color": "#6B7280",
      "source": "osm"
    },
    {
      "id": "('node', 6209427385)",
      "lat": 13.804527,
      "lng": 100.449667,
      "nameEn": "Baan & Beyond Ratchaphruek",
      "nameTh": "บ้านแอนด์บียอนด์ ราชพฤกษ์",
      "system": "OTHER",
      "color": "#6B7280",
      "source": "osm"
    },
    {
      "id": "('node', 6228668385)",
      "lat": 13.720074,
      "lng": 100.863061,
      "nameEn": "Khlong Luang Phaeng",
      "nameTh": "คลองหลวงแพ่ง",
      "system": "OTHER",
      "color": "#6B7280",
      "source": "osm"
    },
    {
      "id": "('node', 6228668386)",
      "lat": 13.712368,
      "lng": 100.924938,
      "nameEn": "Preng",
      "nameTh": "nan",
      "system": "OTHER",
      "color": "#6B7280",
      "source": "osm"
    },
    {
      "id": "('node', 6228668485)",
      "lat": 13.715861,
      "lng": 100.896934,
      "nameEn": "Khlong Udom Chonlajorn",
      "nameTh": "คลองอุดมชลจร",
      "system": "OTHER",
      "color": "#6B7280",
      "source": "osm"
    },
    {
      "id": "('node', 6322306748)",
      "lat": 13.826211,
      "lng": 100.448457,
      "nameEn": "Before Ratchaphruek Circle",
      "nameTh": "ก่อนวงเวียนราชพฤกษ์",
      "system": "OTHER",
      "color": "#6B7280",
      "source": "osm"
    },
    {
      "id": "('node', 6322306749)",
      "lat": 13.826538,
      "lng": 100.448048,
      "nameEn": "After Ratchaphruek Circle",
      "nameTh": "หลังวงเวียนราชพฤกษ์",
      "system": "OTHER",
      "color": "#6B7280",
      "source": "osm"
    },
    {
      "id": "('node', 6323091168)",
      "lat": 13.824996,
      "lng": 100.479902,
      "nameEn": "Opposite Tesco Lotus Nakorn-In",
      "nameTh": "ตรงข้ามเทสโก้ โลตัส นครอินทร์",
      "system": "OTHER",
      "color": "#6B7280",
      "source": "osm"
    },
    {
      "id": "('node', 6323091169)",
      "lat": 13.823403,
      "lng": 100.476936,
      "nameEn": "The Federation of Savings and Credit Cooperatives of Thailand Limited",
      "nameTh": "ชุมนุมสหกรณ์ออมทรัพย์แห่งประเทศไทย จำกัด",
      "system": "OTHER",
      "color": "#6B7280",
      "source": "osm"
    },
    {
      "id": "('node', 6323186186)",
      "lat": 13.818603,
      "lng": 100.513968,
      "nameEn": "Opposite King Mongkut's University of Technology North Bangkok",
      "nameTh": "ตรงข้ามมหาวิทยาลัยเทคโนโลยีพระจอมเกล้าพระนครเหนือ",
      "system": "OTHER",
      "color": "#6B7280",
      "source": "osm"
    },
    {
      "id": "('node', 6341005484)",
      "lat": 13.924354,
      "lng": 100.414989,
      "nameEn": "Busakorn Rattiya Housing",
      "nameTh": "หมู่บ้าน บุษกร-รติยา",
      "system": "OTHER",
      "color": "#6B7280",
      "source": "osm"
    },
    {
      "id": "('node', 6351031485)",
      "lat": 13.790635,
      "lng": 100.544461,
      "nameEn": "nan",
      "nameTh": "nan",
      "system": "OTHER",
      "color": "#6B7280",
      "source": "osm"
    },
    {
      "id": "('node', 6373517171)",
      "lat": 13.843708,
      "lng": 100.460755,
      "nameEn": "Opposite Bang Krang subdistrict administrative organization",
      "nameTh": "ฝั่งตรงข้ามองค์การบริหารส่วนตำบลบางกร่าง",
      "system": "OTHER",
      "color": "#6B7280",
      "source": "osm"
    },
    {
      "id": "('node', 6373526346)",
      "lat": 13.845012,
      "lng": 100.453082,
      "nameEn": "Bang Krang 11",
      "nameTh": "บางกร่าง 11",
      "system": "OTHER",
      "color": "#6B7280",
      "source": "osm"
    },
    {
      "id": "('node', 6387120336)",
      "lat": 13.826387,
      "lng": 100.473352,
      "nameEn": "Bangkruai-Sainoi 31",
      "nameTh": "บางกรวย-ไทรน้อย 31",
      "system": "OTHER",
      "color": "#6B7280",
      "source": "osm"
    },
    {
      "id": "('node', 6388595805)",
      "lat": 13.843067,
      "lng": 100.49205,
      "nameEn": "Nonthaburi Police Station",
      "nameTh": "สถานีตำรวจภูธรเมืองนนทบุรี",
      "system": "OTHER",
      "color": "#6B7280",
      "source": "osm"
    },
    {
      "id": "('node', 6391057345)",
      "lat": 13.805565,
      "lng": 100.488539,
      "nameEn": "Wat Samrong",
      "nameTh": "วัดสำโรง",
      "system": "OTHER",
      "color": "#6B7280",
      "source": "osm"
    },
    {
      "id": "('node', 6391343386)",
      "lat": 13.803004,
      "lng": 100.477393,
      "nameEn": "Bang Kruai Circle",
      "nameTh": "วงเวียนบางกรวย",
      "system": "OTHER",
      "color": "#6B7280",
      "source": "osm"
    },
    {
      "id": "('node', 6397529944)",
      "lat": 13.849179,
      "lng": 100.444533,
      "nameEn": "Triamudomsuksapattanakarn Nonthaburi School",
      "nameTh": "โรงเรียนเตรียมอุดมศึกษาพัฒนาการ นนทบุรี",
      "system": "OTHER",
      "color": "#6B7280",
      "source": "osm"
    },
    {
      "id": "('node', 6397533330)",
      "lat": 13.85084,
      "lng": 100.443907,
      "nameEn": "Nonthaburi Province Stadium",
      "nameTh": "สนามกีฬาจังหวัดนนทบุรี",
      "system": "OTHER",
      "color": "#6B7280",
      "source": "osm"
    },
    {
      "id": "('node', 6397646544)",
      "lat": 13.875088,
      "lng": 100.427342,
      "nameEn": "Wat Bang Phraek",
      "nameTh": "วัดบางแพรก",
      "system": "OTHER",
      "color": "#6B7280",
      "source": "osm"
    },
    {
      "id": "('node', 6397648849)",
      "lat": 13.874778,
      "lng": 100.423,
      "nameEn": "Soi Bangrakyai 16",
      "nameTh": "ซอยบางรักใหญ่ 16",
      "system": "OTHER",
      "color": "#6B7280",
      "source": "osm"
    },
    {
      "id": "('node', 6397651868)",
      "lat": 13.874461,
      "lng": 100.417907,
      "nameEn": "MRT Sam Yaek Bang Yai Exit 4",
      "nameTh": "MRT สามแยกบางใหญ่ ทางออก 4",
      "system": "MRT",
      "color": "#1964B7",
      "source": "osm"
    },
    {
      "id": "('node', 6397724607)",
      "lat": 13.874907,
      "lng": 100.420217,
      "nameEn": "MRT Sam Yaek Bang Yai Exit 2",
      "nameTh": "MRT สามแยกบางใหญ่ ทางออก 2",
      "system": "MRT",
      "color": "#1964B7",
      "source": "osm"
    },
    {
      "id": "('node', 6401685903)",
      "lat": 13.856804,
      "lng": 100.439057,
      "nameEn": "Royal Ville SK (shophouse)",
      "nameTh": "โครงการรอแยลวิลล์ เอสเค (อาคารพาณิชย์)",
      "system": "OTHER",
      "color": "#6B7280",
      "source": "osm"
    },
    {
      "id": "('node', 6401789602)",
      "lat": 13.825061,
      "lng": 100.47826,
      "nameEn": "Numchoketawee Market",
      "nameTh": "ตลาดนำโชคทวี",
      "system": "OTHER",
      "color": "#6B7280",
      "source": "osm"
    },
    {
      "id": "('node', 6403336721)",
      "lat": 13.8696,
      "lng": 100.482085,
      "nameEn": "Soi Nonthaburi 14",
      "nameTh": "ซอยนนทบุรี 14",
      "system": "OTHER",
      "color": "#6B7280",
      "source": "osm"
    },
    {
      "id": "('node', 6403369522)",
      "lat": 13.86838,
      "lng": 100.482007,
      "nameEn": "Wat Chaeng Siri Samphan",
      "nameTh": "วัดแจ้งศิริสัมพันธ์",
      "system": "OTHER",
      "color": "#6B7280",
      "source": "osm"
    },
    {
      "id": "('node', 6404036423)",
      "lat": 13.824601,
      "lng": 100.457294,
      "nameEn": "Wat Champa (Nonthaburi)",
      "nameTh": "วัดจำปา (นนทบุรี)",
      "system": "OTHER",
      "color": "#6B7280",
      "source": "osm"
    },
    {
      "id": "('node', 6415729741)",
      "lat": 13.843603,
      "lng": 100.442157,
      "nameEn": "Opposite Baan Chao Phraya Ratchaphruek-Rattanathibet",
      "nameTh": "ฝั่งตรงข้ามบ้านเจ้าพระยาทาวน์ ราชพฤกษ์-รัตนาธิเบศร์",
      "system": "OTHER",
      "color": "#6B7280",
      "source": "osm"
    },
    {
      "id": "('node', 6415729742)",
      "lat": 13.842564,
      "lng": 100.443131,
      "nameEn": "Opposite Wat Khae Nai",
      "nameTh": "ตรงข้ามวัดแคใน",
      "system": "OTHER",
      "color": "#6B7280",
      "source": "osm"
    },
    {
      "id": "('node', 6415729743)",
      "lat": 13.846137,
      "lng": 100.439455,
      "nameEn": "Bang Len Soi 22",
      "nameTh": "บางเลน ซอย 22",
      "system": "OTHER",
      "color": "#6B7280",
      "source": "osm"
    },
    {
      "id": "('node', 6416235007)",
      "lat": 13.843539,
      "lng": 100.496841,
      "nameEn": "Soi Pracharat 22",
      "nameTh": "ซอยประชาราษฎร์ 22",
      "system": "OTHER",
      "color": "#6B7280",
      "source": "osm"
    },
    {
      "id": "('node', 6416335926)",
      "lat": 13.870668,
      "lng": 100.483048,
      "nameEn": "MRT Phra Nang Klao Bridge Exit 1",
      "nameTh": "MRT สะพานพระนั่งเกล้า ทางออก 1",
      "system": "MRT",
      "color": "#1964B7",
      "source": "osm"
    },
    {
      "id": "('node', 6420664084)",
      "lat": 13.806248,
      "lng": 100.477236,
      "nameEn": "Wat Chalo",
      "nameTh": "วัดชลอ",
      "system": "OTHER",
      "color": "#6B7280",
      "source": "osm"
    },
    {
      "id": "('node', 6420786742)",
      "lat": 13.824786,
      "lng": 100.452411,
      "nameEn": "Bang Kruai Hospital 2",
      "nameTh": "โรงพยาบาลบางกรวย 2",
      "system": "OTHER",
      "color": "#6B7280",
      "source": "osm"
    },
    {
      "id": "('node', 6420928589)",
      "lat": 13.803437,
      "lng": 100.450146,
      "nameEn": "Opposite Baan & Beyond Ratchaphruek",
      "nameTh": "ฝั่งตรงข้าม บ้านแอนด์บียอนด์ ราชพฤกษ์",
      "system": "OTHER",
      "color": "#6B7280",
      "source": "osm"
    },
    {
      "id": "('node', 6433543893)",
      "lat": 13.826595,
      "lng": 100.549524,
      "nameEn": "Chatuchak",
      "nameTh": "nan",
      "system": "OTHER",
      "color": "#6B7280",
      "source": "osm"
    },
    {
      "id": "('node', 6463773574)",
      "lat": 13.743876,
      "lng": 100.489941,
      "nameEn": "Wat Arun Ratchawararam",
      "nameTh": "วัดอรุณราชวราราม",
      "system": "OTHER",
      "color": "#6B7280",
      "source": "osm"
    },
    {
      "id": "('node', 6477651955)",
      "lat": 13.761298,
      "lng": 100.484258,
      "nameEn": "nan",
      "nameTh": "nan",
      "system": "OTHER",
      "color": "#6B7280",
      "source": "osm"
    },
    {
      "id": "('node', 6534775194)",
      "lat": 13.810217,
      "lng": 100.47795,
      "nameEn": "Wat Tha Bang Si Thong",
      "nameTh": "วัดท่า บางสีทอง",
      "system": "OTHER",
      "color": "#6B7280",
      "source": "osm"
    },
    {
      "id": "('node', 6536641991)",
      "lat": 13.844598,
      "lng": 100.441174,
      "nameEn": "Chao Phra Ya Market",
      "nameTh": "ตลาดเจ้าพระยา",
      "system": "OTHER",
      "color": "#6B7280",
      "source": "osm"
    },
    {
      "id": "('node', 6548877400)",
      "lat": 13.82579,
      "lng": 100.474605,
      "nameEn": "Panthiya Rama 5 Project 1 Village",
      "nameTh": "หมู่บ้านปัญฐิญา พระราม 5 โครงการ 1",
      "system": "OTHER",
      "color": "#6B7280",
      "source": "osm"
    },
    {
      "id": "('node', 6548920525)",
      "lat": 13.718624,
      "lng": 100.458175,
      "nameEn": "Bangwa Pier (Phasi Charoen Canal)",
      "nameTh": "ท่าเรือบางหว้า (คลองภาษีเจริญ)",
      "system": "OTHER",
      "color": "#6B7280",
      "source": "osm"
    },
    {
      "id": "('node', 6548931253)",
      "lat": 13.72376,
      "lng": 100.482145,
      "nameEn": "Wat Intharam Pier",
      "nameTh": "ท่าเรือวัดอินทาราม",
      "system": "OTHER",
      "color": "#6B7280",
      "source": "osm"
    },
    {
      "id": "('node', 6549136022)",
      "lat": 13.84251,
      "lng": 100.491018,
      "nameEn": "Nonthaburi Ferry Pier",
      "nameTh": "ท่าเรือข้ามฟากท่าน้ำนนท์",
      "system": "OTHER",
      "color": "#6B7280",
      "source": "osm"
    },
    {
      "id": "('node', 6563228219)",
      "lat": 13.783873,
      "lng": 100.493327,
      "nameEn": "Sirindhorn",
      "nameTh": "สิรินธร",
      "system": "OTHER",
      "color": "#6B7280",
      "source": "osm"
    },
    {
      "id": "('node', 6563254035)",
      "lat": 13.711144,
      "lng": 100.644158,
      "nameEn": "Si Nut",
      "nameTh": "ศรีนุช",
      "system": "OTHER",
      "color": "#6B7280",
      "source": "osm"
    },
    {
      "id": "('node', 6577905424)",
      "lat": 13.874419,
      "lng": 100.457324,
      "nameEn": "MRT Bang Rak Noi Tha It Exit 1",
      "nameTh": "MRT บางรักน้อยท่าอิฐ ทางออก 1",
      "system": "MRT",
      "color": "#1964B7",
      "source": "osm"
    },
    {
      "id": "('node', 6579410061)",
      "lat": 13.843676,
      "lng": 100.509504,
      "nameEn": "Wat Lanna Boon School",
      "nameTh": "โรงเรียนวัดลานนาบุญ",
      "system": "OTHER",
      "color": "#6B7280",
      "source": "osm"
    },
    {
      "id": "('node', 6632720128)",
      "lat": 13.825818,
      "lng": 100.477159,
      "nameEn": "Bangkruai-Sainoi 29/1",
      "nameTh": "บางกรวย-ไทรน้อย 29/1",
      "system": "OTHER",
      "color": "#6B7280",
      "source": "osm"
    },
    {
      "id": "('node', 6636156506)",
      "lat": 13.812549,
      "lng": 100.513367,
      "nameEn": "Opposite Rama 7 Bridge Pier",
      "nameTh": "ฝั่งตรงข้ามท่าเรือสะพานพระราม 7",
      "system": "OTHER",
      "color": "#6B7280",
      "source": "osm"
    },
    {
      "id": "('node', 6653187235)",
      "lat": 13.865419,
      "lng": 100.482102,
      "nameEn": "Pranangklao General Hospital",
      "nameTh": "โรงพยาบาลพระนั่งเกล้า",
      "system": "OTHER",
      "color": "#6B7280",
      "source": "osm"
    },
    {
      "id": "('node', 6653192144)",
      "lat": 13.857817,
      "lng": 100.482207,
      "nameEn": "Sribunyanon School",
      "nameTh": "โรงเรียนศรีบุณยานนท์",
      "system": "OTHER",
      "color": "#6B7280",
      "source": "osm"
    },
    {
      "id": "('node', 6654287138)",
      "lat": 13.84756,
      "lng": 100.513975,
      "nameEn": "MRT Ministry of Public Health Entrance-Exit 3",
      "nameTh": "MRT กระทรวงสาธารณสุข ทางเข้า-ออก 3",
      "system": "MRT",
      "color": "#1964B7",
      "source": "osm"
    },
    {
      "id": "('node', 6654287139)",
      "lat": 13.849493,
      "lng": 100.515296,
      "nameEn": "MRT Ministry of Public Health Entrance-Exit 4",
      "nameTh": "MRT กระทรวงสาธารณสุข ทางเข้า-ออก 4",
      "system": "MRT",
      "color": "#1964B7",
      "source": "osm"
    },
    {
      "id": "('node', 6654287333)",
      "lat": 13.844088,
      "lng": 100.511846,
      "nameEn": "Opposite Big C Tiwanon",
      "nameTh": "ตรงข้าม บิ๊กซี ติวานนท์",
      "system": "OTHER",
      "color": "#6B7280",
      "source": "osm"
    },
    {
      "id": "('node', 6654314746)",
      "lat": 13.875954,
      "lng": 100.438653,
      "nameEn": "Ratchaphruek Villa",
      "nameTh": "หมู่บ้านราชพฤกษ์วิลล่า",
      "system": "OTHER",
      "color": "#6B7280",
      "source": "osm"
    },
    {
      "id": "('node', 6654324871)",
      "lat": 13.859476,
      "lng": 100.517435,
      "nameEn": "Opposite Esplanade Cineplex Ngamwongwan Khaerai",
      "nameTh": "ฝั่งตรงข้าม เอสพลานาด ซีนีเพล็กซ์ งามวงศ์วาน-แคราย",
      "system": "OTHER",
      "color": "#6B7280",
      "source": "osm"
    },
    {
      "id": "('node', 6654328303)",
      "lat": 13.864196,
      "lng": 100.497215,
      "nameEn": "Opposite CentralPlaza Rattanathibet",
      "nameTh": "ฝั่งตรงข้าม เซ็นทรัลพลาซา รัตนาธิเบศร์",
      "system": "OTHER",
      "color": "#6B7280",
      "source": "osm"
    },
    {
      "id": "('node', 6654330717)",
      "lat": 13.876465,
      "lng": 100.445715,
      "nameEn": "MRT Bang Rak Yai Exit 3",
      "nameTh": "MRT บางรักใหญ่ ทางออก 3",
      "system": "MRT",
      "color": "#1964B7",
      "source": "osm"
    },
    {
      "id": "('node', 6654338638)",
      "lat": 13.876488,
      "lng": 100.440668,
      "nameEn": "Thanasiri Rattanathibet Village",
      "nameTh": "หมู่บ้าน ธนาสิริ รัตนาธิเบศร์",
      "system": "OTHER",
      "color": "#6B7280",
      "source": "osm"
    },