{
  "district": "ekkamai",
  "districtTh": "เอกมัย",
  "bbox": [
    13.717,
    100.58,
    13.734,
    100.599
  ],
  "fetchedAt": "2026-05-31T06:38:14.176Z",
  "count": 187,
  "pois": [
    {
      "id": "osm-1286878492",
      "osmId": 1286878492,
      "name": "Ekkamai Beer House",
      "nameTh": null,
      "lat": 13.723404,
      "lng": 100.5847181,
      "category": "bar",
      "profile": {
        "outdoorness": 0.3,
        "indoorness": 0.7,
        "shade": 0.2,
        "covered": 0.7,
        "rainEnjoyment": 0.55,
        "heatTolerance": 0.65,
        "confidence": 0.5
      },
      "openingHoursRaw": null,
      "tags": {}
    },
    {
      "id": "osm-1657638003",
      "osmId": 1657638003,
      "name": "Kumpleto Karaoke",
      "nameTh": null,
      "lat": 13.7328308,
      "lng": 100.5984369,
      "category": "restaurant",
      "profile": {
        "outdoorness": 0.2,
        "indoorness": 0.8,
        "shade": 0.1,
        "covered": 0.85,
        "rainEnjoyment": 0.55,
        "heatTolerance": 0.8,
        "confidence": 0.55
      },
      "openingHoursRaw": null,
      "tags": {
        "cuisine": "thai;philipine"
      }
    },
    {
      "id": "osm-1657638009",
      "osmId": 1657638009,
      "name": "ข้าวคลุกกะปิเจ๊หนู",
      "nameTh": null,
      "lat": 13.733147,
      "lng": 100.59753,
      "category": "restaurant",
      "profile": {
        "outdoorness": 0.2,
        "indoorness": 0.8,
        "shade": 0.1,
        "covered": 0.85,
        "rainEnjoyment": 0.55,
        "heatTolerance": 0.8,
        "confidence": 0.55
      },
      "openingHoursRaw": null,
      "tags": {
        "cuisine": "thai"
      }
    },
    {
      "id": "osm-1662335047",
      "osmId": 1662335047,
      "name": "Bourbon Street",
      "nameTh": null,
      "lat": 13.7224571,
      "lng": 100.5844887,
      "category": "restaurant",
      "profile": {
        "outdoorness": 0.2,
        "indoorness": 0.8,
        "shade": 0.1,
        "covered": 0.85,
        "rainEnjoyment": 0.55,
        "heatTolerance": 0.8,
        "confidence": 0.55
      },
      "openingHoursRaw": null,
      "tags": {
        "cuisine": "american"
      }
    },
    {
      "id": "osm-1678110620",
      "osmId": 1678110620,
      "name": "The Green House",
      "nameTh": null,
      "lat": 13.7326011,
      "lng": 100.5978647,
      "category": "restaurant",
      "profile": {
        "outdoorness": 0.2,
        "indoorness": 0.8,
        "shade": 0.1,
        "covered": 0.85,
        "rainEnjoyment": 0.55,
        "heatTolerance": 0.8,
        "confidence": 0.55
      },
      "openingHoursRaw": null,
      "tags": {
        "cuisine": "asian;thai"
      }
    },
    {
      "id": "osm-2075726889",
      "osmId": 2075726889,
      "name": "shun no mai",
      "nameTh": null,
      "lat": 13.7190938,
      "lng": 100.5853214,
      "category": "restaurant",
      "profile": {
        "outdoorness": 0.2,
        "indoorness": 0.8,
        "shade": 0.1,
        "covered": 0.85,
        "rainEnjoyment": 0.55,
        "heatTolerance": 0.8,
        "confidence": 0.55
      },
      "openingHoursRaw": "11:00-22:00",
      "tags": {
        "cuisine": "japanese"
      }
    },
    {
      "id": "osm-2075727299",
      "osmId": 2075727299,
      "name": "Hakone",
      "nameTh": null,
      "lat": 13.7190005,
      "lng": 100.5854047,
      "category": "restaurant",
      "profile": {
        "outdoorness": 0.2,
        "indoorness": 0.8,
        "shade": 0.1,
        "covered": 0.85,
        "rainEnjoyment": 0.55,
        "heatTolerance": 0.8,
        "confidence": 0.55
      },
      "openingHoursRaw": "11:00-22:00",
      "tags": {
        "cuisine": "japanese"
      }
    },
    {
      "id": "osm-2075727316",
      "osmId": 2075727316,
      "name": "Hinaya",
      "nameTh": null,
      "lat": 13.7189393,
      "lng": 100.5855012,
      "category": "restaurant",
      "profile": {
        "outdoorness": 0.2,
        "indoorness": 0.8,
        "shade": 0.1,
        "covered": 0.85,
        "rainEnjoyment": 0.55,
        "heatTolerance": 0.8,
        "confidence": 0.55
      },
      "openingHoursRaw": "11:00-21:00",
      "tags": {
        "cuisine": "japanese"
      }
    },
    {
      "id": "osm-2075727700",
      "osmId": 2075727700,
      "name": "Kourakuen",
      "nameTh": null,
      "lat": 13.7187983,
      "lng": 100.5856333,
      "category": "restaurant",
      "profile": {
        "outdoorness": 0.2,
        "indoorness": 0.8,
        "shade": 0.1,
        "covered": 0.85,
        "rainEnjoyment": 0.55,
        "heatTolerance": 0.8,
        "confidence": 0.55
      },
      "openingHoursRaw": "10:00-22:00",
      "tags": {
        "cuisine": "japanese"
      }
    },
    {
      "id": "osm-2075731014",
      "osmId": 2075731014,
      "name": "UCC Cafe",
      "nameTh": null,
      "lat": 13.7189314,
      "lng": 100.5851082,
      "category": "cafe",
      "profile": {
        "outdoorness": 0.15,
        "indoorness": 0.85,
        "shade": 0.1,
        "covered": 0.9,
        "rainEnjoyment": 0.75,
        "heatTolerance": 0.85,
        "confidence": 0.6
      },
      "openingHoursRaw": "11:00-22:00",
      "tags": {}
    },
    {
      "id": "osm-2099154251",
      "osmId": 2099154251,
      "name": "Kin Buffet & Shabu",
      "nameTh": null,
      "lat": 13.7185584,
      "lng": 100.5857536,
      "category": "restaurant",
      "profile": {
        "outdoorness": 0.2,
        "indoorness": 0.8,
        "shade": 0.1,
        "covered": 0.85,
        "rainEnjoyment": 0.55,
        "heatTolerance": 0.8,
        "confidence": 0.55
      },
      "openingHoursRaw": "10:00-22:00",
      "tags": {
        "cuisine": "japanese"
      }
    },
    {
      "id": "osm-2099167624",
      "osmId": 2099167624,
      "name": "Saint Etoile",
      "nameTh": null,
      "lat": 13.718461,
      "lng": 100.5857566,
      "category": "cafe",
      "profile": {
        "outdoorness": 0.15,
        "indoorness": 0.85,
        "shade": 0.1,
        "covered": 0.9,
        "rainEnjoyment": 0.75,
        "heatTolerance": 0.85,
        "confidence": 0.6
      },
      "openingHoursRaw": "11:00-22:00",
      "tags": {}
    },
    {
      "id": "osm-2099186598",
      "osmId": 2099186598,
      "name": "Nagiya",
      "nameTh": null,
      "lat": 13.7183958,
      "lng": 100.585766,
      "category": "restaurant",
      "profile": {
        "outdoorness": 0.2,
        "indoorness": 0.8,
        "shade": 0.1,
        "covered": 0.85,
        "rainEnjoyment": 0.55,
        "heatTolerance": 0.8,
        "confidence": 0.55
      },
      "openingHoursRaw": "11:00-22:00",
      "tags": {}
    },
    {
      "id": "osm-2099199236",
      "osmId": 2099199236,
      "name": "Yakiniku Torakichi",
      "nameTh": null,
      "lat": 13.7181887,
      "lng": 100.5852146,
      "category": "restaurant",
      "profile": {
        "outdoorness": 0.2,
        "indoorness": 0.8,
        "shade": 0.1,
        "covered": 0.85,
        "rainEnjoyment": 0.55,
        "heatTolerance": 0.8,
        "confidence": 0.55
      },
      "openingHoursRaw": "10:30-22:00",
      "tags": {
        "cuisine": "japanese"
      }
    },
    {
      "id": "osm-2099199492",
      "osmId": 2099199492,
      "name": "Sukiya;Tadaima",
      "nameTh": null,
      "lat": 13.7184354,
      "lng": 100.5850789,
      "category": "restaurant",
      "profile": {
        "outdoorness": 0.2,
        "indoorness": 0.8,
        "shade": 0.1,
        "covered": 0.85,
        "rainEnjoyment": 0.55,
        "heatTolerance": 0.8,
        "confidence": 0.55
      },
      "openingHoursRaw": "10:00-22:00",
      "tags": {
        "cuisine": "japanese"
      }
    },
    {
      "id": "osm-2099199709",
      "osmId": 2099199709,
      "name": "Taruto",
      "nameTh": null,
      "lat": 13.7184571,
      "lng": 100.5850995,
      "category": "restaurant",
      "profile": {
        "outdoorness": 0.2,
        "indoorness": 0.8,
        "shade": 0.1,
        "covered": 0.85,
        "rainEnjoyment": 0.55,
        "heatTolerance": 0.8,
        "confidence": 0.55
      },
      "openingHoursRaw": null,
      "tags": {
        "cuisine": "coffee_shop"
      }
    },
    {
      "id": "osm-2099200085",
      "osmId": 2099200085,
      "name": "Tomato Noodle",
      "nameTh": null,
      "lat": 13.7185535,
      "lng": 100.5850995,
      "category": "restaurant",
      "profile": {
        "outdoorness": 0.2,
        "indoorness": 0.8,
        "shade": 0.1,
        "covered": 0.85,
        "rainEnjoyment": 0.55,
        "heatTolerance": 0.8,
        "confidence": 0.55
      },
      "openingHoursRaw": "11:00-21:00",
      "tags": {
        "cuisine": "japanese"
      }
    },
    {
      "id": "osm-2099200279",
      "osmId": 2099200279,
      "name": "Hokkaido (Crab)",
      "nameTh": null,
      "lat": 13.7186445,
      "lng": 100.5851102,
      "category": "restaurant",
      "profile": {
        "outdoorness": 0.2,
        "indoorness": 0.8,
        "shade": 0.1,
        "covered": 0.85,
        "rainEnjoyment": 0.55,
        "heatTolerance": 0.8,
        "confidence": 0.55
      },
      "openingHoursRaw": "11:00-22:00",
      "tags": {
        "cuisine": "japanese"
      }
    },
    {
      "id": "osm-2099201524",
      "osmId": 2099201524,
      "name": "Kyoto Roll-En",
      "nameTh": null,
      "lat": 13.7187357,
      "lng": 100.5851129,
      "category": "restaurant",
      "profile": {
        "outdoorness": 0.2,
        "indoorness": 0.8,
        "shade": 0.1,
        "covered": 0.85,
        "rainEnjoyment": 0.55,
        "heatTolerance": 0.8,
        "confidence": 0.55
      },
      "openingHoursRaw": "10:00-22:00",
      "tags": {
        "cuisine": "ice_cream"
      }
    },
    {
      "id": "osm-2099202584",
      "osmId": 2099202584,
      "name": "Chabuton",
      "nameTh": null,
      "lat": 13.7188193,
      "lng": 100.5851183,
      "category": "restaurant",
      "profile": {
        "outdoorness": 0.2,
        "indoorness": 0.8,
        "shade": 0.1,
        "covered": 0.85,
        "rainEnjoyment": 0.55,
        "heatTolerance": 0.8,
        "confidence": 0.55
      },
      "openingHoursRaw": "11:00-22:00",
      "tags": {
        "cuisine": "japanese"
      }
    },
    {
      "id": "osm-2377092980",
      "osmId": 2377092980,
      "name": "ฉัน",
      "nameTh": "ฉัน",
      "lat": 13.7218402,
      "lng": 100.5829503,
      "category": "bar",
      "profile": {
        "outdoorness": 0.3,
        "indoorness": 0.7,
        "shade": 0.2,
        "covered": 0.7,
        "rainEnjoyment": 0.55,
        "heatTolerance": 0.65,
        "confidence": 0.5
      },
      "openingHoursRaw": null,
      "tags": {}
    },
    {
      "id": "osm-3181780623",
      "osmId": 3181780623,
      "name": "Mikkeller",
      "nameTh": null,
      "lat": 13.7277732,
      "lng": 100.5884555,
      "category": "bar",
      "profile": {
        "outdoorness": 0.3,
        "indoorness": 0.7,
        "shade": 0.2,
        "covered": 0.7,
        "rainEnjoyment": 0.55,
        "heatTolerance": 0.65,
        "confidence": 0.5
      },
      "openingHoursRaw": "Mo-Su 17:00-00:00",
      "tags": {}
    },
    {
      "id": "osm-3216938371",
      "osmId": 3216938371,
      "name": "True Coffee",
      "nameTh": null,
      "lat": 13.7195505,
      "lng": 100.5847566,
      "category": "cafe",
      "profile": {
        "outdoorness": 0.15,
        "indoorness": 0.85,
        "shade": 0.1,
        "covered": 0.9,
        "rainEnjoyment": 0.75,
        "heatTolerance": 0.85,
        "confidence": 0.6
      },
      "openingHoursRaw": "Mo-Fr 08:00-18:00, Sa-Su 09:00-18:00",
      "tags": {
        "cuisine": "coffee_shop"
      }
    },
    {
      "id": "osm-3234302717",
      "osmId": 3234302717,
      "name": "Black Canyon Coffee",
      "nameTh": null,
      "lat": 13.718892,
      "lng": 100.5968299,
      "category": "cafe",
      "profile": {
        "outdoorness": 0.15,
        "indoorness": 0.85,
        "shade": 0.1,
        "covered": 0.9,
        "rainEnjoyment": 0.75,
        "heatTolerance": 0.85,
        "confidence": 0.6
      },
      "openingHoursRaw": null,
      "tags": {}
    },
    {
      "id": "osm-3234302721",
      "osmId": 3234302721,
      "name": "MK Restaurants",
      "nameTh": null,
      "lat": 13.7184962,
      "lng": 100.5963961,
      "category": "restaurant",
      "profile": {
        "outdoorness": 0.2,
        "indoorness": 0.8,
        "shade": 0.1,
        "covered": 0.85,
        "rainEnjoyment": 0.55,
        "heatTolerance": 0.8,
        "confidence": 0.55
      },
      "openingHoursRaw": null,
      "tags": {
        "cuisine": "thai"
      }
    },
    {
      "id": "osm-3245009563",
      "osmId": 3245009563,
      "name": "The Kebabry",
      "nameTh": null,
      "lat": 13.7324556,
      "lng": 100.5826841,
      "category": "restaurant",
      "profile": {
        "outdoorness": 0.2,
        "indoorness": 0.8,
        "shade": 0.1,
        "covered": 0.85,
        "rainEnjoyment": 0.55,
        "heatTolerance": 0.8,
        "confidence": 0.55
      },
      "openingHoursRaw": null,
      "tags": {
        "cuisine": "turkish"
      }
    },
    {
      "id": "osm-3245009564",
      "osmId": 3245009564,
      "name": "Wine Republic",
      "nameTh": null,
      "lat": 13.7324895,
      "lng": 100.5822447,
      "category": "bar",
      "profile": {
        "outdoorness": 0.3,
        "indoorness": 0.7,
        "shade": 0.2,
        "covered": 0.7,
        "rainEnjoyment": 0.55,
        "heatTolerance": 0.65,
        "confidence": 0.5
      },
      "openingHoursRaw": null,
      "tags": {}
    },
    {
      "id": "osm-3245774361",
      "osmId": 3245774361,
      "name": "Bombay Blues",
      "nameTh": null,
      "lat": 13.7322942,
      "lng": 100.5828233,
      "category": "bar",
      "profile": {
        "outdoorness": 0.3,
        "indoorness": 0.7,
        "shade": 0.2,
        "covered": 0.7,
        "rainEnjoyment": 0.55,
        "heatTolerance": 0.65,
        "confidence": 0.5
      },
      "openingHoursRaw": null,
      "tags": {}
    },
    {
      "id": "osm-3245774362",
      "osmId": 3245774362,
      "name": "Brew Pub",
      "nameTh": null,
      "lat": 13.7333223,
      "lng": 100.5812573,
      "category": "bar",
      "profile": {
        "outdoorness": 0.3,
        "indoorness": 0.7,
        "shade": 0.2,
        "covered": 0.7,
        "rainEnjoyment": 0.55,
        "heatTolerance": 0.65,
        "confidence": 0.5
      },
      "openingHoursRaw": null,
      "tags": {}
    },
    {
      "id": "osm-3245774363",
      "osmId": 3245774363,
      "name": "Crepes & Co.",
      "nameTh": null,
      "lat": 13.7308341,
      "lng": 100.581804,
      "category": "restaurant",
      "profile": {
        "outdoorness": 0.2,
        "indoorness": 0.8,
        "shade": 0.1,
        "covered": 0.85,
        "rainEnjoyment": 0.55,
        "heatTolerance": 0.8,
        "confidence": 0.55
      },
      "openingHoursRaw": null,
      "tags": {}
    },
    {
      "id": "osm-3245774364",
      "osmId": 3245774364,
      "name": "Fat Gut'z",
      "nameTh": null,
      "lat": 13.7334408,
      "lng": 100.5812873,
      "category": "bar",
      "profile": {
        "outdoorness": 0.3,
        "indoorness": 0.7,
        "shade": 0.2,
        "covered": 0.7,
        "rainEnjoyment": 0.55,
        "heatTolerance": 0.65,
        "confidence": 0.5
      },
      "openingHoursRaw": null,
      "tags": {}
    },
    {
      "id": "osm-3245774367",
      "osmId": 3245774367,
      "name": "Masala Art",
      "nameTh": null,
      "lat": 13.7307956,
      "lng": 100.5815919,
      "category": "restaurant",
      "profile": {
        "outdoorness": 0.2,
        "indoorness": 0.8,
        "shade": 0.1,
        "covered": 0.85,
        "rainEnjoyment": 0.55,
        "heatTolerance": 0.8,
        "confidence": 0.55
      },
      "openingHoursRaw": null,
      "tags": {
        "cuisine": "indian"
      }
    },
    {
      "id": "osm-3246091645",
      "osmId": 3246091645,
      "name": "Starbucks",
      "nameTh": "สตาร์บัคส์",
      "lat": 13.7264429,
      "lng": 100.5854862,
      "category": "cafe",
      "profile": {
        "outdoorness": 0.15,
        "indoorness": 0.85,
        "shade": 0.1,
        "covered": 0.9,
        "rainEnjoyment": 0.75,
        "heatTolerance": 0.85,
        "confidence": 0.6
      },
      "openingHoursRaw": null,
      "tags": {
        "cuisine": "coffee_shop"
      }
    },
    {
      "id": "osm-3246097463",
      "osmId": 3246097463,
      "name": "S&P Simply Delicious",
      "nameTh": null,
      "lat": 13.7272609,
      "lng": 100.5855962,
      "category": "restaurant",
      "profile": {
        "outdoorness": 0.2,
        "indoorness": 0.8,
        "shade": 0.1,
        "covered": 0.85,
        "rainEnjoyment": 0.55,
        "heatTolerance": 0.8,
        "confidence": 0.55
      },
      "openingHoursRaw": null,
      "tags": {}
    },
    {
      "id": "osm-3251663420",
      "osmId": 3251663420,
      "name": "โอมุ",
      "nameTh": null,
      "lat": 13.723265,
      "lng": 100.5842816,
      "category": "restaurant",
      "profile": {
        "outdoorness": 0.2,
        "indoorness": 0.8,
        "shade": 0.1,
        "covered": 0.85,
        "rainEnjoyment": 0.55,
        "heatTolerance": 0.8,
        "confidence": 0.55
      },
      "openingHoursRaw": null,
      "tags": {
        "cuisine": "japanese"
      }
    },
    {
      "id": "osm-3256755658",
      "osmId": 3256755658,
      "name": "Bangkok Bar",
      "nameTh": null,
      "lat": 13.7332914,
      "lng": 100.5828947,
      "category": "bar",
      "profile": {
        "outdoorness": 0.3,
        "indoorness": 0.7,
        "shade": 0.2,
        "covered": 0.7,
        "rainEnjoyment": 0.55,
        "heatTolerance": 0.65,
        "confidence": 0.5
      },
      "openingHoursRaw": null,
      "tags": {}
    },
    {
      "id": "osm-3256755659",
      "osmId": 3256755659,
      "name": "Bangkok Burger Co",
      "nameTh": null,
      "lat": 13.7325229,
      "lng": 100.5828877,
      "category": "restaurant",
      "profile": {
        "outdoorness": 0.2,
        "indoorness": 0.8,
        "shade": 0.1,
        "covered": 0.85,
        "rainEnjoyment": 0.55,
        "heatTolerance": 0.8,
        "confidence": 0.55
      },
      "openingHoursRaw": null,
      "tags": {}
    },
    {
      "id": "osm-3261460047",
      "osmId": 3261460047,
      "name": "S&P",
      "nameTh": null,
      "lat": 13.7188933,
      "lng": 100.5970093,
      "category": "cafe",
      "profile": {
        "outdoorness": 0.15,
        "indoorness": 0.85,
        "shade": 0.1,
        "covered": 0.9,
        "rainEnjoyment": 0.75,
        "heatTolerance": 0.85,
        "confidence": 0.6
      },
      "openingHoursRaw": null,
      "tags": {}
    },
    {
      "id": "osm-3261460048",
      "osmId": 3261460048,
      "name": "Yamazaki",
      "nameTh": null,
      "lat": 13.7188958,
      "lng": 100.5973288,
      "category": "cafe",
      "profile": {
        "outdoorness": 0.15,
        "indoorness": 0.85,
        "shade": 0.1,
        "covered": 0.9,
        "rainEnjoyment": 0.75,
        "heatTolerance": 0.85,
        "confidence": 0.6
      },
      "openingHoursRaw": null,
      "tags": {}
    },
    {
      "id": "osm-3286552782",
      "osmId": 3286552782,
      "name": "Nang Kwak",
      "nameTh": null,
      "lat": 13.7326645,
      "lng": 100.5822892,
      "category": "bar",
      "profile": {
        "outdoorness": 0.3,
        "indoorness": 0.7,
        "shade": 0.2,
        "covered": 0.7,
        "rainEnjoyment": 0.55,
        "heatTolerance": 0.65,
        "confidence": 0.5
      },
      "openingHoursRaw": null,
      "tags": {}
    },
    {
      "id": "osm-3286552860",
      "osmId": 3286552860,
      "name": "Little Diner",
      "nameTh": null,
      "lat": 13.730743,
      "lng": 100.5813877,
      "category": "cafe",
      "profile": {
        "outdoorness": 0.15,
        "indoorness": 0.85,
        "shade": 0.1,
        "covered": 0.9,
        "rainEnjoyment": 0.75,
        "heatTolerance": 0.85,
        "confidence": 0.6
      },
      "openingHoursRaw": "Mo-Su 05:30-10:00, 10:30-22:00",
      "tags": {}
    },
    {
      "id": "osm-3291511403",
      "osmId": 3291511403,
      "name": "Sway Urban Eatery",
      "nameTh": null,
      "lat": 13.7323167,
      "lng": 100.5827563,
      "category": "restaurant",
      "profile": {
        "outdoorness": 0.2,
        "indoorness": 0.8,
        "shade": 0.1,
        "covered": 0.85,
        "rainEnjoyment": 0.55,
        "heatTolerance": 0.8,
        "confidence": 0.55
      },
      "openingHoursRaw": "1800-0200",
      "tags": {
        "cuisine": "wings;beer;thai;burger"
      }
    },
    {
      "id": "osm-3301457998",
      "osmId": 3301457998,
      "name": "Donabe",
      "nameTh": null,
      "lat": 13.7232623,
      "lng": 100.5844342,
      "category": "restaurant",
      "profile": {
        "outdoorness": 0.2,
        "indoorness": 0.8,
        "shade": 0.1,
        "covered": 0.85,
        "rainEnjoyment": 0.55,
        "heatTolerance": 0.8,
        "confidence": 0.55
      },
      "openingHoursRaw": null,
      "tags": {}
    },
    {
      "id": "osm-3301458000",
      "osmId": 3301458000,
      "name": "Kirin",
      "nameTh": null,
      "lat": 13.7233429,
      "lng": 100.5844355,
      "category": "restaurant",
      "profile": {
        "outdoorness": 0.2,
        "indoorness": 0.8,
        "shade": 0.1,
        "covered": 0.85,
        "rainEnjoyment": 0.55,
        "heatTolerance": 0.8,
        "confidence": 0.55
      },
      "openingHoursRaw": null,
      "tags": {}
    },
    {
      "id": "osm-3301458001",
      "osmId": 3301458001,
      "name": "Moshi Moshi",
      "nameTh": null,
      "lat": 13.7235116,
      "lng": 100.5844381,
      "category": "restaurant",
      "profile": {
        "outdoorness": 0.2,
        "indoorness": 0.8,
        "shade": 0.1,
        "covered": 0.85,
        "rainEnjoyment": 0.55,
        "heatTolerance": 0.8,
        "confidence": 0.55
      },
      "openingHoursRaw": null,
      "tags": {}
    },
    {
      "id": "osm-3301458005",
      "osmId": 3301458005,
      "name": "Yamagoya Ramen",
      "nameTh": null,
      "lat": 13.7234223,
      "lng": 100.5844381,
      "category": "restaurant",
      "profile": {
        "outdoorness": 0.2,
        "indoorness": 0.8,
        "shade": 0.1,
        "covered": 0.85,
        "rainEnjoyment": 0.55,
        "heatTolerance": 0.8,
        "confidence": 0.55
      },
      "openingHoursRaw": null,
      "tags": {}
    },
    {
      "id": "osm-3302160164",
      "osmId": 3302160164,
      "name": "Famous",
      "nameTh": null,
      "lat": 13.7261222,
      "lng": 100.5852057,
      "category": "restaurant",
      "profile": {
        "outdoorness": 0.2,
        "indoorness": 0.8,
        "shade": 0.1,
        "covered": 0.85,
        "rainEnjoyment": 0.55,
        "heatTolerance": 0.8,
        "confidence": 0.55
      },
      "openingHoursRaw": null,
      "tags": {}
    },
    {
      "id": "osm-3302160167",
      "osmId": 3302160167,
      "name": "SP Wine Bar",
      "nameTh": null,
      "lat": 13.7254915,
      "lng": 100.584835,
      "category": "restaurant",
      "profile": {
        "outdoorness": 0.2,
        "indoorness": 0.8,
        "shade": 0.1,
        "covered": 0.85,
        "rainEnjoyment": 0.55,
        "heatTolerance": 0.8,
        "confidence": 0.55
      },
      "openingHoursRaw": null,
      "tags": {}
    },
    {
      "id": "osm-3302604504",
      "osmId": 3302604504,
      "name": "Jp Corner",
      "nameTh": null,
      "lat": 13.7184967,
      "lng": 100.5968671,
      "category": "restaurant",
      "profile": {
        "outdoorness": 0.2,
        "indoorness": 0.8,
        "shade": 0.1,
        "covered": 0.85,
        "rainEnjoyment": 0.55,
        "heatTolerance": 0.8,
        "confidence": 0.55
      },
      "openingHoursRaw": null,
      "tags": {}
    },
    {
      "id": "osm-3302604506",
      "osmId": 3302604506,
      "name": "Yayoi",
      "nameTh": null,
      "lat": 13.7184967,
      "lng": 100.5963123,
      "category": "restaurant",
      "profile": {
        "outdoorness": 0.2,
        "indoorness": 0.8,
        "shade": 0.1,
        "covered": 0.85,
        "rainEnjoyment": 0.55,
        "heatTolerance": 0.8,
        "confidence": 0.55
      },
      "openingHoursRaw": null,
      "tags": {}
    },
    {
      "id": "osm-3308150593",
      "osmId": 3308150593,
      "name": "After You",
      "nameTh": null,
      "lat": 13.7337266,
      "lng": 100.5813569,
      "category": "cafe",
      "profile": {
        "outdoorness": 0.15,
        "indoorness": 0.85,
        "shade": 0.1,
        "covered": 0.9,
        "rainEnjoyment": 0.75,
        "heatTolerance": 0.85,
        "confidence": 0.6
      },
      "openingHoursRaw": "Mo-Su 10:00-00:00",
      "tags": {}
    },
    {
      "id": "osm-3308150594",
      "osmId": 3308150594,
      "name": "Bon Bon Bar",
      "nameTh": null,
      "lat": 13.7333493,
      "lng": 100.5814951,
      "category": "bar",
      "profile": {
        "outdoorness": 0.3,
        "indoorness": 0.7,
        "shade": 0.2,
        "covered": 0.7,
        "rainEnjoyment": 0.55,
        "heatTolerance": 0.65,
        "confidence": 0.5
      },
      "openingHoursRaw": null,
      "tags": {}
    },
    {
      "id": "osm-3308150595",
      "osmId": 3308150595,
      "name": "Clouds",
      "nameTh": null,
      "lat": 13.7332159,
      "lng": 100.5813473,
      "category": "bar",
      "profile": {
        "outdoorness": 0.3,
        "indoorness": 0.7,
        "shade": 0.2,
        "covered": 0.7,
        "rainEnjoyment": 0.55,
        "heatTolerance": 0.65,
        "confidence": 0.5
      },
      "openingHoursRaw": null,
      "tags": {}
    },
    {
      "id": "osm-3308150596",
      "osmId": 3308150596,
      "name": "Misokatsu Yabaton",
      "nameTh": null,
      "lat": 13.7339065,
      "lng": 100.5812384,
      "category": "restaurant",
      "profile": {
        "outdoorness": 0.2,
        "indoorness": 0.8,
        "shade": 0.1,
        "covered": 0.85,
        "rainEnjoyment": 0.55,
        "heatTolerance": 0.8,
        "confidence": 0.55
      },
      "openingHoursRaw": null,
      "tags": {}
    },
    {
      "id": "osm-3308150597",
      "osmId": 3308150597,
      "name": "Sab Bar",
      "nameTh": null,
      "lat": 13.7337734,
      "lng": 100.5811927,
      "category": "bar",
      "profile": {
        "outdoorness": 0.3,
        "indoorness": 0.7,
        "shade": 0.2,
        "covered": 0.7,
        "rainEnjoyment": 0.55,
        "heatTolerance": 0.65,
        "confidence": 0.5
      },
      "openingHoursRaw": null,
      "tags": {}
    },
    {
      "id": "osm-3308150600",
      "osmId": 3308150600,
      "name": "Zoulviet",
      "nameTh": null,
      "lat": 13.7338202,
      "lng": 100.581384,
      "category": "restaurant",
      "profile": {
        "outdoorness": 0.2,
        "indoorness": 0.8,
        "shade": 0.1,
        "covered": 0.85,
        "rainEnjoyment": 0.55,
        "heatTolerance": 0.8,
        "confidence": 0.55
      },
      "openingHoursRaw": null,
      "tags": {}
    },
    {
      "id": "osm-3309232379",
      "osmId": 3309232379,
      "name": "Desi Beats",
      "nameTh": null,
      "lat": 13.7323773,
      "lng": 100.5827605,
      "category": "bar",
      "profile": {
        "outdoorness": 0.3,
        "indoorness": 0.7,
        "shade": 0.2,
        "covered": 0.7,
        "rainEnjoyment": 0.55,
        "heatTolerance": 0.65,
        "confidence": 0.5
      },
      "openingHoursRaw": null,
      "tags": {}
    },
    {
      "id": "osm-3309232380",
      "osmId": 3309232380,
      "name": "Don Sushi",
      "nameTh": null,
      "lat": 13.7324114,
      "lng": 100.58286,
      "category": "restaurant",
      "profile": {
        "outdoorness": 0.2,
        "indoorness": 0.8,
        "shade": 0.1,
        "covered": 0.85,
        "rainEnjoyment": 0.55,
        "heatTolerance": 0.8,
        "confidence": 0.55
      },
      "openingHoursRaw": null,
      "tags": {
        "cuisine": "turkish"
      }
    },
    {
      "id": "osm-3309232381",
      "osmId": 3309232381,
      "name": "Hotaru",
      "nameTh": null,
      "lat": 13.7325003,
      "lng": 100.5828034,
      "category": "bar",
      "profile": {
        "outdoorness": 0.3,
        "indoorness": 0.7,
        "shade": 0.2,
        "covered": 0.7,
        "rainEnjoyment": 0.55,
        "heatTolerance": 0.65,
        "confidence": 0.5
      },
      "openingHoursRaw": null,
      "tags": {}
    },
    {
      "id": "osm-3309232382",
      "osmId": 3309232382,
      "name": "Romane",
      "nameTh": null,
      "lat": 13.7321752,
      "lng": 100.5824838,
      "category": "bar",
      "profile": {
        "outdoorness": 0.3,
        "indoorness": 0.7,
        "shade": 0.2,
        "covered": 0.7,
        "rainEnjoyment": 0.55,
        "heatTolerance": 0.65,
        "confidence": 0.5
      },
      "openingHoursRaw": null,
      "tags": {}
    },
    {
      "id": "osm-3309232383",
      "osmId": 3309232383,
      "name": "Sabaijai Cafe",
      "nameTh": null,
      "lat": 13.7291172,
      "lng": 100.585737,
      "category": "cafe",
      "profile": {
        "outdoorness": 0.15,
        "indoorness": 0.85,
        "shade": 0.1,
        "covered": 0.9,
        "rainEnjoyment": 0.75,
        "heatTolerance": 0.85,
        "confidence": 0.6
      },
      "openingHoursRaw": null,
      "tags": {}
    },
    {
      "id": "osm-3309232384",
      "osmId": 3309232384,
      "name": "Stamina-en",
      "nameTh": null,
      "lat": 13.7325647,
      "lng": 100.5827224,
      "category": "restaurant",
      "profile": {
        "outdoorness": 0.2,
        "indoorness": 0.8,
        "shade": 0.1,
        "covered": 0.85,
        "rainEnjoyment": 0.55,
        "heatTolerance": 0.8,
        "confidence": 0.55
      },
      "openingHoursRaw": null,
      "tags": {}
    },
    {
      "id": "osm-3316149337",
      "osmId": 3316149337,
      "name": "Calin",
      "nameTh": null,
      "lat": 13.7309963,
      "lng": 100.5818545,
      "category": "restaurant",
      "profile": {
        "outdoorness": 0.2,
        "indoorness": 0.8,
        "shade": 0.1,
        "covered": 0.85,
        "rainEnjoyment": 0.55,
        "heatTolerance": 0.8,
        "confidence": 0.55
      },
      "openingHoursRaw": null,
      "tags": {}
    },
    {
      "id": "osm-3316149340",
      "osmId": 3316149340,
      "name": "Katana",
      "nameTh": null,
      "lat": 13.7307493,
      "lng": 100.5817717,
      "category": "restaurant",
      "profile": {
        "outdoorness": 0.2,
        "indoorness": 0.8,
        "shade": 0.1,
        "covered": 0.85,
        "rainEnjoyment": 0.55,
        "heatTolerance": 0.8,
        "confidence": 0.55
      },
      "openingHoursRaw": null,
      "tags": {}
    },
    {
      "id": "osm-3316149341",
      "osmId": 3316149341,
      "name": "Tadaima",
      "nameTh": null,
      "lat": 13.7310238,
      "lng": 100.5817339,
      "category": "restaurant",
      "profile": {
        "outdoorness": 0.2,
        "indoorness": 0.8,
        "shade": 0.1,
        "covered": 0.85,
        "rainEnjoyment": 0.55,
        "heatTolerance": 0.8,
        "confidence": 0.55
      },
      "openingHoursRaw": null,
      "tags": {}
    },
    {
      "id": "osm-3316149342",
      "osmId": 3316149342,
      "name": "Took Laa Dee",
      "nameTh": null,
      "lat": 13.7309204,
      "lng": 100.5818285,
      "category": "restaurant",
      "profile": {
        "outdoorness": 0.2,
        "indoorness": 0.8,
        "shade": 0.1,
        "covered": 0.85,
        "rainEnjoyment": 0.55,
        "heatTolerance": 0.8,
        "confidence": 0.55
      },
      "openingHoursRaw": null,
      "tags": {}
    },
    {
      "id": "osm-3316149343",
      "osmId": 3316149343,
      "name": "Wine Collection",
      "nameTh": null,
      "lat": 13.7308883,
      "lng": 100.5816227,
      "category": "bar",
      "profile": {
        "outdoorness": 0.3,
        "indoorness": 0.7,
        "shade": 0.2,
        "covered": 0.7,
        "rainEnjoyment": 0.55,
        "heatTolerance": 0.65,
        "confidence": 0.5
      },
      "openingHoursRaw": null,
      "tags": {}
    },
    {
      "id": "osm-3335073542",
      "osmId": 3335073542,
      "name": "Pick Me Up",
      "nameTh": null,
      "lat": 13.7322658,
      "lng": 100.5822295,
      "category": "bar",
      "profile": {
        "outdoorness": 0.3,
        "indoorness": 0.7,
        "shade": 0.2,
        "covered": 0.7,
        "rainEnjoyment": 0.55,
        "heatTolerance": 0.65,
        "confidence": 0.5
      },
      "openingHoursRaw": null,
      "tags": {}
    },
    {
      "id": "osm-3338669340",
      "osmId": 3338669340,
      "name": "Oishi Japanese Buffet",
      "nameTh": null,
      "lat": 13.7260598,
      "lng": 100.5800571,
      "category": "restaurant",
      "profile": {
        "outdoorness": 0.2,
        "indoorness": 0.8,
        "shade": 0.1,
        "covered": 0.85,
        "rainEnjoyment": 0.55,
        "heatTolerance": 0.8,
        "confidence": 0.55
      },
      "openingHoursRaw": null,
      "tags": {}
    },
    {
      "id": "osm-3354527924",
      "osmId": 3354527924,
      "name": "Jeffer",
      "nameTh": null,
      "lat": 13.7217411,
      "lng": 100.5834795,
      "category": "restaurant",
      "profile": {
        "outdoorness": 0.2,
        "indoorness": 0.8,
        "shade": 0.1,
        "covered": 0.85,
        "rainEnjoyment": 0.55,
        "heatTolerance": 0.8,
        "confidence": 0.55
      },
      "openingHoursRaw": null,
      "tags": {}
    },
    {
      "id": "osm-3354527927",
      "osmId": 3354527927,
      "name": "Oishi Ramen",
      "nameTh": null,
      "lat": 13.7215016,
      "lng": 100.5831047,
      "category": "restaurant",
      "profile": {
        "outdoorness": 0.2,
        "indoorness": 0.8,
        "shade": 0.1,
        "covered": 0.85,
        "rainEnjoyment": 0.55,
        "heatTolerance": 0.8,
        "confidence": 0.55
      },
      "openingHoursRaw": null,
      "tags": {
        "cuisine": "ramen"
      }
    },
    {
      "id": "osm-3354527928",
      "osmId": 3354527928,
      "name": "Scoozi",
      "nameTh": null,
      "lat": 13.7213264,
      "lng": 100.5834915,
      "category": "restaurant",
      "profile": {
        "outdoorness": 0.2,
        "indoorness": 0.8,
        "shade": 0.1,
        "covered": 0.85,
        "rainEnjoyment": 0.55,
        "heatTolerance": 0.8,
        "confidence": 0.55
      },
      "openingHoursRaw": null,
      "tags": {}
    },
    {
      "id": "osm-3354527929",
      "osmId": 3354527929,
      "name": "Se-Ed Book Center",
      "nameTh": null,
      "lat": 13.7216077,
      "lng": 100.5835077,
      "category": "library",
      "profile": {
        "outdoorness": 0.02,
        "indoorness": 0.98,
        "shade": 0,
        "covered": 1,
        "rainEnjoyment": 0.7,
        "heatTolerance": 0.9,
        "confidence": 0.75
      },
      "openingHoursRaw": null,
      "tags": {}
    },
    {
      "id": "osm-3354527930",
      "osmId": 3354527930,
      "name": "Shabushi",
      "nameTh": null,
      "lat": 13.7217576,
      "lng": 100.5831289,
      "category": "restaurant",
      "profile": {
        "outdoorness": 0.2,
        "indoorness": 0.8,
        "shade": 0.1,
        "covered": 0.85,
        "rainEnjoyment": 0.55,
        "heatTolerance": 0.8,
        "confidence": 0.55
      },
      "openingHoursRaw": null,
      "tags": {
        "cuisine": "sushi"
      }
    },
    {
      "id": "osm-3354527931",
      "osmId": 3354527931,
      "name": "Sizzler",
      "nameTh": null,
      "lat": 13.7217479,
      "lng": 100.5833133,
      "category": "restaurant",
      "profile": {
        "outdoorness": 0.2,
        "indoorness": 0.8,
        "shade": 0.1,
        "covered": 0.85,
        "rainEnjoyment": 0.55,
        "heatTolerance": 0.8,
        "confidence": 0.55
      },
      "openingHoursRaw": null,
      "tags": {
        "cuisine": "steak_house"
      }
    },
    {
      "id": "osm-3354527932",
      "osmId": 3354527932,
      "name": "Swensen's",
      "nameTh": null,
      "lat": 13.7213906,
      "lng": 100.5830987,
      "category": "cafe",
      "profile": {
        "outdoorness": 0.15,
        "indoorness": 0.85,
        "shade": 0.1,
        "covered": 0.9,
        "rainEnjoyment": 0.75,
        "heatTolerance": 0.85,
        "confidence": 0.6
      },
      "openingHoursRaw": null,
      "tags": {
        "cuisine": "ice_cream"
      }
    },
    {
      "id": "osm-3354527933",
      "osmId": 3354527933,
      "name": "The Coffee Club",
      "nameTh": null,
      "lat": 13.7204286,
      "lng": 100.5843336,
      "category": "cafe",
      "profile": {
        "outdoorness": 0.15,
        "indoorness": 0.85,
        "shade": 0.1,
        "covered": 0.9,
        "rainEnjoyment": 0.75,
        "heatTolerance": 0.85,
        "confidence": 0.6
      },
      "openingHoursRaw": null,
      "tags": {
        "cuisine": "coffee_shop"
      }
    },
    {
      "id": "osm-3354527934",
      "osmId": 3354527934,
      "name": "The Gardens of Dinsor Palace",
      "nameTh": null,
      "lat": 13.7226295,
      "lng": 100.5822388,
      "category": "restaurant",
      "profile": {
        "outdoorness": 0.2,
        "indoorness": 0.8,
        "shade": 0.1,
        "covered": 0.85,
        "rainEnjoyment": 0.55,
        "heatTolerance": 0.8,
        "confidence": 0.55
      },
      "openingHoursRaw": "Mo-Su 08:00-23:00",
      "tags": {}
    },
    {
      "id": "osm-3359177357",
      "osmId": 3359177357,
      "name": "Aji Dou Raku",
      "nameTh": null,
      "lat": 13.7270395,
      "lng": 100.5859068,
      "category": "restaurant",
      "profile": {
        "outdoorness": 0.2,
        "indoorness": 0.8,
        "shade": 0.1,
        "covered": 0.85,
        "rainEnjoyment": 0.55,
        "heatTolerance": 0.8,
        "confidence": 0.55
      },
      "openingHoursRaw": null,
      "tags": {
        "cuisine": "japanese"
      }
    },
    {
      "id": "osm-3388204001",
      "osmId": 3388204001,
      "name": "Kiani",
      "nameTh": null,
      "lat": 13.726,
      "lng": 100.5802867,
      "category": "restaurant",
      "profile": {
        "outdoorness": 0.2,
        "indoorness": 0.8,
        "shade": 0.1,
        "covered": 0.85,
        "rainEnjoyment": 0.55,
        "heatTolerance": 0.8,
        "confidence": 0.55
      },
      "openingHoursRaw": null,
      "tags": {
        "cuisine": "korean"
      }
    },
    {
      "id": "osm-3388204002",
      "osmId": 3388204002,
      "name": "Ohsho Osaka",
      "nameTh": null,
      "lat": 13.72618,
      "lng": 100.5802932,
      "category": "restaurant",
      "profile": {
        "outdoorness": 0.2,
        "indoorness": 0.8,
        "shade": 0.1,
        "covered": 0.85,
        "rainEnjoyment": 0.55,
        "heatTolerance": 0.8,
        "confidence": 0.55
      },
      "openingHoursRaw": null,
      "tags": {}
    },
    {
      "id": "osm-3388204003",
      "osmId": 3388204003,
      "name": "See Fah",
      "nameTh": null,
      "lat": 13.7260895,
      "lng": 100.5800695,
      "category": "restaurant",
      "profile": {
        "outdoorness": 0.2,
        "indoorness": 0.8,
        "shade": 0.1,
        "covered": 0.85,
        "rainEnjoyment": 0.55,
        "heatTolerance": 0.8,
        "confidence": 0.55
      },
      "openingHoursRaw": null,
      "tags": {
        "cuisine": "thai"
      }
    },
    {
      "id": "osm-3388204004",
      "osmId": 3388204004,
      "name": "Tori Tori",
      "nameTh": null,
      "lat": 13.7259984,
      "lng": 100.5804233,
      "category": "restaurant",
      "profile": {
        "outdoorness": 0.2,
        "indoorness": 0.8,
        "shade": 0.1,
        "covered": 0.85,
        "rainEnjoyment": 0.55,
        "heatTolerance": 0.8,
        "confidence": 0.55
      },
      "openingHoursRaw": null,
      "tags": {}
    },
    {
      "id": "osm-3393346238",
      "osmId": 3393346238,
      "name": "Bakery & Cafe Hanabachi",
      "nameTh": null,
      "lat": 13.7209177,
      "lng": 100.5844346,
      "category": "cafe",
      "profile": {
        "outdoorness": 0.15,
        "indoorness": 0.85,
        "shade": 0.1,
        "covered": 0.9,
        "rainEnjoyment": 0.75,
        "heatTolerance": 0.85,
        "confidence": 0.6
      },
      "openingHoursRaw": "8:00-19:00",
      "tags": {}
    },
    {
      "id": "osm-3404236002",
      "osmId": 3404236002,
      "name": "Coffee Beans",
      "nameTh": null,
      "lat": 13.7299785,
      "lng": 100.591216,
      "category": "cafe",
      "profile": {
        "outdoorness": 0.15,
        "indoorness": 0.85,
        "shade": 0.1,
        "covered": 0.9,
        "rainEnjoyment": 0.75,
        "heatTolerance": 0.85,
        "confidence": 0.6
      },
      "openingHoursRaw": null,
      "tags": {}
    },
    {
      "id": "osm-3404236003",
      "osmId": 3404236003,
      "name": "Nikko Cafe",
      "nameTh": null,
      "lat": 13.729875,
      "lng": 100.5902198,
      "category": "cafe",
      "profile": {
        "outdoorness": 0.15,
        "indoorness": 0.85,
        "shade": 0.1,
        "covered": 0.9,
        "rainEnjoyment": 0.75,
        "heatTolerance": 0.85,
        "confidence": 0.6
      },
      "openingHoursRaw": null,
      "tags": {}
    },
    {
      "id": "osm-3404236004",
      "osmId": 3404236004,
      "name": "Red Den Bar & Bistro",
      "nameTh": null,
      "lat": 13.7298672,
      "lng": 100.5905289,
      "category": "restaurant",
      "profile": {
        "outdoorness": 0.2,
        "indoorness": 0.8,
        "shade": 0.1,
        "covered": 0.85,
        "rainEnjoyment": 0.55,
        "heatTolerance": 0.8,
        "confidence": 0.55
      },
      "openingHoursRaw": null,
      "tags": {}
    },
    {
      "id": "osm-3404236005",
      "osmId": 3404236005,
      "name": "Soulmade Yoga & Tearoom",
      "nameTh": null,
      "lat": 13.7298695,
      "lng": 100.5903488,
      "category": "cafe",
      "profile": {
        "outdoorness": 0.15,
        "indoorness": 0.85,
        "shade": 0.1,
        "covered": 0.9,
        "rainEnjoyment": 0.75,
        "heatTolerance": 0.85,
        "confidence": 0.6
      },
      "openingHoursRaw": null,
      "tags": {}
    },
    {
      "id": "osm-3404236305",
      "osmId": 3404236305,
      "name": "24 Owls by Sometime's",
      "nameTh": "AGE Burger",
      "lat": 13.730029,
      "lng": 100.5900696,
      "category": "restaurant",
      "profile": {
        "outdoorness": 0.2,
        "indoorness": 0.8,
        "shade": 0.1,
        "covered": 0.85,
        "rainEnjoyment": 0.55,
        "heatTolerance": 0.8,
        "confidence": 0.55
      },
      "openingHoursRaw": null,
      "tags": {}
    },
    {
      "id": "osm-3411187317",
      "osmId": 3411187317,
      "name": "Happy Monday",
      "nameTh": null,
      "lat": 13.7294477,
      "lng": 100.5864881,
      "category": "bar",
      "profile": {
        "outdoorness": 0.3,
        "indoorness": 0.7,
        "shade": 0.2,
        "covered": 0.7,
        "rainEnjoyment": 0.55,
        "heatTolerance": 0.65,
        "confidence": 0.5
      },
      "openingHoursRaw": null,
      "tags": {}
    },
    {
      "id": "osm-3411317363",
      "osmId": 3411317363,
      "name": "XYZ Ekkamai",
      "nameTh": null,
      "lat": 13.7293617,
      "lng": 100.586763,
      "category": "bar",
      "profile": {
        "outdoorness": 0.3,
        "indoorness": 0.7,
        "shade": 0.2,
        "covered": 0.7,
        "rainEnjoyment": 0.55,
        "heatTolerance": 0.65,
        "confidence": 0.5
      },
      "openingHoursRaw": "24/7",
      "tags": {}
    },
    {
      "id": "osm-3411317364",
      "osmId": 3411317364,
      "name": "Burger Factory",
      "nameTh": null,
      "lat": 13.7291676,
      "lng": 100.5866718,
      "category": "restaurant",
      "profile": {
        "outdoorness": 0.2,
        "indoorness": 0.8,
        "shade": 0.1,
        "covered": 0.85,
        "rainEnjoyment": 0.55,
        "heatTolerance": 0.8,
        "confidence": 0.55
      },
      "openingHoursRaw": null,
      "tags": {}
    },
    {
      "id": "osm-3411320375",
      "osmId": 3411320375,
      "name": "Blue Door",
      "nameTh": null,
      "lat": 13.7292731,
      "lng": 100.5867,
      "category": "cafe",
      "profile": {
        "outdoorness": 0.15,
        "indoorness": 0.85,
        "shade": 0.1,
        "covered": 0.9,
        "rainEnjoyment": 0.75,
        "heatTolerance": 0.85,
        "confidence": 0.6
      },
      "openingHoursRaw": null,
      "tags": {}
    },
    {
      "id": "osm-3411321242",
      "osmId": 3411321242,
      "name": "My Collection",
      "nameTh": null,
      "lat": 13.7294087,
      "lng": 100.5866356,
      "category": "restaurant",
      "profile": {
        "outdoorness": 0.2,
        "indoorness": 0.8,
        "shade": 0.1,
        "covered": 0.85,
        "rainEnjoyment": 0.55,
        "heatTolerance": 0.8,
        "confidence": 0.55
      },
      "openingHoursRaw": null,
      "tags": {}
    },
    {
      "id": "osm-3484249122",
      "osmId": 3484249122,
      "name": "Le Jardin",
      "nameTh": null,
      "lat": 13.7332881,
      "lng": 100.5800859,
      "category": "restaurant",
      "profile": {
        "outdoorness": 0.2,
        "indoorness": 0.8,
        "shade": 0.1,
        "covered": 0.85,
        "rainEnjoyment": 0.55,
        "heatTolerance": 0.8,
        "confidence": 0.55
      },
      "openingHoursRaw": null,
      "tags": {}
    },
    {
      "id": "osm-3593895305",
      "osmId": 3593895305,
      "name": "honey bear bistro",
      "nameTh": null,
      "lat": 13.7249035,
      "lng": 100.5872474,
      "category": "cafe",
      "profile": {
        "outdoorness": 0.15,
        "indoorness": 0.85,
        "shade": 0.1,
        "covered": 0.9,
        "rainEnjoyment": 0.75,
        "heatTolerance": 0.85,
        "confidence": 0.6
      },
      "openingHoursRaw": null,
      "tags": {
        "cuisine": "french"
      }
    },
    {
      "id": "osm-3924260422",
      "osmId": 3924260422,
      "name": "Rosemary",
      "nameTh": null,
      "lat": 13.7326751,
      "lng": 100.5817278,
      "category": "restaurant",
      "profile": {
        "outdoorness": 0.2,
        "indoorness": 0.8,
        "shade": 0.1,
        "covered": 0.85,
        "rainEnjoyment": 0.55,
        "heatTolerance": 0.8,
        "confidence": 0.55
      },
      "openingHoursRaw": null,
      "tags": {}
    },
    {
      "id": "osm-3924260423",
      "osmId": 3924260423,
      "name": "Sweetery",
      "nameTh": null,
      "lat": 13.7327405,
      "lng": 100.5815775,
      "category": "cafe",
      "profile": {
        "outdoorness": 0.15,
        "indoorness": 0.85,
        "shade": 0.1,
        "covered": 0.9,
        "rainEnjoyment": 0.75,
        "heatTolerance": 0.85,
        "confidence": 0.6
      },
      "openingHoursRaw": null,
      "tags": {}
    },
    {
      "id": "osm-3924265650",
      "osmId": 3924265650,
      "name": "Cha Cha An",
      "nameTh": null,
      "lat": 13.7291169,
      "lng": 100.5882661,
      "category": "restaurant",
      "profile": {
        "outdoorness": 0.2,
        "indoorness": 0.8,
        "shade": 0.1,
        "covered": 0.85,
        "rainEnjoyment": 0.55,
        "heatTolerance": 0.8,
        "confidence": 0.55
      },
      "openingHoursRaw": "Mo-Su 11:30-22:00",
      "tags": {
        "cuisine": "japanese"
      }
    },
    {
      "id": "osm-3924275146",
      "osmId": 3924275146,
      "name": "Hamakatsu",
      "nameTh": null,
      "lat": 13.7327077,
      "lng": 100.5819698,
      "category": "restaurant",
      "profile": {
        "outdoorness": 0.2,
        "indoorness": 0.8,
        "shade": 0.1,
        "covered": 0.85,
        "rainEnjoyment": 0.55,
        "heatTolerance": 0.8,
        "confidence": 0.55
      },
      "openingHoursRaw": null,
      "tags": {}
    },
    {
      "id": "osm-3924275147",
      "osmId": 3924275147,
      "name": "Iron Chef Table",
      "nameTh": null,
      "lat": 13.7325968,
      "lng": 100.5819301,
      "category": "restaurant",
      "profile": {
        "outdoorness": 0.2,
        "indoorness": 0.8,
        "shade": 0.1,
        "covered": 0.85,
        "rainEnjoyment": 0.55,
        "heatTolerance": 0.8,
        "confidence": 0.55
      },
      "openingHoursRaw": null,
      "tags": {}
    },
    {
      "id": "osm-3928970135",
      "osmId": 3928970135,
      "name": "Baan Ice",
      "nameTh": null,
      "lat": 13.7290826,
      "lng": 100.5807186,
      "category": "restaurant",
      "profile": {
        "outdoorness": 0.2,
        "indoorness": 0.8,
        "shade": 0.1,
        "covered": 0.85,
        "rainEnjoyment": 0.55,
        "heatTolerance": 0.8,
        "confidence": 0.55
      },
      "openingHoursRaw": null,
      "tags": {}
    },
    {
      "id": "osm-4192741189",
      "osmId": 4192741189,
      "name": "Supanigga Eating Room",
      "nameTh": null,
      "lat": 13.7304519,
      "lng": 100.5814961,
      "category": "restaurant",
      "profile": {
        "outdoorness": 0.2,
        "indoorness": 0.8,
        "shade": 0.1,
        "covered": 0.85,
        "rainEnjoyment": 0.55,
        "heatTolerance": 0.8,
        "confidence": 0.55
      },
      "openingHoursRaw": null,
      "tags": {
        "cuisine": "thai"
      }
    },
    {
      "id": "osm-4266266392",
      "osmId": 4266266392,
      "name": "Octave Roof Top Bar",
      "nameTh": null,
      "lat": 13.7235507,
      "lng": 100.5804596,
      "category": "bar",
      "profile": {
        "outdoorness": 0.5,
        "indoorness": 0.7,
        "shade": 0.30000000000000004,
        "covered": 0.7,
        "rainEnjoyment": 0.55,
        "heatTolerance": 0.65,
        "confidence": 0.5
      },
      "openingHoursRaw": null,
      "tags": {
        "outdoor_seating": "yes"
      }
    },
    {
      "id": "osm-4414274719",
      "osmId": 4414274719,
      "name": "เนื้อคู่",
      "nameTh": "เนื้อคู่",
      "lat": 13.7323563,
      "lng": 100.5819502,
      "category": "restaurant",
      "profile": {
        "outdoorness": 0.2,
        "indoorness": 0.8,
        "shade": 0.1,
        "covered": 0.85,
        "rainEnjoyment": 0.55,
        "heatTolerance": 0.8,
        "confidence": 0.55
      },
      "openingHoursRaw": null,
      "tags": {
        "cuisine": "steak_house"
      }
    },
    {
      "id": "osm-4414294591",
      "osmId": 4414294591,
      "name": "บ๊วยโภชนา",
      "nameTh": "บ๊วยโภชนา",
      "lat": 13.7328009,
      "lng": 100.5822707,
      "category": "restaurant",
      "profile": {
        "outdoorness": 0.2,
        "indoorness": 0.8,
        "shade": 0.1,
        "covered": 0.85,
        "rainEnjoyment": 0.55,
        "heatTolerance": 0.8,
        "confidence": 0.55
      },
      "openingHoursRaw": "Mo-Su 08:30-17:00",
      "tags": {
        "cuisine": "chinese;noodles"
      }
    },
    {
      "id": "osm-4425940694",
      "osmId": 4425940694,
      "name": "โจชิชู",
      "nameTh": "โจชิชู",
      "lat": 13.7230935,
      "lng": 100.5866246,
      "category": "restaurant",
      "profile": {
        "outdoorness": 0.2,
        "indoorness": 0.8,
        "shade": 0.1,
        "covered": 0.85,
        "rainEnjoyment": 0.55,
        "heatTolerance": 0.8,
        "confidence": 0.55
      },
      "openingHoursRaw": null,
      "tags": {}
    },
    {
      "id": "osm-4475356237",
      "osmId": 4475356237,
      "name": "Becco Fino",
      "nameTh": null,
      "lat": 13.7261347,
      "lng": 100.5802375,
      "category": "restaurant",
      "profile": {
        "outdoorness": 0.2,
        "indoorness": 0.8,
        "shade": 0.1,
        "covered": 0.85,
        "rainEnjoyment": 0.55,
        "heatTolerance": 0.8,
        "confidence": 0.55
      },
      "openingHoursRaw": null,
      "tags": {
        "cuisine": "italian"
      }
    },
    {
      "id": "osm-4584070590",
      "osmId": 4584070590,
      "name": "Phil Coffee",
      "nameTh": null,
      "lat": 13.7245132,
      "lng": 100.5827315,
      "category": "cafe",
      "profile": {
        "outdoorness": 0.35,
        "indoorness": 0.85,
        "shade": 0.2,
        "covered": 0.9,
        "rainEnjoyment": 0.75,
        "heatTolerance": 0.85,
        "confidence": 0.6
      },
      "openingHoursRaw": "Mo-Fr 08:00-16:30; Sa-Su 09:00-16:30",
      "tags": {
        "outdoor_seating": "yes",
        "cuisine": "coffee_shop"
      }
    },
    {
      "id": "osm-4772856221",
      "osmId": 4772856221,
      "name": "Ink & Lion",
      "nameTh": "Ink & Lion",
      "lat": 13.7235649,
      "lng": 100.5850827,
      "category": "cafe",
      "profile": {
        "outdoorness": 0.15,
        "indoorness": 0.85,
        "shade": 0.1,
        "covered": 0.9,
        "rainEnjoyment": 0.75,
        "heatTolerance": 0.85,
        "confidence": 0.6
      },
      "openingHoursRaw": "Mo-Su 09:00-18:00",
      "tags": {
        "cuisine": "coffee_shop"
      }
    },
    {
      "id": "osm-4827381870",
      "osmId": 4827381870,
      "name": "Bonchon Chicken",
      "nameTh": null,
      "lat": 13.7335354,
      "lng": 100.5813739,
      "category": "restaurant",
      "profile": {
        "outdoorness": 0.2,
        "indoorness": 0.8,
        "shade": 0.1,
        "covered": 0.85,
        "rainEnjoyment": 0.55,
        "heatTolerance": 0.8,
        "confidence": 0.55
      },
      "openingHoursRaw": null,
      "tags": {
        "cuisine": "chicken;korean;sushi"
      }
    },
    {
      "id": "osm-5091973077",
      "osmId": 5091973077,
      "name": "El Tapeo",
      "nameTh": null,
      "lat": 13.7310067,
      "lng": 100.5814448,
      "category": "bar",
      "profile": {
        "outdoorness": 0.3,
        "indoorness": 0.7,
        "shade": 0.2,
        "covered": 0.7,
        "rainEnjoyment": 0.55,
        "heatTolerance": 0.65,
        "confidence": 0.5
      },
      "openingHoursRaw": "Tu-Su 11:30-21:00",
      "tags": {
        "cuisine": "tapas;wine"
      }
    },
    {
      "id": "osm-5124642321",
      "osmId": 5124642321,
      "name": "Sabai Jai Gai Yang",
      "nameTh": null,
      "lat": 13.7292595,
      "lng": 100.5859054,
      "category": "restaurant",
      "profile": {
        "outdoorness": 0.2,
        "indoorness": 0.8,
        "shade": 0.1,
        "covered": 0.85,
        "rainEnjoyment": 0.55,
        "heatTolerance": 0.8,
        "confidence": 0.55
      },
      "openingHoursRaw": null,
      "tags": {}
    },
    {
      "id": "osm-5139447081",
      "osmId": 5139447081,
      "name": "722 Craft Experience",
      "nameTh": null,
      "lat": 13.7296663,
      "lng": 100.5950255,
      "category": "bar",
      "profile": {
        "outdoorness": 0.3,
        "indoorness": 0.7,
        "shade": 0.2,
        "covered": 0.7,
        "rainEnjoyment": 0.55,
        "heatTolerance": 0.65,
        "confidence": 0.5
      },
      "openingHoursRaw": null,
      "tags": {}
    },
    {
      "id": "osm-5342565922",
      "osmId": 5342565922,
      "name": "TARS Gallery",
      "nameTh": null,
      "lat": 13.7173225,
      "lng": 100.5908092,
      "category": "viewpoint",
      "profile": {
        "outdoorness": 0.95,
        "indoorness": 0.05,
        "shade": 0.05,
        "covered": 0.05,
        "rainEnjoyment": 0.05,
        "heatTolerance": 0.25,
        "confidence": 0.55
      },
      "openingHoursRaw": null,
      "tags": {}
    },
    {
      "id": "osm-5444296337",
      "osmId": 5444296337,
      "name": "Waterworks Coffee",
      "nameTh": null,
      "lat": 13.7302722,
      "lng": 100.5811998,
      "category": "cafe",
      "profile": {
        "outdoorness": 0.15,
        "indoorness": 0.85,
        "shade": 0.1,
        "covered": 0.9,
        "rainEnjoyment": 0.75,
        "heatTolerance": 0.85,
        "confidence": 0.6
      },
      "openingHoursRaw": "Mo-Su 07:45-18:00",
      "tags": {
        "cuisine": "coffee_shop"
      }
    },
    {
      "id": "osm-5483920629",
      "osmId": 5483920629,
      "name": "Luca Moto",
      "nameTh": null,
      "lat": 13.7327543,
      "lng": 100.5815294,
      "category": "restaurant",
      "profile": {
        "outdoorness": 0.2,
        "indoorness": 0.8,
        "shade": 0.1,
        "covered": 0.85,
        "rainEnjoyment": 0.55,
        "heatTolerance": 0.8,
        "confidence": 0.55
      },
      "openingHoursRaw": null,
      "tags": {
        "cuisine": "international"
      }
    },
    {
      "id": "osm-5486338221",
      "osmId": 5486338221,
      "name": "Rabbit Hole",
      "nameTh": null,
      "lat": 13.7298981,
      "lng": 100.5811206,
      "category": "bar",
      "profile": {
        "outdoorness": 0.3,
        "indoorness": 0.7,
        "shade": 0.2,
        "covered": 0.7,
        "rainEnjoyment": 0.55,
        "heatTolerance": 0.65,
        "confidence": 0.5
      },
      "openingHoursRaw": null,
      "tags": {}
    },
    {
      "id": "osm-5601349745",
      "osmId": 5601349745,
      "name": "Nowhere",
      "nameTh": null,
      "lat": 13.7261772,
      "lng": 100.5854876,
      "category": "restaurant",
      "profile": {
        "outdoorness": 0.2,
        "indoorness": 0.8,
        "shade": 0.1,
        "covered": 0.85,
        "rainEnjoyment": 0.55,
        "heatTolerance": 0.8,
        "confidence": 0.55
      },
      "openingHoursRaw": null,
      "tags": {
        "cuisine": "western"
      }
    },
    {
      "id": "osm-5614472825",
      "osmId": 5614472825,
      "name": "Nobu",
      "nameTh": null,
      "lat": 13.7334872,
      "lng": 100.5826114,
      "category": "restaurant",
      "profile": {
        "outdoorness": 0.2,
        "indoorness": 0.8,
        "shade": 0.1,
        "covered": 0.85,
        "rainEnjoyment": 0.55,
        "heatTolerance": 0.8,
        "confidence": 0.55
      },
      "openingHoursRaw": null,
      "tags": {
        "cuisine": "sushi"
      }
    },
    {
      "id": "osm-5614482723",
      "osmId": 5614482723,
      "name": "Angoon's Garden",
      "nameTh": null,
      "lat": 13.7272998,
      "lng": 100.580341,
      "category": "park",
      "profile": {
        "outdoorness": 0.95,
        "indoorness": 0.05,
        "shade": 0.4,
        "covered": 0.05,
        "rainEnjoyment": 0.05,
        "heatTolerance": 0.3,
        "confidence": 0.6
      },
      "openingHoursRaw": null,
      "tags": {}
    },
    {
      "id": "osm-5813888416",
      "osmId": 5813888416,
      "name": "Thuyen",
      "nameTh": null,
      "lat": 13.7315972,
      "lng": 100.59442,
      "category": "restaurant",
      "profile": {
        "outdoorness": 0.2,
        "indoorness": 0.8,
        "shade": 0.1,
        "covered": 0.85,
        "rainEnjoyment": 0.55,
        "heatTolerance": 0.8,
        "confidence": 0.55
      },
      "openingHoursRaw": null,
      "tags": {
        "cuisine": "vietnamese"
      }
    },
    {
      "id": "osm-5981001286",
      "osmId": 5981001286,
      "name": "Sit and Wonder",
      "nameTh": null,
      "lat": 13.7252751,
      "lng": 100.5800989,
      "category": "restaurant",
      "profile": {
        "outdoorness": 0.2,
        "indoorness": 0.8,
        "shade": 0.1,
        "covered": 0.85,
        "rainEnjoyment": 0.55,
        "heatTolerance": 0.8,
        "confidence": 0.55
      },
      "openingHoursRaw": null,
      "tags": {
        "cuisine": "thai"
      }
    },
    {
      "id": "osm-6174407285",
      "osmId": 6174407285,
      "name": "คาเฟ่ อเมซอน",
      "nameTh": "คาเฟ่ อเมซอน",
      "lat": 13.7196844,
      "lng": 100.5852484,
      "category": "cafe",
      "profile": {
        "outdoorness": 0.15,
        "indoorness": 0.85,
        "shade": 0.1,
        "covered": 0.9,
        "rainEnjoyment": 0.75,
        "heatTolerance": 0.85,
        "confidence": 0.6
      },
      "openingHoursRaw": null,
      "tags": {
        "cuisine": "coffee_shop"
      }
    },
    {
      "id": "osm-6434359688",
      "osmId": 6434359688,
      "name": "Ekkamai Macchiato",
      "nameTh": null,
      "lat": 13.7305581,
      "lng": 100.5869749,
      "category": "restaurant",
      "profile": {
        "outdoorness": 0.2,
        "indoorness": 0.8,
        "shade": 0.1,
        "covered": 0.85,
        "rainEnjoyment": 0.55,
        "heatTolerance": 0.8,
        "confidence": 0.55
      },
      "openingHoursRaw": "We-Mo 08:00-18:00",
      "tags": {}
    },
    {
      "id": "osm-6557666698",
      "osmId": 6557666698,
      "name": "SulBkk",
      "nameTh": null,
      "lat": 13.7323643,
      "lng": 100.5828475,
      "category": "restaurant",
      "profile": {
        "outdoorness": 0.2,
        "indoorness": 0.8,
        "shade": 0.1,
        "covered": 0.85,
        "rainEnjoyment": 0.55,
        "heatTolerance": 0.8,
        "confidence": 0.55
      },
      "openingHoursRaw": "17:00-01:00",
      "tags": {
        "cuisine": "korean;cocktails;barbecue"
      }
    },
    {
      "id": "osm-6810774643",
      "osmId": 6810774643,
      "name": "คาัวกลมกล่อม​ เอกมัย",
      "nameTh": null,
      "lat": 13.7225521,
      "lng": 100.5846235,
      "category": "restaurant",
      "profile": {
        "outdoorness": 0.2,
        "indoorness": 0.8,
        "shade": 0.1,
        "covered": 0.85,
        "rainEnjoyment": 0.55,
        "heatTolerance": 0.8,
        "confidence": 0.55
      },
      "openingHoursRaw": null,
      "tags": {}
    },
    {
      "id": "osm-6816974886",
      "osmId": 6816974886,
      "name": "Crazy About Coffee",
      "nameTh": null,
      "lat": 13.7202393,
      "lng": 100.5840062,
      "category": "cafe",
      "profile": {
        "outdoorness": 0.15,
        "indoorness": 0.85,
        "shade": 0.1,
        "covered": 0.9,
        "rainEnjoyment": 0.75,
        "heatTolerance": 0.85,
        "confidence": 0.6
      },
      "openingHoursRaw": null,
      "tags": {
        "cuisine": "breakfast;coffee_shop;cake;tea"
      }
    },
    {
      "id": "osm-7084065788",
      "osmId": 7084065788,
      "name": "ครัวเจียงใหม่",
      "nameTh": "ครัวเจียงใหม่",
      "lat": 13.7302219,
      "lng": 100.5811665,
      "category": "restaurant",
      "profile": {
        "outdoorness": 0.2,
        "indoorness": 0.8,
        "shade": 0.1,
        "covered": 0.85,
        "rainEnjoyment": 0.55,
        "heatTolerance": 0.8,
        "confidence": 0.55
      },
      "openingHoursRaw": "Mo-Su 10:00-02:00",
      "tags": {
        "cuisine": "thai"
      }
    },
    {
      "id": "osm-7226238609",
      "osmId": 7226238609,
      "name": "La Vela",
      "nameTh": null,
      "lat": 13.7197121,
      "lng": 100.5962208,
      "category": "restaurant",
      "profile": {
        "outdoorness": 0.2,
        "indoorness": 0.8,
        "shade": 0.1,
        "covered": 0.85,
        "rainEnjoyment": 0.55,
        "heatTolerance": 0.8,
        "confidence": 0.55
      },
      "openingHoursRaw": null,
      "tags": {
        "cuisine": "italian"
      }
    },
    {
      "id": "osm-7318758730",
      "osmId": 7318758730,
      "name": "SYNDICATE CLUB",
      "nameTh": null,
      "lat": 13.7315929,
      "lng": 100.5871948,
      "category": "bar",
      "profile": {
        "outdoorness": 0.3,
        "indoorness": 0.7,
        "shade": 0.2,
        "covered": 0.7,
        "rainEnjoyment": 0.55,
        "heatTolerance": 0.65,
        "confidence": 0.5
      },
      "openingHoursRaw": null,
      "tags": {}
    },
    {
      "id": "osm-7417163290",
      "osmId": 7417163290,
      "name": "Thay",
      "nameTh": null,
      "lat": 13.7318273,
      "lng": 100.5867595,
      "category": "bar",
      "profile": {
        "outdoorness": 0.3,
        "indoorness": 0.7,
        "shade": 0.2,
        "covered": 0.7,
        "rainEnjoyment": 0.55,
        "heatTolerance": 0.65,
        "confidence": 0.5
      },
      "openingHoursRaw": null,
      "tags": {}
    },
    {
      "id": "osm-7777224185",
      "osmId": 7777224185,
      "name": "SN Thai Bar and Kitchen",
      "nameTh": null,
      "lat": 13.7293725,
      "lng": 100.5866517,
      "category": "restaurant",
      "profile": {
        "outdoorness": 0.2,
        "indoorness": 0.8,
        "shade": 0.1,
        "covered": 0.85,
        "rainEnjoyment": 0.55,
        "heatTolerance": 0.8,
        "confidence": 0.55
      },
      "openingHoursRaw": null,
      "tags": {
        "cuisine": "thai"
      }
    },
    {
      "id": "osm-7850443758",
      "osmId": 7850443758,
      "name": "FOMO Bar",
      "nameTh": null,
      "lat": 13.7315935,
      "lng": 100.5870822,
      "category": "bar",
      "profile": {
        "outdoorness": 0.5,
        "indoorness": 0.7,
        "shade": 0.30000000000000004,
        "covered": 0.7,
        "rainEnjoyment": 0.55,
        "heatTolerance": 0.65,
        "confidence": 0.5
      },
      "openingHoursRaw": null,
      "tags": {
        "outdoor_seating": "yes"
      }
    },
    {
      "id": "osm-8164981286",
      "osmId": 8164981286,
      "name": "くろ田 Kuroda คูโรดะ",
      "nameTh": null,
      "lat": 13.7223023,
      "lng": 100.5842568,
      "category": "restaurant",
      "profile": {
        "outdoorness": 0.2,
        "indoorness": 0.8,
        "shade": 0.1,
        "covered": 0.85,
        "rainEnjoyment": 0.55,
        "heatTolerance": 0.8,
        "confidence": 0.55
      },
      "openingHoursRaw": "Mo-Su 10:00-22:00",
      "tags": {}
    },
    {
      "id": "osm-8285717840",
      "osmId": 8285717840,
      "name": "Patisserie Rosie",
      "nameTh": null,
      "lat": 13.7312017,
      "lng": 100.5852768,
      "category": "cafe",
      "profile": {
        "outdoorness": 0.15,
        "indoorness": 0.85,
        "shade": 0.1,
        "covered": 0.9,
        "rainEnjoyment": 0.75,
        "heatTolerance": 0.85,
        "confidence": 0.6
      },
      "openingHoursRaw": "Tu-Su 11:00-20:00",
      "tags": {}
    },
    {
      "id": "osm-8356447831",
      "osmId": 8356447831,
      "name": "ROCKMEN 69MEN",
      "nameTh": null,
      "lat": 13.7338796,
      "lng": 100.5801158,
      "category": "restaurant",
      "profile": {
        "outdoorness": 0.2,
        "indoorness": 0.8,
        "shade": 0.1,
        "covered": 0.85,
        "rainEnjoyment": 0.55,
        "heatTolerance": 0.8,
        "confidence": 0.55
      },
      "openingHoursRaw": null,
      "tags": {
        "cuisine": "japanese;ramen"
      }
    },
    {
      "id": "osm-8416437054",
      "osmId": 8416437054,
      "name": "The Missing Burro",
      "nameTh": null,
      "lat": 13.7305437,
      "lng": 100.580539,
      "category": "restaurant",
      "profile": {
        "outdoorness": 0.2,
        "indoorness": 0.8,
        "shade": 0.1,
        "covered": 0.85,
        "rainEnjoyment": 0.55,
        "heatTolerance": 0.8,
        "confidence": 0.55
      },
      "openingHoursRaw": null,
      "tags": {
        "cuisine": "mexican"
      }
    },
    {
      "id": "osm-8419405064",
      "osmId": 8419405064,
      "name": "Move on Ekkamai",
      "nameTh": null,
      "lat": 13.7196685,
      "lng": 100.5853364,
      "category": "bar",
      "profile": {
        "outdoorness": 0.3,
        "indoorness": 0.7,
        "shade": 0.2,
        "covered": 0.7,
        "rainEnjoyment": 0.55,
        "heatTolerance": 0.65,
        "confidence": 0.5
      },
      "openingHoursRaw": null,
      "tags": {}
    },
    {
      "id": "osm-8419435584",
      "osmId": 8419435584,
      "name": "Alexanders german eatery",
      "nameTh": null,
      "lat": 13.7299962,
      "lng": 100.5899829,
      "category": "restaurant",
      "profile": {
        "outdoorness": 0.2,
        "indoorness": 0.8,
        "shade": 0.1,
        "covered": 0.85,
        "rainEnjoyment": 0.55,
        "heatTolerance": 0.8,
        "confidence": 0.55
      },
      "openingHoursRaw": null,
      "tags": {}
    },
    {
      "id": "osm-9494520517",
      "osmId": 9494520517,
      "name": "Tichuca Rooftop Bar",
      "nameTh": null,
      "lat": 13.7220802,
      "lng": 100.5804417,
      "category": "bar",
      "profile": {
        "outdoorness": 0.3,
        "indoorness": 0.7,
        "shade": 0.2,
        "covered": 0.7,
        "rainEnjoyment": 0.55,
        "heatTolerance": 0.65,
        "confidence": 0.5
      },
      "openingHoursRaw": null,
      "tags": {}
    },
    {
      "id": "osm-9540152717",
      "osmId": 9540152717,
      "name": "Phed Mark",
      "nameTh": "เผ็ดมาร์ค",
      "lat": 13.7203029,
      "lng": 100.5838605,
      "category": "restaurant",
      "profile": {
        "outdoorness": 0.2,
        "indoorness": 0.8,
        "shade": 0.1,
        "covered": 0.85,
        "rainEnjoyment": 0.55,
        "heatTolerance": 0.8,
        "confidence": 0.55
      },
      "openingHoursRaw": "Mo-Th 10:00-19:00",
      "tags": {
        "cuisine": "thai"
      }
    },
    {
      "id": "osm-9932945097",
      "osmId": 9932945097,
      "name": "Lost Land",
      "nameTh": null,
      "lat": 13.7262045,
      "lng": 100.580129,
      "category": "bar",
      "profile": {
        "outdoorness": 0.3,
        "indoorness": 0.7,
        "shade": 0.2,
        "covered": 0.7,
        "rainEnjoyment": 0.55,
        "heatTolerance": 0.65,
        "confidence": 0.5
      },
      "openingHoursRaw": null,
      "tags": {}
    },
    {
      "id": "osm-9948872305",
      "osmId": 9948872305,
      "name": "Gluck",
      "nameTh": null,
      "lat": 13.7293877,
      "lng": 100.5801436,
      "category": "restaurant",
      "profile": {
        "outdoorness": 0.2,
        "indoorness": 0.8,
        "shade": 0.1,
        "covered": 0.85,
        "rainEnjoyment": 0.55,
        "heatTolerance": 0.8,
        "confidence": 0.55
      },
      "openingHoursRaw": "Mo closed, Tu-Su 08:30-17:00",
      "tags": {
        "cuisine": "german"
      }
    },
    {
      "id": "osm-9948979163",
      "osmId": 9948979163,
      "name": "Ainu",
      "nameTh": null,
      "lat": 13.7298035,
      "lng": 100.5811107,
      "category": "restaurant",
      "profile": {
        "outdoorness": 0.2,
        "indoorness": 0.8,
        "shade": 0.1,
        "covered": 0.85,
        "rainEnjoyment": 0.55,
        "heatTolerance": 0.8,
        "confidence": 0.55
      },
      "openingHoursRaw": null,
      "tags": {}
    },
    {
      "id": "osm-10110826644",
      "osmId": 10110826644,
      "name": "Counting Sheep",
      "nameTh": null,
      "lat": 13.7239982,
      "lng": 100.5833669,
      "category": "restaurant",
      "profile": {
        "outdoorness": 0.2,
        "indoorness": 0.8,
        "shade": 0.1,
        "covered": 0.85,
        "rainEnjoyment": 0.55,
        "heatTolerance": 0.8,
        "confidence": 0.55
      },
      "openingHoursRaw": null,
      "tags": {}
    },
    {
      "id": "osm-10146562392",
      "osmId": 10146562392,
      "name": "โชคดีติ่มซำ สาขาเอกมัย",
      "nameTh": null,
      "lat": 13.7294135,
      "lng": 100.5865108,
      "category": "restaurant",
      "profile": {
        "outdoorness": 0.2,
        "indoorness": 0.8,
        "shade": 0.1,
        "covered": 0.85,
        "rainEnjoyment": 0.55,
        "heatTolerance": 0.8,
        "confidence": 0.55
      },
      "openingHoursRaw": "Mo-Su 08:00-22:00",
      "tags": {}
    },
    {
      "id": "osm-10279718737",
      "osmId": 10279718737,
      "name": "La Dotta",
      "nameTh": null,
      "lat": 13.731355,
      "lng": 100.5810618,
      "category": "restaurant",
      "profile": {
        "outdoorness": 0.2,
        "indoorness": 0.8,
        "shade": 0.1,
        "covered": 0.85,
        "rainEnjoyment": 0.55,
        "heatTolerance": 0.8,
        "confidence": 0.55
      },
      "openingHoursRaw": null,
      "tags": {
        "cuisine": "italian"
      }
    },
    {
      "id": "osm-10685298596",
      "osmId": 10685298596,
      "name": "City Boy Coffee Stand",
      "nameTh": null,
      "lat": 13.7280774,
      "lng": 100.5816229,
      "category": "cafe",
      "profile": {
        "outdoorness": 0.15,
        "indoorness": 0.85,
        "shade": 0.1,
        "covered": 0.9,
        "rainEnjoyment": 0.75,
        "heatTolerance": 0.85,
        "confidence": 0.6
      },
      "openingHoursRaw": null,
      "tags": {}
    },
    {
      "id": "osm-10685524661",
      "osmId": 10685524661,
      "name": "Kurasu Bangkok Stand",
      "nameTh": null,
      "lat": 13.7335349,
      "lng": 100.5822908,
      "category": "cafe",
      "profile": {
        "outdoorness": 0.15,
        "indoorness": 0.85,
        "shade": 0.1,
        "covered": 0.9,
        "rainEnjoyment": 0.75,
        "heatTolerance": 0.85,
        "confidence": 0.6
      },
      "openingHoursRaw": null,
      "tags": {}
    },
    {
      "id": "osm-10685524662",
      "osmId": 10685524662,
      "name": "Ampersand Gelato at Thonglor",
      "nameTh": null,
      "lat": 13.7334232,
      "lng": 100.5821409,
      "category": "cafe",
      "profile": {
        "outdoorness": 0.15,
        "indoorness": 0.85,
        "shade": 0.1,
        "covered": 0.9,
        "rainEnjoyment": 0.75,
        "heatTolerance": 0.85,
        "confidence": 0.6
      },
      "openingHoursRaw": null,
      "tags": {}
    },
    {
      "id": "osm-10794812096",
      "osmId": 10794812096,
      "name": "Moodaengs Ice Cream",
      "nameTh": null,
      "lat": 13.7284507,
      "lng": 100.581198,
      "category": "cafe",
      "profile": {
        "outdoorness": 0.15,
        "indoorness": 0.85,
        "shade": 0.1,
        "covered": 0.9,
        "rainEnjoyment": 0.75,
        "heatTolerance": 0.85,
        "confidence": 0.6
      },
      "openingHoursRaw": null,
      "tags": {}
    },
    {
      "id": "osm-10940832230",
      "osmId": 10940832230,
      "name": "Pizzarina",
      "nameTh": null,
      "lat": 13.7243224,
      "lng": 100.5962746,
      "category": "restaurant",
      "profile": {
        "outdoorness": 0.2,
        "indoorness": 0.8,
        "shade": 0.1,
        "covered": 0.85,
        "rainEnjoyment": 0.55,
        "heatTolerance": 0.9500000000000001,
        "confidence": 0.6000000000000001
      },
      "openingHoursRaw": null,
      "tags": {
        "cuisine": "pizza;steak"
      }
    },
    {
      "id": "osm-11158215748",
      "osmId": 11158215748,
      "name": "Nescafe Street Cafe",
      "nameTh": null,
      "lat": 13.7240975,
      "lng": 100.5802652,
      "category": "cafe",
      "profile": {
        "outdoorness": 0.15,
        "indoorness": 0.85,
        "shade": 0.1,
        "covered": 0.9,
        "rainEnjoyment": 0.75,
        "heatTolerance": 1,
        "confidence": 0.65
      },
      "openingHoursRaw": "Mo-Fr 07:00-16:00; Sa-Su 08:30-16:00",
      "tags": {
        "outdoor_seating": "no",
        "cuisine": "coffee_shop"
      }
    },
    {
      "id": "osm-11235394004",
      "osmId": 11235394004,
      "name": "Pakalolo Cannabis Bar & Dispensary - Thong Lor",
      "nameTh": null,
      "lat": 13.7337116,
      "lng": 100.5808919,
      "category": "bar",
      "profile": {
        "outdoorness": 0.3,
        "indoorness": 0.7,
        "shade": 0.2,
        "covered": 0.7,
        "rainEnjoyment": 0.55,
        "heatTolerance": 0.65,
        "confidence": 0.5
      },
      "openingHoursRaw": "Mo-Su 10:00-02:00",
      "tags": {}
    },
    {
      "id": "osm-11250481188",
      "osmId": 11250481188,
      "name": "SEENSPACE Thong Lor 13",
      "nameTh": null,
      "lat": 13.7333588,
      "lng": 100.581395,
      "category": "mall",
      "profile": {
        "outdoorness": 0.02,
        "indoorness": 0.98,
        "shade": 0,
        "covered": 1,
        "rainEnjoyment": 0.5,
        "heatTolerance": 0.95,
        "confidence": 0.7
      },
      "openingHoursRaw": null,
      "tags": {}
    },
    {
      "id": "osm-11360253340",
      "osmId": 11360253340,
      "name": "Phibun Wet Park",
      "nameTh": null,
      "lat": 13.7209431,
      "lng": 100.5947566,
      "category": "park",
      "profile": {
        "outdoorness": 0.95,
        "indoorness": 0.05,
        "shade": 0.4,
        "covered": 0.05,
        "rainEnjoyment": 0.05,
        "heatTolerance": 0.3,
        "confidence": 0.6
      },
      "openingHoursRaw": null,
      "tags": {}
    },
    {
      "id": "osm-11375260762",
      "osmId": 11375260762,
      "name": "Danzante Restaurante Mexicano",
      "nameTh": null,
      "lat": 13.7237515,
      "lng": 100.5836867,
      "category": "restaurant",
      "profile": {
        "outdoorness": 0.2,
        "indoorness": 0.8,
        "shade": 0.1,
        "covered": 0.85,
        "rainEnjoyment": 0.55,
        "heatTolerance": 0.8,
        "confidence": 0.55
      },
      "openingHoursRaw": "Tu-Su 16:30-23:00",
      "tags": {
        "cuisine": "mexican"
      }
    },
    {
      "id": "osm-11505713854",
      "osmId": 11505713854,
      "name": "WHITENOISE",
      "nameTh": null,
      "lat": 13.7334301,
      "lng": 100.5814596,
      "category": "bar",
      "profile": {
        "outdoorness": 0.3,
        "indoorness": 0.7,
        "shade": 0.2,
        "covered": 0.7,
        "rainEnjoyment": 0.55,
        "heatTolerance": 0.65,
        "confidence": 0.5
      },
      "openingHoursRaw": "We-Su 18:00-02:30",
      "tags": {}
    },
    {
      "id": "osm-11534733954",
      "osmId": 11534733954,
      "name": "Manarola Seafood & Wine",
      "nameTh": null,
      "lat": 13.7299021,
      "lng": 100.5950168,
      "category": "restaurant",
      "profile": {
        "outdoorness": 0.2,
        "indoorness": 0.8,
        "shade": 0.1,
        "covered": 0.85,
        "rainEnjoyment": 0.55,
        "heatTolerance": 0.8,
        "confidence": 0.55
      },
      "openingHoursRaw": null,
      "tags": {}
    },
    {
      "id": "osm-11737227997",
      "osmId": 11737227997,
      "name": "Le Space Café",
      "nameTh": null,
      "lat": 13.7244796,
      "lng": 100.5865591,
      "category": "cafe",
      "profile": {
        "outdoorness": 0.15,
        "indoorness": 0.85,
        "shade": 0.1,
        "covered": 0.9,
        "rainEnjoyment": 0.75,
        "heatTolerance": 0.85,
        "confidence": 0.6
      },
      "openingHoursRaw": "Mo, We-Su 09:00-18:00",
      "tags": {}
    },
    {
      "id": "osm-11743213951",
      "osmId": 11743213951,
      "name": "iki haus",
      "nameTh": null,
      "lat": 13.7235513,
      "lng": 100.5956966,
      "category": "cafe",
      "profile": {
        "outdoorness": 0.35,
        "indoorness": 0.85,
        "shade": 0.2,
        "covered": 0.9,
        "rainEnjoyment": 0.75,
        "heatTolerance": 0.85,
        "confidence": 0.6
      },
      "openingHoursRaw": null,
      "tags": {
        "outdoor_seating": "yes"
      }
    },
    {
      "id": "osm-11953617969",
      "osmId": 11953617969,
      "name": "ซาวเอกมัย",
      "nameTh": "ซาวเอกมัย",
      "lat": 13.7282035,
      "lng": 100.5925317,
      "category": "restaurant",
      "profile": {
        "outdoorness": 0.2,
        "indoorness": 0.8,
        "shade": 0.1,
        "covered": 0.85,
        "rainEnjoyment": 0.55,
        "heatTolerance": 0.8,
        "confidence": 0.55
      },
      "openingHoursRaw": null,
      "tags": {
        "cuisine": "thai"
      }
    },
    {
      "id": "osm-12171095782",
      "osmId": 12171095782,
      "name": "Bangkok Marriott Hotel Sukhumvit",
      "nameTh": null,
      "lat": 13.7232013,
      "lng": 100.5811895,
      "category": "restaurant",
      "profile": {
        "outdoorness": 0.2,
        "indoorness": 0.8,
        "shade": 0.1,
        "covered": 0.85,
        "rainEnjoyment": 0.55,
        "heatTolerance": 0.8,
        "confidence": 0.55
      },
      "openingHoursRaw": null,
      "tags": {}
    },
    {
      "id": "osm-12222035971",
      "osmId": 12222035971,
      "name": "Breakfast Story",
      "nameTh": null,
      "lat": 13.7294545,
      "lng": 100.5811743,
      "category": "restaurant",
      "profile": {
        "outdoorness": 0.2,
        "indoorness": 0.8,
        "shade": 0.1,
        "covered": 0.85,
        "rainEnjoyment": 0.55,
        "heatTolerance": 0.8,
        "confidence": 0.55
      },
      "openingHoursRaw": null,
      "tags": {
        "cuisine": "breakfast;american;canadian"
      }
    },
    {
      "id": "osm-12317637826",
      "osmId": 12317637826,
      "name": "Paper Plane Project",
      "nameTh": null,
      "lat": 13.7222582,
      "lng": 100.5804018,
      "category": "restaurant",
      "profile": {
        "outdoorness": 0.2,
        "indoorness": 0.8,
        "shade": 0.1,
        "covered": 0.85,
        "rainEnjoyment": 0.55,
        "heatTolerance": 0.8,
        "confidence": 0.55
      },
      "openingHoursRaw": "Mo-Su 09:00-00:00",
      "tags": {
        "cuisine": "coffee_shop;pizza"
      }
    },
    {
      "id": "osm-12317671197",
      "osmId": 12317671197,
      "name": "Art Ala carte",
      "nameTh": null,
      "lat": 13.71806,
      "lng": 100.5875133,
      "category": "restaurant",
      "profile": {
        "outdoorness": 0.2,
        "indoorness": 0.8,
        "shade": 0.1,
        "covered": 0.85,
        "rainEnjoyment": 0.55,
        "heatTolerance": 0.9500000000000001,
        "confidence": 0.6000000000000001
      },
      "openingHoursRaw": "Mo-Su 10:30-22:00",
      "tags": {
        "cuisine": "thai"
      }
    },
    {
      "id": "osm-12452647502",
      "osmId": 12452647502,
      "name": "Spicy by Nature",
      "nameTh": null,
      "lat": 13.7252331,
      "lng": 100.584845,
      "category": "restaurant",
      "profile": {
        "outdoorness": 0.2,
        "indoorness": 0.8,
        "shade": 0.1,
        "covered": 0.85,
        "rainEnjoyment": 0.55,
        "heatTolerance": 0.8,
        "confidence": 0.55
      },
      "openingHoursRaw": "Mo-Su 11:00-23:00",
      "tags": {
        "cuisine": "indian"
      }
    },
    {
      "id": "osm-12464143701",
      "osmId": 12464143701,
      "name": "CUM Specialty Coffee - The Office Thonglor",
      "nameTh": null,
      "lat": 13.7312178,
      "lng": 100.5843909,
      "category": "cafe",
      "profile": {
        "outdoorness": 0.15,
        "indoorness": 0.85,
        "shade": 0.1,
        "covered": 0.9,
        "rainEnjoyment": 0.75,
        "heatTolerance": 0.85,
        "confidence": 0.6
      },
      "openingHoursRaw": "Mo-Fr 08:30-18:30; Sa-Su 09:00-18:30",
      "tags": {}
    },
    {
      "id": "osm-12479874543",
      "osmId": 12479874543,
      "name": "หอมด่วน",
      "nameTh": "หอมด่วน",
      "lat": 13.7236592,
      "lng": 100.585077,
      "category": "restaurant",
      "profile": {
        "outdoorness": 0.2,
        "indoorness": 0.8,
        "shade": 0.1,
        "covered": 0.85,
        "rainEnjoyment": 0.55,
        "heatTolerance": 0.8,
        "confidence": 0.55
      },
      "openingHoursRaw": "Mo-Sa 9:00-20:00",
      "tags": {
        "cuisine": "thai;regional"
      }
    },
    {
      "id": "osm-12521909066",
      "osmId": 12521909066,
      "name": "Tanaka Suisan",
      "nameTh": null,
      "lat": 13.7236943,
      "lng": 100.5800509,
      "category": "restaurant",
      "profile": {
        "outdoorness": 0.2,
        "indoorness": 0.8,
        "shade": 0.1,
        "covered": 0.85,
        "rainEnjoyment": 0.55,
        "heatTolerance": 0.8,
        "confidence": 0.55
      },
      "openingHoursRaw": null,
      "tags": {
        "cuisine": "sushi"
      }
    },
    {
      "id": "osm-12587331845",
      "osmId": 12587331845,
      "name": "Disc and Sip",
      "nameTh": null,
      "lat": 13.7332503,
      "lng": 100.5815039,
      "category": "bar",
      "profile": {
        "outdoorness": 0.3,
        "indoorness": 0.7,
        "shade": 0.2,
        "covered": 0.7,
        "rainEnjoyment": 0.55,
        "heatTolerance": 0.65,
        "confidence": 0.5
      },
      "openingHoursRaw": "Mo-Su 07:00-22:00",
      "tags": {}
    },
    {
      "id": "osm-12771721901",
      "osmId": 12771721901,
      "name": "IRODORI Japanese Ramen Cafe",
      "nameTh": null,
      "lat": 13.7334805,
      "lng": 100.5801529,
      "category": "restaurant",
      "profile": {
        "outdoorness": 0.2,
        "indoorness": 0.8,
        "shade": 0.1,
        "covered": 0.85,
        "rainEnjoyment": 0.55,
        "heatTolerance": 0.8,
        "confidence": 0.55
      },
      "openingHoursRaw": "Th-Tu 11:30-21:00",
      "tags": {
        "cuisine": "japanese;ramen"
      }
    },
    {
      "id": "osm-12854850447",
      "osmId": 12854850447,
      "name": "Sushi Yorokobu BKK",
      "nameTh": null,
      "lat": 13.7324247,
      "lng": 100.5827205,
      "category": "restaurant",
      "profile": {
        "outdoorness": 0.2,
        "indoorness": 0.8,
        "shade": 0.1,
        "covered": 0.85,
        "rainEnjoyment": 0.55,
        "heatTolerance": 0.8,
        "confidence": 0.55
      },
      "openingHoursRaw": null,
      "tags": {
        "cuisine": "japanese"
      }
    },
    {
      "id": "osm-13144357401",
      "osmId": 13144357401,
      "name": "EKM6",
      "nameTh": null,
      "lat": 13.726087,
      "lng": 100.5870709,
      "category": "restaurant",
      "profile": {
        "outdoorness": 0.2,
        "indoorness": 0.8,
        "shade": 0.1,
        "covered": 0.85,
        "rainEnjoyment": 0.55,
        "heatTolerance": 0.8,
        "confidence": 0.55
      },
      "openingHoursRaw": "Mo-Su 08:00-20:00",
      "tags": {}
    },
    {
      "id": "osm-13144359501",
      "osmId": 13144359501,
      "name": "Kynd Kulture",
      "nameTh": null,
      "lat": 13.7262541,
      "lng": 100.5871745,
      "category": "restaurant",
      "profile": {
        "outdoorness": 0.2,
        "indoorness": 0.8,
        "shade": 0.1,
        "covered": 0.85,
        "rainEnjoyment": 0.55,
        "heatTolerance": 0.8,
        "confidence": 0.55
      },
      "openingHoursRaw": "Mo-Su 08:00-20:00",
      "tags": {}
    },
    {
      "id": "osm-13144359601",
      "osmId": 13144359601,
      "name": "Plant Passion",
      "nameTh": null,
      "lat": 13.7262407,
      "lng": 100.5870952,
      "category": "restaurant",
      "profile": {
        "outdoorness": 0.2,
        "indoorness": 0.8,
        "shade": 0.1,
        "covered": 0.85,
        "rainEnjoyment": 0.55,
        "heatTolerance": 0.8,
        "confidence": 0.55
      },
      "openingHoursRaw": "Mo-Su 08:00-20:00",
      "tags": {}
    },
    {
      "id": "osm-13155168001",
      "osmId": 13155168001,
      "name": "Burger Dads",
      "nameTh": null,
      "lat": 13.7303778,
      "lng": 100.5864027,
      "category": "restaurant",
      "profile": {
        "outdoorness": 0.4,
        "indoorness": 0.8,
        "shade": 0.2,
        "covered": 0.85,
        "rainEnjoyment": 0.55,
        "heatTolerance": 0.8,
        "confidence": 0.55
      },
      "openingHoursRaw": "Mo-Su 11:30-22:00",
      "tags": {
        "outdoor_seating": "yes",
        "cuisine": "burger;steak_house"
      }
    },
    {
      "id": "osm-13167026301",
      "osmId": 13167026301,
      "name": "Wang Mian",
      "nameTh": null,
      "lat": 13.7171644,
      "lng": 100.5956778,
      "category": "restaurant",
      "profile": {
        "outdoorness": 0.2,
        "indoorness": 0.8,
        "shade": 0.1,
        "covered": 0.85,
        "rainEnjoyment": 0.55,
        "heatTolerance": 0.8,
        "confidence": 0.55
      },
      "openingHoursRaw": null,
      "tags": {
        "cuisine": "oriental"
      }
    },
    {
      "id": "osm-13188044801",
      "osmId": 13188044801,
      "name": "RW Coffee and Wine",
      "nameTh": null,
      "lat": 13.7314418,
      "lng": 100.5869429,
      "category": "cafe",
      "profile": {
        "outdoorness": 0.15,
        "indoorness": 0.85,
        "shade": 0.1,
        "covered": 0.9,
        "rainEnjoyment": 0.75,
        "heatTolerance": 0.85,
        "confidence": 0.6
      },
      "openingHoursRaw": "Su, Tu-Th 08:00-17:00; Fr-Sa 08:00-21:00",
      "tags": {}
    },
    {
      "id": "osm-13188044901",
      "osmId": 13188044901,
      "name": "Mustardish Coffee",
      "nameTh": null,
      "lat": 13.7312613,
      "lng": 100.5875915,
      "category": "cafe",
      "profile": {
        "outdoorness": 0.15,
        "indoorness": 0.85,
        "shade": 0.1,
        "covered": 0.9,
        "rainEnjoyment": 0.75,
        "heatTolerance": 0.85,
        "confidence": 0.6
      },
      "openingHoursRaw": "Mo-Fr 07:30-17:00; Sa 09:00-17:00",
      "tags": {}
    },
    {
      "id": "osm-13188045001",
      "osmId": 13188045001,
      "name": "Rolling Roasters",
      "nameTh": null,
      "lat": 13.7215949,
      "lng": 100.5844007,
      "category": "cafe",
      "profile": {
        "outdoorness": 0.15,
        "indoorness": 0.85,
        "shade": 0.1,
        "covered": 0.9,
        "rainEnjoyment": 0.75,
        "heatTolerance": 0.85,
        "confidence": 0.6
      },
      "openingHoursRaw": "Mo-Su 07:00-17:30",
      "tags": {
        "cuisine": "breakfast;cake;coffee_shop;international"
      }
    },
    {
      "id": "osm-13344510601",
      "osmId": 13344510601,
      "name": "Dry Wave Cocktail Studio",
      "nameTh": null,
      "lat": 13.7337062,
      "lng": 100.580674,
      "category": "bar",
      "profile": {
        "outdoorness": 0.3,
        "indoorness": 0.7,
        "shade": 0.2,
        "covered": 0.7,
        "rainEnjoyment": 0.55,
        "heatTolerance": 0.65,
        "confidence": 0.5
      },
      "openingHoursRaw": null,
      "tags": {}
    },
    {
      "id": "osm-13345640702",
      "osmId": 13345640702,
      "name": "A Ramen",
      "nameTh": null,
      "lat": 13.7285154,
      "lng": 100.5810084,
      "category": "restaurant",
      "profile": {
        "outdoorness": 0.2,
        "indoorness": 0.8,
        "shade": 0.1,
        "covered": 0.85,
        "rainEnjoyment": 0.55,
        "heatTolerance": 0.8,
        "confidence": 0.55
      },
      "openingHoursRaw": null,
      "tags": {}
    },
    {
      "id": "osm-13354722302",
      "osmId": 13354722302,
      "name": "BCA Specialty Cofee",
      "nameTh": null,
      "lat": 13.7317541,
      "lng": 100.5940556,
      "category": "cafe",
      "profile": {
        "outdoorness": 0.35,
        "indoorness": 0.85,
        "shade": 0.2,
        "covered": 0.9,
        "rainEnjoyment": 0.75,
        "heatTolerance": 0.85,
        "confidence": 0.6
      },
      "openingHoursRaw": "Mo-Su 09:00-18:00",
      "tags": {
        "outdoor_seating": "yes",
        "cuisine": "coffee_shop"
      }
    },
    {
      "id": "osm-13360925301",
      "osmId": 13360925301,
      "name": "Egeiro",
      "nameTh": null,
      "lat": 13.718308,
      "lng": 100.5847587,
      "category": "cafe",
      "profile": {
        "outdoorness": 0.15,
        "indoorness": 0.85,
        "shade": 0.1,
        "covered": 0.9,
        "rainEnjoyment": 0.75,
        "heatTolerance": 0.85,
        "confidence": 0.6
      },
      "openingHoursRaw": "Tu-Sa 07:30-15:30",
      "tags": {
        "outdoor_seating": "no",
        "cuisine": "coffee_shop"
      }
    },
    {
      "id": "osm-13388811959",
      "osmId": 13388811959,
      "name": "Rooftop Bar by Bang Flora",
      "nameTh": "รูฟท็อป บาร์ บาย บาง ฟลอร่า",
      "lat": 13.7312316,
      "lng": 100.5852755,
      "category": "bar",
      "profile": {
        "outdoorness": 0.3,
        "indoorness": 0.7,
        "shade": 0.2,
        "covered": 0.7,
        "rainEnjoyment": 0.55,
        "heatTolerance": 0.65,
        "confidence": 0.5
      },
      "openingHoursRaw": null,
      "tags": {}
    }
  ]
}