{
  "district": "silom",
  "districtTh": "สีลม",
  "bbox": [
    13.72,
    100.52,
    13.735,
    100.545
  ],
  "fetchedAt": "2026-05-31T06:37:55.416Z",
  "count": 146,
  "pois": [
    {
      "id": "osm-311069785",
      "osmId": 311069785,
      "name": "Zen",
      "nameTh": null,
      "lat": 13.7281063,
      "lng": 100.5331414,
      "category": "restaurant",
      "profile": {
        "outdoorness": 0.2,
        "indoorness": 0.8,
        "shade": 0.1,
        "covered": 0.85,
        "rainEnjoyment": 0.55,
        "heatTolerance": 0.8,
        "confidence": 0.55
      },
      "openingHoursRaw": null,
      "tags": {
        "cuisine": "japanese"
      }
    },
    {
      "id": "osm-311073584",
      "osmId": 311073584,
      "name": "Molly Malone's",
      "nameTh": null,
      "lat": 13.7274447,
      "lng": 100.5334988,
      "category": "bar",
      "profile": {
        "outdoorness": 0.3,
        "indoorness": 0.7,
        "shade": 0.2,
        "covered": 0.7,
        "rainEnjoyment": 0.55,
        "heatTolerance": 0.65,
        "confidence": 0.5
      },
      "openingHoursRaw": null,
      "tags": {}
    },
    {
      "id": "osm-311073587",
      "osmId": 311073587,
      "name": "Pola Pola",
      "nameTh": null,
      "lat": 13.7272399,
      "lng": 100.5335418,
      "category": "cafe",
      "profile": {
        "outdoorness": 0.15,
        "indoorness": 0.85,
        "shade": 0.1,
        "covered": 0.9,
        "rainEnjoyment": 0.75,
        "heatTolerance": 0.85,
        "confidence": 0.6
      },
      "openingHoursRaw": null,
      "tags": {}
    },
    {
      "id": "osm-311073637",
      "osmId": 311073637,
      "name": "Cafe Bangrak",
      "nameTh": null,
      "lat": 13.7289158,
      "lng": 100.5355833,
      "category": "cafe",
      "profile": {
        "outdoorness": 0.15,
        "indoorness": 0.85,
        "shade": 0.1,
        "covered": 0.9,
        "rainEnjoyment": 0.75,
        "heatTolerance": 0.85,
        "confidence": 0.6
      },
      "openingHoursRaw": null,
      "tags": {}
    },
    {
      "id": "osm-311073649",
      "osmId": 311073649,
      "name": "Mimy's",
      "nameTh": null,
      "lat": 13.7272956,
      "lng": 100.5364037,
      "category": "cafe",
      "profile": {
        "outdoorness": 0.15,
        "indoorness": 0.85,
        "shade": 0.1,
        "covered": 0.9,
        "rainEnjoyment": 0.75,
        "heatTolerance": 0.85,
        "confidence": 0.6
      },
      "openingHoursRaw": null,
      "tags": {}
    },
    {
      "id": "osm-311073660",
      "osmId": 311073660,
      "name": "Zanotti",
      "nameTh": null,
      "lat": 13.7268964,
      "lng": 100.5367763,
      "category": "restaurant",
      "profile": {
        "outdoorness": 0.2,
        "indoorness": 0.8,
        "shade": 0.1,
        "covered": 0.85,
        "rainEnjoyment": 0.55,
        "heatTolerance": 0.8,
        "confidence": 0.55
      },
      "openingHoursRaw": null,
      "tags": {
        "cuisine": "italian"
      }
    },
    {
      "id": "osm-311073664",
      "osmId": 311073664,
      "name": "Cafe Turin",
      "nameTh": null,
      "lat": 13.7269174,
      "lng": 100.5370033,
      "category": "cafe",
      "profile": {
        "outdoorness": 0.15,
        "indoorness": 0.85,
        "shade": 0.1,
        "covered": 0.9,
        "rainEnjoyment": 0.75,
        "heatTolerance": 0.85,
        "confidence": 0.6
      },
      "openingHoursRaw": null,
      "tags": {}
    },
    {
      "id": "osm-311074994",
      "osmId": 311074994,
      "name": "The Front Page",
      "nameTh": null,
      "lat": 13.7269776,
      "lng": 100.5416951,
      "category": "restaurant",
      "profile": {
        "outdoorness": 0.2,
        "indoorness": 0.8,
        "shade": 0.1,
        "covered": 0.85,
        "rainEnjoyment": 0.55,
        "heatTolerance": 0.8,
        "confidence": 0.55
      },
      "openingHoursRaw": null,
      "tags": {}
    },
    {
      "id": "osm-311076831",
      "osmId": 311076831,
      "name": "Cafe D'Oro",
      "nameTh": null,
      "lat": 13.7253756,
      "lng": 100.537783,
      "category": "cafe",
      "profile": {
        "outdoorness": 0.15,
        "indoorness": 0.85,
        "shade": 0.1,
        "covered": 0.9,
        "rainEnjoyment": 0.75,
        "heatTolerance": 0.85,
        "confidence": 0.6
      },
      "openingHoursRaw": null,
      "tags": {}
    },
    {
      "id": "osm-415930638",
      "osmId": 415930638,
      "name": "กัลปพฤกษ์",
      "nameTh": "กัลปพฤกษ์",
      "lat": 13.7226497,
      "lng": 100.5220688,
      "category": "restaurant",
      "profile": {
        "outdoorness": 0.2,
        "indoorness": 0.8,
        "shade": 0.1,
        "covered": 0.85,
        "rainEnjoyment": 0.55,
        "heatTolerance": 0.8,
        "confidence": 0.55
      },
      "openingHoursRaw": null,
      "tags": {}
    },
    {
      "id": "osm-444402407",
      "osmId": 444402407,
      "name": "มิซาโตะ",
      "nameTh": null,
      "lat": 13.7300628,
      "lng": 100.5340962,
      "category": "restaurant",
      "profile": {
        "outdoorness": 0.2,
        "indoorness": 0.8,
        "shade": 0.1,
        "covered": 0.85,
        "rainEnjoyment": 0.55,
        "heatTolerance": 0.8,
        "confidence": 0.55
      },
      "openingHoursRaw": null,
      "tags": {}
    },
    {
      "id": "osm-478536604",
      "osmId": 478536604,
      "name": "Hu'u Bar",
      "nameTh": null,
      "lat": 13.720795,
      "lng": 100.5280414,
      "category": "bar",
      "profile": {
        "outdoorness": 0.3,
        "indoorness": 0.7,
        "shade": 0.2,
        "covered": 0.7,
        "rainEnjoyment": 0.55,
        "heatTolerance": 0.65,
        "confidence": 0.5
      },
      "openingHoursRaw": null,
      "tags": {}
    },
    {
      "id": "osm-1418211571",
      "osmId": 1418211571,
      "name": "Thai & Myanmar Foods",
      "nameTh": null,
      "lat": 13.7225553,
      "lng": 100.523745,
      "category": "restaurant",
      "profile": {
        "outdoorness": 0.2,
        "indoorness": 0.8,
        "shade": 0.1,
        "covered": 0.85,
        "rainEnjoyment": 0.55,
        "heatTolerance": 0.8,
        "confidence": 0.55
      },
      "openingHoursRaw": null,
      "tags": {}
    },
    {
      "id": "osm-1418211602",
      "osmId": 1418211602,
      "name": "บ้านส้มตำ",
      "nameTh": "บ้านส้มตำ",
      "lat": 13.7205292,
      "lng": 100.5204597,
      "category": "restaurant",
      "profile": {
        "outdoorness": 0.2,
        "indoorness": 0.8,
        "shade": 0.1,
        "covered": 0.85,
        "rainEnjoyment": 0.55,
        "heatTolerance": 0.8,
        "confidence": 0.55
      },
      "openingHoursRaw": null,
      "tags": {
        "cuisine": "thai"
      }
    },
    {
      "id": "osm-1639149614",
      "osmId": 1639149614,
      "name": "Vertigo",
      "nameTh": null,
      "lat": 13.7234481,
      "lng": 100.5396902,
      "category": "restaurant",
      "profile": {
        "outdoorness": 0.2,
        "indoorness": 0.8,
        "shade": 0.1,
        "covered": 0.85,
        "rainEnjoyment": 0.55,
        "heatTolerance": 0.8,
        "confidence": 0.55
      },
      "openingHoursRaw": "PH,Mo-Su 18:00-22:30",
      "tags": {}
    },
    {
      "id": "osm-1678653018",
      "osmId": 1678653018,
      "name": "Sunrise Tacos Mexican Grill 24 hours",
      "nameTh": null,
      "lat": 13.7283505,
      "lng": 100.5328854,
      "category": "bar",
      "profile": {
        "outdoorness": 0.3,
        "indoorness": 0.7,
        "shade": 0.2,
        "covered": 0.7,
        "rainEnjoyment": 0.55,
        "heatTolerance": 0.65,
        "confidence": 0.5
      },
      "openingHoursRaw": null,
      "tags": {}
    },
    {
      "id": "osm-1688122560",
      "osmId": 1688122560,
      "name": "ราเม็งเทอิ",
      "nameTh": "ราเม็งเทอิ",
      "lat": 13.7287791,
      "lng": 100.5301493,
      "category": "restaurant",
      "profile": {
        "outdoorness": 0.2,
        "indoorness": 0.8,
        "shade": 0.1,
        "covered": 0.85,
        "rainEnjoyment": 0.55,
        "heatTolerance": 0.8,
        "confidence": 0.55
      },
      "openingHoursRaw": null,
      "tags": {
        "cuisine": "japanese"
      }
    },
    {
      "id": "osm-1700177304",
      "osmId": 1700177304,
      "name": "ศูนย์อาหารอาคารอปร.",
      "nameTh": null,
      "lat": 13.7330986,
      "lng": 100.5376872,
      "category": "restaurant",
      "profile": {
        "outdoorness": 0.2,
        "indoorness": 0.8,
        "shade": 0.1,
        "covered": 0.85,
        "rainEnjoyment": 0.55,
        "heatTolerance": 0.8,
        "confidence": 0.55
      },
      "openingHoursRaw": null,
      "tags": {
        "outdoor_seating": "no"
      }
    },
    {
      "id": "osm-1757029803",
      "osmId": 1757029803,
      "name": "The Reading Room",
      "nameTh": null,
      "lat": 13.7232384,
      "lng": 100.52045,
      "category": "library",
      "profile": {
        "outdoorness": 0.02,
        "indoorness": 0.98,
        "shade": 0,
        "covered": 1,
        "rainEnjoyment": 0.7,
        "heatTolerance": 0.9,
        "confidence": 0.75
      },
      "openingHoursRaw": null,
      "tags": {}
    },
    {
      "id": "osm-1761846511",
      "osmId": 1761846511,
      "name": "DK Bakery",
      "nameTh": null,
      "lat": 13.7244922,
      "lng": 100.5233357,
      "category": "cafe",
      "profile": {
        "outdoorness": 0.15,
        "indoorness": 0.85,
        "shade": 0.1,
        "covered": 0.9,
        "rainEnjoyment": 0.75,
        "heatTolerance": 0.85,
        "confidence": 0.6
      },
      "openingHoursRaw": null,
      "tags": {}
    },
    {
      "id": "osm-1798905429",
      "osmId": 1798905429,
      "name": "ศูนย์หนังสือจุฬา",
      "nameTh": "ศูนย์หนังสือจุฬา",
      "lat": 13.732894,
      "lng": 100.5302405,
      "category": "library",
      "profile": {
        "outdoorness": 0.02,
        "indoorness": 0.98,
        "shade": 0,
        "covered": 1,
        "rainEnjoyment": 0.7,
        "heatTolerance": 0.9,
        "confidence": 0.75
      },
      "openingHoursRaw": null,
      "tags": {}
    },
    {
      "id": "osm-1932277369",
      "osmId": 1932277369,
      "name": "คัตสึชิน",
      "nameTh": "คัตสึชิน",
      "lat": 13.7290409,
      "lng": 100.5300445,
      "category": "restaurant",
      "profile": {
        "outdoorness": 0.2,
        "indoorness": 0.8,
        "shade": 0.1,
        "covered": 0.85,
        "rainEnjoyment": 0.55,
        "heatTolerance": 0.8,
        "confidence": 0.55
      },
      "openingHoursRaw": "Mo-Su 11:00-14:00; 17:00-22:00",
      "tags": {
        "cuisine": "japanese"
      }
    },
    {
      "id": "osm-1932277886",
      "osmId": 1932277886,
      "name": "ไดมาสุ",
      "nameTh": "ไดมาสุ",
      "lat": 13.7289921,
      "lng": 100.5300588,
      "category": "restaurant",
      "profile": {
        "outdoorness": 0.2,
        "indoorness": 0.8,
        "shade": 0.1,
        "covered": 0.85,
        "rainEnjoyment": 0.55,
        "heatTolerance": 0.8,
        "confidence": 0.55
      },
      "openingHoursRaw": null,
      "tags": {
        "cuisine": "japanese"
      }
    },
    {
      "id": "osm-1932278998",
      "osmId": 1932278998,
      "name": "มอกโกริ ราเม็ง",
      "nameTh": "มอกโกริ ราเม็ง",
      "lat": 13.728159,
      "lng": 100.5289981,
      "category": "restaurant",
      "profile": {
        "outdoorness": 0.2,
        "indoorness": 0.8,
        "shade": 0.1,
        "covered": 0.85,
        "rainEnjoyment": 0.55,
        "heatTolerance": 0.8,
        "confidence": 0.55
      },
      "openingHoursRaw": null,
      "tags": {
        "cuisine": "japanese"
      }
    },
    {
      "id": "osm-1932279682",
      "osmId": 1932279682,
      "name": "Woodball",
      "nameTh": null,
      "lat": 13.7279272,
      "lng": 100.5304878,
      "category": "bar",
      "profile": {
        "outdoorness": 0.3,
        "indoorness": 0.7,
        "shade": 0.2,
        "covered": 0.7,
        "rainEnjoyment": 0.55,
        "heatTolerance": 0.65,
        "confidence": 0.5
      },
      "openingHoursRaw": null,
      "tags": {}
    },
    {
      "id": "osm-2084089587",
      "osmId": 2084089587,
      "name": "Fuji",
      "nameTh": null,
      "lat": 13.728448,
      "lng": 100.5347336,
      "category": "restaurant",
      "profile": {
        "outdoorness": 0.2,
        "indoorness": 0.8,
        "shade": 0.1,
        "covered": 0.85,
        "rainEnjoyment": 0.55,
        "heatTolerance": 0.8,
        "confidence": 0.55
      },
      "openingHoursRaw": null,
      "tags": {
        "cuisine": "japanese"
      }
    },
    {
      "id": "osm-2103963329",
      "osmId": 2103963329,
      "name": "Brasserie 9",
      "nameTh": null,
      "lat": 13.7243475,
      "lng": 100.5330786,
      "category": "restaurant",
      "profile": {
        "outdoorness": 0.2,
        "indoorness": 0.8,
        "shade": 0.1,
        "covered": 0.85,
        "rainEnjoyment": 0.55,
        "heatTolerance": 0.8,
        "confidence": 0.55
      },
      "openingHoursRaw": "17:00-01:00",
      "tags": {
        "cuisine": "french"
      }
    },
    {
      "id": "osm-2108520181",
      "osmId": 2108520181,
      "name": "Central Silom Complex",
      "nameTh": "เซ็นทรัล สีลม คอมเพล็กซ์",
      "lat": 13.7280144,
      "lng": 100.5352007,
      "category": "mall",
      "profile": {
        "outdoorness": 0.02,
        "indoorness": 0.98,
        "shade": 0,
        "covered": 1,
        "rainEnjoyment": 0.5,
        "heatTolerance": 0.95,
        "confidence": 0.7
      },
      "openingHoursRaw": null,
      "tags": {}
    },
    {
      "id": "osm-2156104165",
      "osmId": 2156104165,
      "name": "ตลาดกลางคืนพัฒน์พงษ์",
      "nameTh": "ตลาดกลางคืนพัฒน์พงษ์",
      "lat": 13.7286838,
      "lng": 100.5318283,
      "category": "market",
      "profile": {
        "outdoorness": 0.45,
        "indoorness": 0.55,
        "shade": 0.6,
        "covered": 0.65,
        "rainEnjoyment": 0.35,
        "heatTolerance": 0.45,
        "confidence": 0.5
      },
      "openingHoursRaw": "Mo-Su 18:00-00:00",
      "tags": {}
    },
    {
      "id": "osm-2248397413",
      "osmId": 2248397413,
      "name": "Water Library",
      "nameTh": null,
      "lat": 13.732929,
      "lng": 100.5304722,
      "category": "restaurant",
      "profile": {
        "outdoorness": 0.2,
        "indoorness": 0.8,
        "shade": 0.1,
        "covered": 0.85,
        "rainEnjoyment": 0.55,
        "heatTolerance": 0.8,
        "confidence": 0.55
      },
      "openingHoursRaw": null,
      "tags": {
        "cuisine": "international"
      }
    },
    {
      "id": "osm-2397987931",
      "osmId": 2397987931,
      "name": "Kathmandu Photo Gallery",
      "nameTh": null,
      "lat": 13.7239301,
      "lng": 100.5232949,
      "category": "gallery",
      "profile": {
        "outdoorness": 0.1,
        "indoorness": 0.9,
        "shade": 0.05,
        "covered": 0.95,
        "rainEnjoyment": 0.65,
        "heatTolerance": 0.85,
        "confidence": 0.65
      },
      "openingHoursRaw": "Tu-Su 11:00-18:00",
      "tags": {}
    },
    {
      "id": "osm-2398070810",
      "osmId": 2398070810,
      "name": "Eat Me Restaurant",
      "nameTh": null,
      "lat": 13.7254794,
      "lng": 100.5338981,
      "category": "restaurant",
      "profile": {
        "outdoorness": 0.2,
        "indoorness": 0.8,
        "shade": 0.1,
        "covered": 0.85,
        "rainEnjoyment": 0.55,
        "heatTolerance": 0.8,
        "confidence": 0.55
      },
      "openingHoursRaw": "Mo-Su 15:00-01:00",
      "tags": {
        "cuisine": "international"
      }
    },
    {
      "id": "osm-2398070813",
      "osmId": 2398070813,
      "name": "O'Reilly's Irish Pub (soon to be Hooters, they're hiring)",
      "nameTh": null,
      "lat": 13.7286035,
      "lng": 100.5340639,
      "category": "bar",
      "profile": {
        "outdoorness": 0.3,
        "indoorness": 0.7,
        "shade": 0.2,
        "covered": 0.7,
        "rainEnjoyment": 0.55,
        "heatTolerance": 0.65,
        "confidence": 0.5
      },
      "openingHoursRaw": null,
      "tags": {}
    },
    {
      "id": "osm-2398070814",
      "osmId": 2398070814,
      "name": "Souvlaki",
      "nameTh": null,
      "lat": 13.7285382,
      "lng": 100.5328061,
      "category": "restaurant",
      "profile": {
        "outdoorness": 0.2,
        "indoorness": 0.8,
        "shade": 0.1,
        "covered": 0.85,
        "rainEnjoyment": 0.55,
        "heatTolerance": 0.8,
        "confidence": 0.55
      },
      "openingHoursRaw": null,
      "tags": {
        "cuisine": "greek"
      }
    },
    {
      "id": "osm-2398070815",
      "osmId": 2398070815,
      "name": "Spanish on 4",
      "nameTh": null,
      "lat": 13.7285786,
      "lng": 100.5328785,
      "category": "restaurant",
      "profile": {
        "outdoorness": 0.2,
        "indoorness": 0.8,
        "shade": 0.1,
        "covered": 0.85,
        "rainEnjoyment": 0.55,
        "heatTolerance": 0.8,
        "confidence": 0.55
      },
      "openingHoursRaw": null,
      "tags": {
        "cuisine": "spanish"
      }
    },
    {
      "id": "osm-2398070816",
      "osmId": 2398070816,
      "name": "Sushiko",
      "nameTh": null,
      "lat": 13.7294902,
      "lng": 100.5336407,
      "category": "restaurant",
      "profile": {
        "outdoorness": 0.2,
        "indoorness": 0.8,
        "shade": 0.1,
        "covered": 0.85,
        "rainEnjoyment": 0.55,
        "heatTolerance": 0.8,
        "confidence": 0.55
      },
      "openingHoursRaw": null,
      "tags": {
        "cuisine": "japanese"
      }
    },
    {
      "id": "osm-2398070817",
      "osmId": 2398070817,
      "name": "Telephone Pub",
      "nameTh": null,
      "lat": 13.7286197,
      "lng": 100.5327679,
      "category": "bar",
      "profile": {
        "outdoorness": 0.3,
        "indoorness": 0.7,
        "shade": 0.2,
        "covered": 0.7,
        "rainEnjoyment": 0.55,
        "heatTolerance": 0.65,
        "confidence": 0.5
      },
      "openingHoursRaw": null,
      "tags": {}
    },
    {
      "id": "osm-2398070818",
      "osmId": 2398070818,
      "name": "The Balcony",
      "nameTh": null,
      "lat": 13.7286757,
      "lng": 100.5328443,
      "category": "bar",
      "profile": {
        "outdoorness": 0.3,
        "indoorness": 0.7,
        "shade": 0.2,
        "covered": 0.7,
        "rainEnjoyment": 0.55,
        "heatTolerance": 0.65,
        "confidence": 0.5
      },
      "openingHoursRaw": null,
      "tags": {}
    },
    {
      "id": "osm-2402667070",
      "osmId": 2402667070,
      "name": "Star of Light",
      "nameTh": null,
      "lat": 13.7291428,
      "lng": 100.5320885,
      "category": "bar",
      "profile": {
        "outdoorness": 0.3,
        "indoorness": 0.7,
        "shade": 0.2,
        "covered": 0.7,
        "rainEnjoyment": 0.55,
        "heatTolerance": 0.65,
        "confidence": 0.5
      },
      "openingHoursRaw": null,
      "tags": {}
    },
    {
      "id": "osm-2649275573",
      "osmId": 2649275573,
      "name": "นาฬิกาแดด",
      "nameTh": "นาฬิกาแดด",
      "lat": 13.730553,
      "lng": 100.5416556,
      "category": "viewpoint",
      "profile": {
        "outdoorness": 0.95,
        "indoorness": 0.05,
        "shade": 0.05,
        "covered": 0.05,
        "rainEnjoyment": 0.05,
        "heatTolerance": 0.25,
        "confidence": 0.55
      },
      "openingHoursRaw": null,
      "tags": {}
    },
    {
      "id": "osm-2822085338",
      "osmId": 2822085338,
      "name": "Black canyon",
      "nameTh": null,
      "lat": 13.7281489,
      "lng": 100.5346934,
      "category": "cafe",
      "profile": {
        "outdoorness": 0.15,
        "indoorness": 0.85,
        "shade": 0.1,
        "covered": 0.9,
        "rainEnjoyment": 0.75,
        "heatTolerance": 0.85,
        "confidence": 0.6
      },
      "openingHoursRaw": null,
      "tags": {}
    },
    {
      "id": "osm-2972682329",
      "osmId": 2972682329,
      "name": "Mgk Ruby Land",
      "nameTh": null,
      "lat": 13.7278446,
      "lng": 100.520286,
      "category": "restaurant",
      "profile": {
        "outdoorness": 0.2,
        "indoorness": 0.8,
        "shade": 0.1,
        "covered": 0.85,
        "rainEnjoyment": 0.55,
        "heatTolerance": 0.8,
        "confidence": 0.55
      },
      "openingHoursRaw": null,
      "tags": {}
    },
    {
      "id": "osm-2972682330",
      "osmId": 2972682330,
      "name": "Lucky",
      "nameTh": null,
      "lat": 13.7285945,
      "lng": 100.5216971,
      "category": "restaurant",
      "profile": {
        "outdoorness": 0.2,
        "indoorness": 0.8,
        "shade": 0.1,
        "covered": 0.85,
        "rainEnjoyment": 0.55,
        "heatTolerance": 0.8,
        "confidence": 0.55
      },
      "openingHoursRaw": null,
      "tags": {}
    },
    {
      "id": "osm-3062664773",
      "osmId": 3062664773,
      "name": "แมงโก้ ทรี",
      "nameTh": "แมงโก้ ทรี",
      "lat": 13.7285621,
      "lng": 100.5300118,
      "category": "restaurant",
      "profile": {
        "outdoorness": 0.2,
        "indoorness": 0.8,
        "shade": 0.1,
        "covered": 0.85,
        "rainEnjoyment": 0.55,
        "heatTolerance": 0.8,
        "confidence": 0.55
      },
      "openingHoursRaw": null,
      "tags": {
        "cuisine": "thai"
      }
    },
    {
      "id": "osm-3083236043",
      "osmId": 3083236043,
      "name": "ร้านอาหารอิโดยา",
      "nameTh": null,
      "lat": 13.7300028,
      "lng": 100.5341889,
      "category": "restaurant",
      "profile": {
        "outdoorness": 0.2,
        "indoorness": 0.8,
        "shade": 0.1,
        "covered": 0.85,
        "rainEnjoyment": 0.55,
        "heatTolerance": 0.8,
        "confidence": 0.55
      },
      "openingHoursRaw": null,
      "tags": {
        "cuisine": "japanese"
      }
    },
    {
      "id": "osm-3083236046",
      "osmId": 3083236046,
      "name": "ราเมนเฮาส์ โมโมทะโร",
      "nameTh": null,
      "lat": 13.7291022,
      "lng": 100.5341208,
      "category": "restaurant",
      "profile": {
        "outdoorness": 0.2,
        "indoorness": 0.8,
        "shade": 0.1,
        "covered": 0.85,
        "rainEnjoyment": 0.55,
        "heatTolerance": 0.8,
        "confidence": 0.55
      },
      "openingHoursRaw": null,
      "tags": {
        "cuisine": "japanese"
      }
    },
    {
      "id": "osm-3083236049",
      "osmId": 3083236049,
      "name": "Scarlett Wine Bar and Restaurant",
      "nameTh": null,
      "lat": 13.7260564,
      "lng": 100.5258029,
      "category": "bar",
      "profile": {
        "outdoorness": 0.3,
        "indoorness": 0.7,
        "shade": 0.2,
        "covered": 0.7,
        "rainEnjoyment": 0.55,
        "heatTolerance": 0.65,
        "confidence": 0.5
      },
      "openingHoursRaw": null,
      "tags": {}
    },
    {
      "id": "osm-3083236052",
      "osmId": 3083236052,
      "name": "The Barbican",
      "nameTh": null,
      "lat": 13.7297191,
      "lng": 100.5335367,
      "category": "bar",
      "profile": {
        "outdoorness": 0.3,
        "indoorness": 0.7,
        "shade": 0.2,
        "covered": 0.7,
        "rainEnjoyment": 0.55,
        "heatTolerance": 0.65,
        "confidence": 0.5
      },
      "openingHoursRaw": null,
      "tags": {}
    },
    {
      "id": "osm-3272167260",
      "osmId": 3272167260,
      "name": "Starbucks",
      "nameTh": "สตาร์บัคส์",
      "lat": 13.725739,
      "lng": 100.5446257,
      "category": "cafe",
      "profile": {
        "outdoorness": 0.15,
        "indoorness": 0.85,
        "shade": 0.1,
        "covered": 0.9,
        "rainEnjoyment": 0.75,
        "heatTolerance": 0.85,
        "confidence": 0.6
      },
      "openingHoursRaw": null,
      "tags": {
        "cuisine": "coffee_shop"
      }
    },
    {
      "id": "osm-3431325824",
      "osmId": 3431325824,
      "name": "สตาร์บัคส์",
      "nameTh": null,
      "lat": 13.7221582,
      "lng": 100.5294152,
      "category": "cafe",
      "profile": {
        "outdoorness": 0.15,
        "indoorness": 0.85,
        "shade": 0.1,
        "covered": 0.9,
        "rainEnjoyment": 0.75,
        "heatTolerance": 0.85,
        "confidence": 0.6
      },
      "openingHoursRaw": null,
      "tags": {}
    },
    {
      "id": "osm-3470912511",
      "osmId": 3470912511,
      "name": "Le Bouchon",
      "nameTh": "เลอ บูชอง",
      "lat": 13.7225218,
      "lng": 100.5448044,
      "category": "restaurant",
      "profile": {
        "outdoorness": 0.2,
        "indoorness": 0.8,
        "shade": 0.1,
        "covered": 0.85,
        "rainEnjoyment": 0.55,
        "heatTolerance": 0.8,
        "confidence": 0.55
      },
      "openingHoursRaw": null,
      "tags": {}
    },
    {
      "id": "osm-3471419765",
      "osmId": 3471419765,
      "name": "Tasca Sabio",
      "nameTh": null,
      "lat": 13.7294699,
      "lng": 100.5297018,
      "category": "restaurant",
      "profile": {
        "outdoorness": 0.2,
        "indoorness": 0.8,
        "shade": 0.1,
        "covered": 0.85,
        "rainEnjoyment": 0.55,
        "heatTolerance": 0.8,
        "confidence": 0.55
      },
      "openingHoursRaw": "Mo-Su 10:00-22:00",
      "tags": {
        "cuisine": "spanish;tapas"
      }
    },
    {
      "id": "osm-3471478035",
      "osmId": 3471478035,
      "name": "Bavana",
      "nameTh": null,
      "lat": 13.7302307,
      "lng": 100.5328266,
      "category": "restaurant",
      "profile": {
        "outdoorness": 0.2,
        "indoorness": 0.8,
        "shade": 0.1,
        "covered": 0.85,
        "rainEnjoyment": 0.55,
        "heatTolerance": 0.8,
        "confidence": 0.55
      },
      "openingHoursRaw": null,
      "tags": {}
    },
    {
      "id": "osm-3500010492",
      "osmId": 3500010492,
      "name": "ไลฟ์ เซ็นเตอร์",
      "nameTh": "ไลฟ์ เซ็นเตอร์",
      "lat": 13.7256246,
      "lng": 100.544357,
      "category": "mall",
      "profile": {
        "outdoorness": 0.02,
        "indoorness": 0.98,
        "shade": 0,
        "covered": 1,
        "rainEnjoyment": 0.5,
        "heatTolerance": 0.95,
        "confidence": 0.7
      },
      "openingHoursRaw": "10:00-22:00",
      "tags": {}
    },
    {
      "id": "osm-3541425744",
      "osmId": 3541425744,
      "name": "Rocket Coffee Bar",
      "nameTh": null,
      "lat": 13.7225956,
      "lng": 100.5260025,
      "category": "cafe",
      "profile": {
        "outdoorness": 0.15,
        "indoorness": 0.85,
        "shade": 0.1,
        "covered": 0.9,
        "rainEnjoyment": 0.75,
        "heatTolerance": 0.85,
        "confidence": 0.6
      },
      "openingHoursRaw": "Mo-Su 07:00-20:00",
      "tags": {}
    },
    {
      "id": "osm-3596792546",
      "osmId": 3596792546,
      "name": "25 degrees",
      "nameTh": null,
      "lat": 13.7257248,
      "lng": 100.5258535,
      "category": "restaurant",
      "profile": {
        "outdoorness": 0.2,
        "indoorness": 0.8,
        "shade": 0.1,
        "covered": 0.85,
        "rainEnjoyment": 0.55,
        "heatTolerance": 0.8,
        "confidence": 0.55
      },
      "openingHoursRaw": null,
      "tags": {}
    },
    {
      "id": "osm-3717247494",
      "osmId": 3717247494,
      "name": "Bistro 95",
      "nameTh": null,
      "lat": 13.723529,
      "lng": 100.5234282,
      "category": "cafe",
      "profile": {
        "outdoorness": 0.15,
        "indoorness": 0.85,
        "shade": 0.1,
        "covered": 0.9,
        "rainEnjoyment": 0.75,
        "heatTolerance": 0.85,
        "confidence": 0.6
      },
      "openingHoursRaw": null,
      "tags": {}
    },
    {
      "id": "osm-3717247496",
      "osmId": 3717247496,
      "name": "Everyday Karmakamet",
      "nameTh": null,
      "lat": 13.7289082,
      "lng": 100.5342212,
      "category": "cafe",
      "profile": {
        "outdoorness": 0.15,
        "indoorness": 0.85,
        "shade": 0.1,
        "covered": 0.9,
        "rainEnjoyment": 0.75,
        "heatTolerance": 0.85,
        "confidence": 0.6
      },
      "openingHoursRaw": "Mo-Su 10:00-22:00",
      "tags": {}
    },
    {
      "id": "osm-3717247497",
      "osmId": 3717247497,
      "name": "Heritage Bistro",
      "nameTh": null,
      "lat": 13.7255278,
      "lng": 100.5340771,
      "category": "restaurant",
      "profile": {
        "outdoorness": 0.2,
        "indoorness": 0.8,
        "shade": 0.1,
        "covered": 0.85,
        "rainEnjoyment": 0.55,
        "heatTolerance": 0.8,
        "confidence": 0.55
      },
      "openingHoursRaw": null,
      "tags": {}
    },
    {
      "id": "osm-3801840738",
      "osmId": 3801840738,
      "name": "The House on Sathorn",
      "nameTh": null,
      "lat": 13.7221812,
      "lng": 100.5288899,
      "category": "restaurant",
      "profile": {
        "outdoorness": 0.2,
        "indoorness": 0.8,
        "shade": 0.1,
        "covered": 0.85,
        "rainEnjoyment": 0.55,
        "heatTolerance": 0.8,
        "confidence": 0.55
      },
      "openingHoursRaw": null,
      "tags": {}
    },
    {
      "id": "osm-3995500903",
      "osmId": 3995500903,
      "name": "Jungle Café",
      "nameTh": null,
      "lat": 13.7239582,
      "lng": 100.5381833,
      "category": "restaurant",
      "profile": {
        "outdoorness": 0.2,
        "indoorness": 0.8,
        "shade": 0.1,
        "covered": 0.85,
        "rainEnjoyment": 0.55,
        "heatTolerance": 0.8,
        "confidence": 0.55
      },
      "openingHoursRaw": null,
      "tags": {}
    },
    {
      "id": "osm-4024967998",
      "osmId": 4024967998,
      "name": "G's The Embassy of Beer",
      "nameTh": null,
      "lat": 13.7283821,
      "lng": 100.5329576,
      "category": "restaurant",
      "profile": {
        "outdoorness": 0.2,
        "indoorness": 0.8,
        "shade": 0.1,
        "covered": 0.85,
        "rainEnjoyment": 0.55,
        "heatTolerance": 0.8,
        "confidence": 0.55
      },
      "openingHoursRaw": null,
      "tags": {
        "cuisine": "german"
      }
    },
    {
      "id": "osm-4160412689",
      "osmId": 4160412689,
      "name": "Nahm",
      "nameTh": null,
      "lat": 13.7235709,
      "lng": 100.5389708,
      "category": "restaurant",
      "profile": {
        "outdoorness": 0.2,
        "indoorness": 0.8,
        "shade": 0.1,
        "covered": 0.85,
        "rainEnjoyment": 0.55,
        "heatTolerance": 0.8,
        "confidence": 0.55
      },
      "openingHoursRaw": null,
      "tags": {}
    },
    {
      "id": "osm-4165380089",
      "osmId": 4165380089,
      "name": "Chao Doi",
      "nameTh": null,
      "lat": 13.7230995,
      "lng": 100.5234739,
      "category": "cafe",
      "profile": {
        "outdoorness": 0.15,
        "indoorness": 0.85,
        "shade": 0.1,
        "covered": 0.9,
        "rainEnjoyment": 0.75,
        "heatTolerance": 0.85,
        "confidence": 0.6
      },
      "openingHoursRaw": null,
      "tags": {
        "cuisine": "coffee_shop"
      }
    },
    {
      "id": "osm-4188181699",
      "osmId": 4188181699,
      "name": "Khao Mok Gai",
      "nameTh": null,
      "lat": 13.7273392,
      "lng": 100.5335417,
      "category": "restaurant",
      "profile": {
        "outdoorness": 0.2,
        "indoorness": 0.8,
        "shade": 0.1,
        "covered": 0.85,
        "rainEnjoyment": 0.55,
        "heatTolerance": 0.8,
        "confidence": 0.55
      },
      "openingHoursRaw": null,
      "tags": {}
    },
    {
      "id": "osm-4188232291",
      "osmId": 4188232291,
      "name": "Coke Chuan Chim",
      "nameTh": null,
      "lat": 13.7274703,
      "lng": 100.5345075,
      "category": "restaurant",
      "profile": {
        "outdoorness": 0.2,
        "indoorness": 0.8,
        "shade": 0.1,
        "covered": 0.85,
        "rainEnjoyment": 0.55,
        "heatTolerance": 0.8,
        "confidence": 0.55
      },
      "openingHoursRaw": null,
      "tags": {}
    },
    {
      "id": "osm-4281792890",
      "osmId": 4281792890,
      "name": "Youta vegetarian foods",
      "nameTh": null,
      "lat": 13.7239768,
      "lng": 100.5231242,
      "category": "restaurant",
      "profile": {
        "outdoorness": 0.2,
        "indoorness": 0.8,
        "shade": 0.1,
        "covered": 0.85,
        "rainEnjoyment": 0.55,
        "heatTolerance": 0.8,
        "confidence": 0.55
      },
      "openingHoursRaw": null,
      "tags": {}
    },
    {
      "id": "osm-4283596552",
      "osmId": 4283596552,
      "name": "Tazzina",
      "nameTh": null,
      "lat": 13.7247499,
      "lng": 100.5312107,
      "category": "cafe",
      "profile": {
        "outdoorness": 0.15,
        "indoorness": 0.85,
        "shade": 0.1,
        "covered": 0.9,
        "rainEnjoyment": 0.75,
        "heatTolerance": 0.85,
        "confidence": 0.6
      },
      "openingHoursRaw": null,
      "tags": {}
    },
    {
      "id": "osm-4308987593",
      "osmId": 4308987593,
      "name": "Namsaah Bottling Trust",
      "nameTh": null,
      "lat": 13.7252602,
      "lng": 100.5291011,
      "category": "restaurant",
      "profile": {
        "outdoorness": 0.2,
        "indoorness": 0.8,
        "shade": 0.1,
        "covered": 0.85,
        "rainEnjoyment": 0.55,
        "heatTolerance": 0.8,
        "confidence": 0.55
      },
      "openingHoursRaw": null,
      "tags": {}
    },
    {
      "id": "osm-4343921196",
      "osmId": 4343921196,
      "name": "Pavement Restaurant",
      "nameTh": null,
      "lat": 13.7266992,
      "lng": 100.5284288,
      "category": "restaurant",
      "profile": {
        "outdoorness": 0.2,
        "indoorness": 0.8,
        "shade": 0.1,
        "covered": 0.85,
        "rainEnjoyment": 0.55,
        "heatTolerance": 0.8,
        "confidence": 0.55
      },
      "openingHoursRaw": "Mo-Su 18:00-22:00",
      "tags": {}
    },
    {
      "id": "osm-4356324894",
      "osmId": 4356324894,
      "name": "Music Cafe",
      "nameTh": null,
      "lat": 13.7289144,
      "lng": 100.5318967,
      "category": "bar",
      "profile": {
        "outdoorness": 0.3,
        "indoorness": 0.7,
        "shade": 0.2,
        "covered": 0.7,
        "rainEnjoyment": 0.55,
        "heatTolerance": 0.65,
        "confidence": 0.5
      },
      "openingHoursRaw": null,
      "tags": {}
    },
    {
      "id": "osm-4365103793",
      "osmId": 4365103793,
      "name": "bunker",
      "nameTh": "bunker",
      "lat": 13.7231355,
      "lng": 100.525591,
      "category": "restaurant",
      "profile": {
        "outdoorness": 0.2,
        "indoorness": 0.8,
        "shade": 0.1,
        "covered": 0.85,
        "rainEnjoyment": 0.55,
        "heatTolerance": 0.8,
        "confidence": 0.55
      },
      "openingHoursRaw": null,
      "tags": {}
    },
    {
      "id": "osm-4377059090",
      "osmId": 4377059090,
      "name": "สมบูรณ์โภชนา",
      "nameTh": "สมบูรณ์โภชนา",
      "lat": 13.728217,
      "lng": 100.5266806,
      "category": "restaurant",
      "profile": {
        "outdoorness": 0.2,
        "indoorness": 0.8,
        "shade": 0.1,
        "covered": 0.85,
        "rainEnjoyment": 0.55,
        "heatTolerance": 0.8,
        "confidence": 0.55
      },
      "openingHoursRaw": "Mo-Su 07:30-21:30",
      "tags": {
        "cuisine": "seafood"
      }
    },
    {
      "id": "osm-4393480890",
      "osmId": 4393480890,
      "name": "Ariya",
      "nameTh": null,
      "lat": 13.7256165,
      "lng": 100.5445383,
      "category": "cafe",
      "profile": {
        "outdoorness": 0.15,
        "indoorness": 0.85,
        "shade": 0.1,
        "covered": 0.9,
        "rainEnjoyment": 0.75,
        "heatTolerance": 0.85,
        "confidence": 0.6
      },
      "openingHoursRaw": "Mo-Sa 11:00-20:00",
      "tags": {}
    },
    {
      "id": "osm-4411938763",
      "osmId": 4411938763,
      "name": "Jewelry Trade Center Thailand",
      "nameTh": null,
      "lat": 13.7227881,
      "lng": 100.5201355,
      "category": "mall",
      "profile": {
        "outdoorness": 0.02,
        "indoorness": 0.98,
        "shade": 0,
        "covered": 1,
        "rainEnjoyment": 0.5,
        "heatTolerance": 0.95,
        "confidence": 0.7
      },
      "openingHoursRaw": null,
      "tags": {}
    },
    {
      "id": "osm-4417113690",
      "osmId": 4417113690,
      "name": "Italian Bistro Restaurant",
      "nameTh": null,
      "lat": 13.7246749,
      "lng": 100.538816,
      "category": "restaurant",
      "profile": {
        "outdoorness": 0.2,
        "indoorness": 0.8,
        "shade": 0.1,
        "covered": 0.85,
        "rainEnjoyment": 0.55,
        "heatTolerance": 0.8,
        "confidence": 0.55
      },
      "openingHoursRaw": null,
      "tags": {
        "cuisine": "italian;pizza"
      }
    },
    {
      "id": "osm-4428234994",
      "osmId": 4428234994,
      "name": "ตะลิงปลิง",
      "nameTh": "ตะลิงปลิง",
      "lat": 13.72325,
      "lng": 100.5212138,
      "category": "restaurant",
      "profile": {
        "outdoorness": 0.2,
        "indoorness": 0.8,
        "shade": 0.1,
        "covered": 0.85,
        "rainEnjoyment": 0.55,
        "heatTolerance": 0.8,
        "confidence": 0.55
      },
      "openingHoursRaw": null,
      "tags": {}
    },
    {
      "id": "osm-4527823892",
      "osmId": 4527823892,
      "name": "Bonita cafe and social club",
      "nameTh": null,
      "lat": 13.7225376,
      "lng": 100.5235394,
      "category": "restaurant",
      "profile": {
        "outdoorness": 0.2,
        "indoorness": 0.8,
        "shade": 0.1,
        "covered": 0.85,
        "rainEnjoyment": 0.55,
        "heatTolerance": 0.8,
        "confidence": 0.55
      },
      "openingHoursRaw": "We-Mo 11:30-22:00",
      "tags": {}
    },
    {
      "id": "osm-4541966689",
      "osmId": 4541966689,
      "name": "Ceresia",
      "nameTh": null,
      "lat": 13.7250605,
      "lng": 100.5379559,
      "category": "cafe",
      "profile": {
        "outdoorness": 0.15,
        "indoorness": 0.85,
        "shade": 0.1,
        "covered": 0.9,
        "rainEnjoyment": 0.75,
        "heatTolerance": 0.85,
        "confidence": 0.6
      },
      "openingHoursRaw": null,
      "tags": {}
    },
    {
      "id": "osm-4552341411",
      "osmId": 4552341411,
      "name": "Sizzler",
      "nameTh": null,
      "lat": 13.7276077,
      "lng": 100.532482,
      "category": "restaurant",
      "profile": {
        "outdoorness": 0.2,
        "indoorness": 0.8,
        "shade": 0.1,
        "covered": 0.85,
        "rainEnjoyment": 0.55,
        "heatTolerance": 0.8,
        "confidence": 0.55
      },
      "openingHoursRaw": null,
      "tags": {
        "cuisine": "steak_house"
      }
    },
    {
      "id": "osm-4573230701",
      "osmId": 4573230701,
      "name": "Lavenue",
      "nameTh": null,
      "lat": 13.7238896,
      "lng": 100.5311518,
      "category": "restaurant",
      "profile": {
        "outdoorness": 0.2,
        "indoorness": 0.8,
        "shade": 0.1,
        "covered": 0.85,
        "rainEnjoyment": 0.55,
        "heatTolerance": 0.8,
        "confidence": 0.55
      },
      "openingHoursRaw": null,
      "tags": {}
    },
    {
      "id": "osm-4573230702",
      "osmId": 4573230702,
      "name": "Ice",
      "nameTh": null,
      "lat": 13.7235437,
      "lng": 100.5313124,
      "category": "cafe",
      "profile": {
        "outdoorness": 0.15,
        "indoorness": 0.85,
        "shade": 0.1,
        "covered": 0.9,
        "rainEnjoyment": 0.75,
        "heatTolerance": 0.85,
        "confidence": 0.6
      },
      "openingHoursRaw": null,
      "tags": {}
    },
    {
      "id": "osm-4573230703",
      "osmId": 4573230703,
      "name": "Tippa",
      "nameTh": null,
      "lat": 13.7242644,
      "lng": 100.5305771,
      "category": "cafe",
      "profile": {
        "outdoorness": 0.15,
        "indoorness": 0.85,
        "shade": 0.1,
        "covered": 0.9,
        "rainEnjoyment": 0.75,
        "heatTolerance": 0.85,
        "confidence": 0.6
      },
      "openingHoursRaw": null,
      "tags": {}
    },
    {
      "id": "osm-4573230717",
      "osmId": 4573230717,
      "name": "Baan Samyan",
      "nameTh": null,
      "lat": 13.7324254,
      "lng": 100.5279479,
      "category": "cafe",
      "profile": {
        "outdoorness": 0.15,
        "indoorness": 0.85,
        "shade": 0.1,
        "covered": 0.9,
        "rainEnjoyment": 0.75,
        "heatTolerance": 0.85,
        "confidence": 0.6
      },
      "openingHoursRaw": null,
      "tags": {}
    },
    {
      "id": "osm-4597498694",
      "osmId": 4597498694,
      "name": "Bean Samyan",
      "nameTh": "Bean Samyan",
      "lat": 13.7323888,
      "lng": 100.5279844,
      "category": "cafe",
      "profile": {
        "outdoorness": 0.15,
        "indoorness": 0.85,
        "shade": 0.1,
        "covered": 0.9,
        "rainEnjoyment": 0.75,
        "heatTolerance": 0.85,
        "confidence": 0.6
      },
      "openingHoursRaw": null,
      "tags": {}
    },
    {
      "id": "osm-4605337893",
      "osmId": 4605337893,
      "name": "ก๋วยเตี๋ยว 12 ปันนา",
      "nameTh": null,
      "lat": 13.725578,
      "lng": 100.5313164,
      "category": "restaurant",
      "profile": {
        "outdoorness": 0.2,
        "indoorness": 0.8,
        "shade": 0.1,
        "covered": 0.85,
        "rainEnjoyment": 0.55,
        "heatTolerance": 0.8,
        "confidence": 0.55
      },
      "openingHoursRaw": "Mo-Sa 07:00-14:30",
      "tags": {
        "cuisine": "noodles;asian;thai;local"
      }
    },
    {
      "id": "osm-4627766921",
      "osmId": 4627766921,
      "name": "Ann s Apple lab smart coffee",
      "nameTh": "Ann s Apple lab smart coffee",
      "lat": 13.734432,
      "lng": 100.53916,
      "category": "cafe",
      "profile": {
        "outdoorness": 0.15,
        "indoorness": 0.85,
        "shade": 0.1,
        "covered": 0.9,
        "rainEnjoyment": 0.75,
        "heatTolerance": 0.85,
        "confidence": 0.6
      },
      "openingHoursRaw": null,
      "tags": {}
    },
    {
      "id": "osm-4633968589",
      "osmId": 4633968589,
      "name": "Annapurna",
      "nameTh": "Annapurna",
      "lat": 13.7235009,
      "lng": 100.5232441,
      "category": "restaurant",
      "profile": {
        "outdoorness": 0.2,
        "indoorness": 0.8,
        "shade": 0.1,
        "covered": 0.85,
        "rainEnjoyment": 0.55,
        "heatTolerance": 0.8,
        "confidence": 0.55
      },
      "openingHoursRaw": null,
      "tags": {}
    },
    {
      "id": "osm-4655302992",
      "osmId": 4655302992,
      "name": "Luka Sathorn",
      "nameTh": null,
      "lat": 13.7216404,
      "lng": 100.5238927,
      "category": "cafe",
      "profile": {
        "outdoorness": 0.15,
        "indoorness": 0.85,
        "shade": 0.1,
        "covered": 0.9,
        "rainEnjoyment": 0.75,
        "heatTolerance": 0.85,
        "confidence": 0.6
      },
      "openingHoursRaw": "Mo-Su 08:00-18:00",
      "tags": {}
    },
    {
      "id": "osm-4665569199",
      "osmId": 4665569199,
      "name": "Rainbow Dragon Silom",
      "nameTh": null,
      "lat": 13.7286028,
      "lng": 100.5322224,
      "category": "bar",
      "profile": {
        "outdoorness": 0.3,
        "indoorness": 0.7,
        "shade": 0.2,
        "covered": 0.7,
        "rainEnjoyment": 0.55,
        "heatTolerance": 0.8,
        "confidence": 0.55
      },
      "openingHoursRaw": "Mo-Su 20:00-3:00",
      "tags": {}
    },
    {
      "id": "osm-4700511520",
      "osmId": 4700511520,
      "name": "Yakiniku Joeng",
      "nameTh": null,
      "lat": 13.7291493,
      "lng": 100.5342127,
      "category": "restaurant",
      "profile": {
        "outdoorness": 0.2,
        "indoorness": 0.8,
        "shade": 0.1,
        "covered": 0.85,
        "rainEnjoyment": 0.55,
        "heatTolerance": 0.8,
        "confidence": 0.55
      },
      "openingHoursRaw": null,
      "tags": {
        "cuisine": "japanese"
      }
    },
    {
      "id": "osm-4700511521",
      "osmId": 4700511521,
      "name": "Gold Curry Bangkok",
      "nameTh": null,
      "lat": 13.7293762,
      "lng": 100.5342837,
      "category": "restaurant",
      "profile": {
        "outdoorness": 0.2,
        "indoorness": 0.8,
        "shade": 0.1,
        "covered": 0.85,
        "rainEnjoyment": 0.55,
        "heatTolerance": 0.8,
        "confidence": 0.55
      },
      "openingHoursRaw": null,
      "tags": {}
    },
    {
      "id": "osm-4700511522",
      "osmId": 4700511522,
      "name": "Grand Shangarila Restaurant",
      "nameTh": null,
      "lat": 13.7292498,
      "lng": 100.5344532,
      "category": "restaurant",
      "profile": {
        "outdoorness": 0.2,
        "indoorness": 0.8,
        "shade": 0.1,
        "covered": 0.85,
        "rainEnjoyment": 0.55,
        "heatTolerance": 0.8,
        "confidence": 0.55
      },
      "openingHoursRaw": null,
      "tags": {}
    },
    {
      "id": "osm-4700511524",
      "osmId": 4700511524,
      "name": "Osaka",
      "nameTh": null,
      "lat": 13.7293172,
      "lng": 100.5341379,
      "category": "restaurant",
      "profile": {
        "outdoorness": 0.2,
        "indoorness": 0.8,
        "shade": 0.1,
        "covered": 0.85,
        "rainEnjoyment": 0.55,
        "heatTolerance": 0.8,
        "confidence": 0.55
      },
      "openingHoursRaw": null,
      "tags": {
        "cuisine": "japanese"
      }
    },
    {
      "id": "osm-4700512586",
      "osmId": 4700512586,
      "name": "Sekai No Yamachan",
      "nameTh": null,
      "lat": 13.7289808,
      "lng": 100.533918,
      "category": "restaurant",
      "profile": {
        "outdoorness": 0.2,
        "indoorness": 0.8,
        "shade": 0.1,
        "covered": 0.85,
        "rainEnjoyment": 0.55,
        "heatTolerance": 0.8,
        "confidence": 0.55
      },
      "openingHoursRaw": null,
      "tags": {
        "cuisine": "japanese"
      }
    },
    {
      "id": "osm-4700512587",
      "osmId": 4700512587,
      "name": "Gyunoya",
      "nameTh": null,
      "lat": 13.7289643,
      "lng": 100.5340533,
      "category": "restaurant",
      "profile": {
        "outdoorness": 0.2,
        "indoorness": 0.8,
        "shade": 0.1,
        "covered": 0.85,
        "rainEnjoyment": 0.55,
        "heatTolerance": 0.8,
        "confidence": 0.55
      },
      "openingHoursRaw": null,
      "tags": {
        "cuisine": "japanese"
      }
    },
    {
      "id": "osm-4700516698",
      "osmId": 4700516698,
      "name": "Shinsen",
      "nameTh": null,
      "lat": 13.7292901,
      "lng": 100.5337686,
      "category": "restaurant",
      "profile": {
        "outdoorness": 0.2,
        "indoorness": 0.8,
        "shade": 0.1,
        "covered": 0.85,
        "rainEnjoyment": 0.55,
        "heatTolerance": 0.8,
        "confidence": 0.55
      },
      "openingHoursRaw": null,
      "tags": {
        "cuisine": "japanese"
      }
    },
    {
      "id": "osm-4700516699",
      "osmId": 4700516699,
      "name": "Miraku",
      "nameTh": null,
      "lat": 13.7292078,
      "lng": 100.5335105,
      "category": "restaurant",
      "profile": {
        "outdoorness": 0.2,
        "indoorness": 0.8,
        "shade": 0.1,
        "covered": 0.85,
        "rainEnjoyment": 0.55,
        "heatTolerance": 0.8,
        "confidence": 0.55
      },
      "openingHoursRaw": null,
      "tags": {
        "cuisine": "japanese"
      }
    },
    {
      "id": "osm-4700534467",
      "osmId": 4700534467,
      "name": "Gyu Kaku",
      "nameTh": null,
      "lat": 13.7288093,
      "lng": 100.5340287,
      "category": "restaurant",
      "profile": {
        "outdoorness": 0.2,
        "indoorness": 0.8,
        "shade": 0.1,
        "covered": 0.85,
        "rainEnjoyment": 0.55,
        "heatTolerance": 0.8,
        "confidence": 0.55
      },
      "openingHoursRaw": null,
      "tags": {
        "cuisine": "japanese"
      }
    },
    {
      "id": "osm-4712868489",
      "osmId": 4712868489,
      "name": "Tuna Ichiban",
      "nameTh": null,
      "lat": 13.7272118,
      "lng": 100.5280712,
      "category": "restaurant",
      "profile": {
        "outdoorness": 0.2,
        "indoorness": 0.8,
        "shade": 0.1,
        "covered": 0.85,
        "rainEnjoyment": 0.55,
        "heatTolerance": 0.8,
        "confidence": 0.55
      },
      "openingHoursRaw": null,
      "tags": {}
    },
    {
      "id": "osm-4715286702",
      "osmId": 4715286702,
      "name": "ส้มตำเจ๊โส",
      "nameTh": "ส้มตำเจ๊โส",
      "lat": 13.7250865,
      "lng": 100.5326103,
      "category": "restaurant",
      "profile": {
        "outdoorness": 0.2,
        "indoorness": 0.8,
        "shade": 0.1,
        "covered": 0.85,
        "rainEnjoyment": 0.55,
        "heatTolerance": 0.8,
        "confidence": 0.55
      },
      "openingHoursRaw": "Mo-Su 11:00-17:30",
      "tags": {
        "cuisine": "thai"
      }
    },
    {
      "id": "osm-4833087021",
      "osmId": 4833087021,
      "name": "ตำหนักก๋วยเตี๋ยวเรือ",
      "nameTh": "ตำหนักก๋วยเตี๋ยวเรือ",
      "lat": 13.7275389,
      "lng": 100.5327238,
      "category": "restaurant",
      "profile": {
        "outdoorness": 0.2,
        "indoorness": 0.8,
        "shade": 0.1,
        "covered": 0.85,
        "rainEnjoyment": 0.55,
        "heatTolerance": 0.8,
        "confidence": 0.55
      },
      "openingHoursRaw": null,
      "tags": {}
    },
    {
      "id": "osm-4858502031",
      "osmId": 4858502031,
      "name": "Unicorn Cafe",
      "nameTh": null,
      "lat": 13.7233859,
      "lng": 100.5312028,
      "category": "cafe",
      "profile": {
        "outdoorness": 0.15,
        "indoorness": 0.85,
        "shade": 0.1,
        "covered": 0.9,
        "rainEnjoyment": 0.75,
        "heatTolerance": 0.85,
        "confidence": 0.6
      },
      "openingHoursRaw": null,
      "tags": {}
    },
    {
      "id": "osm-5018016222",
      "osmId": 5018016222,
      "name": "Than Ying",
      "nameTh": null,
      "lat": 13.7216426,
      "lng": 100.5220771,
      "category": "restaurant",
      "profile": {
        "outdoorness": 0.2,
        "indoorness": 0.8,
        "shade": 0.1,
        "covered": 0.85,
        "rainEnjoyment": 0.55,
        "heatTolerance": 0.8,
        "confidence": 0.55
      },
      "openingHoursRaw": null,
      "tags": {}
    },
    {
      "id": "osm-5018025721",
      "osmId": 5018025721,
      "name": "ห้องทานข้าวสุพรรณิการ์, สาทร",
      "nameTh": "ห้องทานข้าวสุพรรณิการ์, สาทร",
      "lat": 13.7232132,
      "lng": 100.527255,
      "category": "restaurant",
      "profile": {
        "outdoorness": 0.2,
        "indoorness": 0.8,
        "shade": 0.1,
        "covered": 0.85,
        "rainEnjoyment": 0.55,
        "heatTolerance": 0.8,
        "confidence": 0.55
      },
      "openingHoursRaw": "Mo-Su 11:30-14:30, 17:30-23:00",
      "tags": {
        "cuisine": "thai"
      }
    },
    {
      "id": "osm-5027649521",
      "osmId": 5027649521,
      "name": "Trattoria Pizzeria Ristorante Il Bolognese",
      "nameTh": null,
      "lat": 13.7210568,
      "lng": 100.5333018,
      "category": "restaurant",
      "profile": {
        "outdoorness": 0.2,
        "indoorness": 0.8,
        "shade": 0.1,
        "covered": 0.85,
        "rainEnjoyment": 0.55,
        "heatTolerance": 0.8,
        "confidence": 0.55
      },
      "openingHoursRaw": null,
      "tags": {}
    },
    {
      "id": "osm-5219745322",
      "osmId": 5219745322,
      "name": "The Pintsman",
      "nameTh": null,
      "lat": 13.7272756,
      "lng": 100.5312665,
      "category": "bar",
      "profile": {
        "outdoorness": 0.3,
        "indoorness": 0.7,
        "shade": 0.2,
        "covered": 0.7,
        "rainEnjoyment": 0.55,
        "heatTolerance": 0.65,
        "confidence": 0.5
      },
      "openingHoursRaw": null,
      "tags": {}
    },
    {
      "id": "osm-5297403081",
      "osmId": 5297403081,
      "name": "ขิงขิงบะหมี่เกี๊ยวกุ้ง",
      "nameTh": "ขิงขิงบะหมี่เกี๊ยวกุ้ง",
      "lat": 13.726425,
      "lng": 100.536937,
      "category": "restaurant",
      "profile": {
        "outdoorness": 0.2,
        "indoorness": 0.8,
        "shade": 0.1,
        "covered": 0.85,
        "rainEnjoyment": 0.55,
        "heatTolerance": 0.8,
        "confidence": 0.55
      },
      "openingHoursRaw": "Monday-Friday   8:00-15:00",
      "tags": {
        "cuisine": "noodle"
      }
    },
    {
      "id": "osm-5303210927",
      "osmId": 5303210927,
      "name": "Whiteline",
      "nameTh": null,
      "lat": 13.7274342,
      "lng": 100.5308638,
      "category": "bar",
      "profile": {
        "outdoorness": 0.3,
        "indoorness": 0.7,
        "shade": 0.2,
        "covered": 0.7,
        "rainEnjoyment": 0.55,
        "heatTolerance": 0.65,
        "confidence": 0.5
      },
      "openingHoursRaw": null,
      "tags": {}
    },
    {
      "id": "osm-5316360823",
      "osmId": 5316360823,
      "name": "ร้านน้ำเต้าหู้หย่งเหอ",
      "nameTh": null,
      "lat": 13.7244825,
      "lng": 100.5286266,
      "category": "restaurant",
      "profile": {
        "outdoorness": 0.2,
        "indoorness": 0.8,
        "shade": 0.1,
        "covered": 0.85,
        "rainEnjoyment": 0.55,
        "heatTolerance": 0.8,
        "confidence": 0.55
      },
      "openingHoursRaw": "Mo-Su 11:00-22:00",
      "tags": {
        "cuisine": "chinese"
      }
    },
    {
      "id": "osm-5330818121",
      "osmId": 5330818121,
      "name": "Roastology",
      "nameTh": null,
      "lat": 13.7258689,
      "lng": 100.5392581,
      "category": "cafe",
      "profile": {
        "outdoorness": 0.15,
        "indoorness": 0.85,
        "shade": 0.1,
        "covered": 0.9,
        "rainEnjoyment": 0.75,
        "heatTolerance": 0.85,
        "confidence": 0.6
      },
      "openingHoursRaw": "Mo-Fr 07:30-17:30; Sa-Su 10:00-17:00",
      "tags": {}
    },
    {
      "id": "osm-5369727021",
      "osmId": 5369727021,
      "name": "ต้นข้าว",
      "nameTh": null,
      "lat": 13.7285347,
      "lng": 100.5275915,
      "category": "restaurant",
      "profile": {
        "outdoorness": 0.2,
        "indoorness": 0.8,
        "shade": 0.1,
        "covered": 0.85,
        "rainEnjoyment": 0.55,
        "heatTolerance": 0.8,
        "confidence": 0.55
      },
      "openingHoursRaw": null,
      "tags": {
        "cuisine": "thai"
      }
    },
    {
      "id": "osm-5371902421",
      "osmId": 5371902421,
      "name": "Baimeang 06",
      "nameTh": null,
      "lat": 13.7201035,
      "lng": 100.5378797,
      "category": "restaurant",
      "profile": {
        "outdoorness": 0.2,
        "indoorness": 0.8,
        "shade": 0.1,
        "covered": 0.85,
        "rainEnjoyment": 0.55,
        "heatTolerance": 0.8,
        "confidence": 0.55
      },
      "openingHoursRaw": null,
      "tags": {
        "cuisine": "asian"
      }
    },
    {
      "id": "osm-5372329542",
      "osmId": 5372329542,
      "name": "Cloud9",
      "nameTh": null,
      "lat": 13.7242537,
      "lng": 100.5294738,
      "category": "bar",
      "profile": {
        "outdoorness": 0.5,
        "indoorness": 0.7,
        "shade": 0.30000000000000004,
        "covered": 0.7,
        "rainEnjoyment": 0.55,
        "heatTolerance": 0.65,
        "confidence": 0.5
      },
      "openingHoursRaw": "Mo-Su 17:00-01:00",
      "tags": {
        "outdoor_seating": "yes"
      }
    },
    {
      "id": "osm-5372955557",
      "osmId": 5372955557,
      "name": "Shangrila",
      "nameTh": null,
      "lat": 13.7242955,
      "lng": 100.5294551,
      "category": "restaurant",
      "profile": {
        "outdoorness": 0.2,
        "indoorness": 0.8,
        "shade": 0.1,
        "covered": 0.85,
        "rainEnjoyment": 0.55,
        "heatTolerance": 0.8,
        "confidence": 0.55
      },
      "openingHoursRaw": null,
      "tags": {
        "cuisine": "chinese"
      }
    },
    {
      "id": "osm-5394515521",
      "osmId": 5394515521,
      "name": "Pink Panther",
      "nameTh": null,
      "lat": 13.7298751,
      "lng": 100.5318428,
      "category": "bar",
      "profile": {
        "outdoorness": 0.3,
        "indoorness": 0.7,
        "shade": 0.2,
        "covered": 0.7,
        "rainEnjoyment": 0.55,
        "heatTolerance": 0.65,
        "confidence": 0.5
      },
      "openingHoursRaw": null,
      "tags": {}
    },
    {
      "id": "osm-5400653438",
      "osmId": 5400653438,
      "name": "The Caffeeine",
      "nameTh": null,
      "lat": 13.7264983,
      "lng": 100.5406923,
      "category": "cafe",
      "profile": {
        "outdoorness": 0.15,
        "indoorness": 0.85,
        "shade": 0.1,
        "covered": 0.9,
        "rainEnjoyment": 0.75,
        "heatTolerance": 0.85,
        "confidence": 0.6
      },
      "openingHoursRaw": null,
      "tags": {}
    },
    {
      "id": "osm-5626526522",
      "osmId": 5626526522,
      "name": "Golden Cock 2pm on",
      "nameTh": null,
      "lat": 13.7284335,
      "lng": 100.5295448,
      "category": "bar",
      "profile": {
        "outdoorness": 0.3,
        "indoorness": 0.7,
        "shade": 0.2,
        "covered": 0.7,
        "rainEnjoyment": 0.55,
        "heatTolerance": 0.65,
        "confidence": 0.5
      },
      "openingHoursRaw": null,
      "tags": {}
    },
    {
      "id": "osm-5692242221",
      "osmId": 5692242221,
      "name": "Chennai Kitchen",
      "nameTh": null,
      "lat": 13.7227218,
      "lng": 100.5236893,
      "category": "restaurant",
      "profile": {
        "outdoorness": 0.2,
        "indoorness": 0.8,
        "shade": 0.1,
        "covered": 0.85,
        "rainEnjoyment": 0.55,
        "heatTolerance": 0.8,
        "confidence": 0.55
      },
      "openingHoursRaw": null,
      "tags": {}
    },
    {
      "id": "osm-5761065921",
      "osmId": 5761065921,
      "name": "A Clay Cafe",
      "nameTh": null,
      "lat": 13.7230937,
      "lng": 100.5311408,
      "category": "cafe",
      "profile": {
        "outdoorness": 0.15,
        "indoorness": 0.85,
        "shade": 0.1,
        "covered": 0.9,
        "rainEnjoyment": 0.75,
        "heatTolerance": 0.85,
        "confidence": 0.6
      },
      "openingHoursRaw": null,
      "tags": {}
    },
    {
      "id": "osm-5774022453",
      "osmId": 5774022453,
      "name": "Meet Armand!",
      "nameTh": null,
      "lat": 13.7285972,
      "lng": 100.5283212,
      "category": "bar",
      "profile": {
        "outdoorness": 0.3,
        "indoorness": 0.7,
        "shade": 0.2,
        "covered": 0.7,
        "rainEnjoyment": 0.55,
        "heatTolerance": 0.65,
        "confidence": 0.5
      },
      "openingHoursRaw": null,
      "tags": {}
    },
    {
      "id": "osm-5801544355",
      "osmId": 5801544355,
      "name": "Saffron Restaurant",
      "nameTh": null,
      "lat": 13.7236649,
      "lng": 100.5397986,
      "category": "restaurant",
      "profile": {
        "outdoorness": 0.2,
        "indoorness": 0.8,
        "shade": 0.1,
        "covered": 0.85,
        "rainEnjoyment": 0.55,
        "heatTolerance": 0.8,
        "confidence": 0.55
      },
      "openingHoursRaw": "Mo-Su 11:30-14:30,18:00-22:30",
      "tags": {}
    },
    {
      "id": "osm-5814463453",
      "osmId": 5814463453,
      "name": "ลิตเติ้ลเจแปน",
      "nameTh": "ลิตเติ้ลเจแปน",
      "lat": 13.7295874,
      "lng": 100.5335026,
      "category": "viewpoint",
      "profile": {
        "outdoorness": 0.95,
        "indoorness": 0.05,
        "shade": 0.05,
        "covered": 0.05,
        "rainEnjoyment": 0.05,
        "heatTolerance": 0.25,
        "confidence": 0.55
      },
      "openingHoursRaw": null,
      "tags": {}
    },
    {
      "id": "osm-5999759600",
      "osmId": 5999759600,
      "name": "Plaagut",
      "nameTh": null,
      "lat": 13.7230902,
      "lng": 100.5274976,
      "category": "restaurant",
      "profile": {
        "outdoorness": 0.2,
        "indoorness": 0.8,
        "shade": 0.1,
        "covered": 0.85,
        "rainEnjoyment": 0.55,
        "heatTolerance": 0.8,
        "confidence": 0.55
      },
      "openingHoursRaw": null,
      "tags": {
        "cuisine": "thai;southern thai"
      }
    },
    {
      "id": "osm-5999760574",
      "osmId": 5999760574,
      "name": "Ryunabe",
      "nameTh": null,
      "lat": 13.7223223,
      "lng": 100.5276898,
      "category": "restaurant",
      "profile": {
        "outdoorness": 0.2,
        "indoorness": 0.8,
        "shade": 0.1,
        "covered": 0.85,
        "rainEnjoyment": 0.55,
        "heatTolerance": 0.8,
        "confidence": 0.55
      },
      "openingHoursRaw": null,
      "tags": {
        "cuisine": "hotpot"
      }
    },
    {
      "id": "osm-5999760576",
      "osmId": 5999760576,
      "name": "The Running Dog Café",
      "nameTh": null,
      "lat": 13.7231771,
      "lng": 100.5274819,
      "category": "cafe",
      "profile": {
        "outdoorness": 0.15,
        "indoorness": 0.85,
        "shade": 0.1,
        "covered": 0.9,
        "rainEnjoyment": 0.75,
        "heatTolerance": 0.85,
        "confidence": 0.6
      },
      "openingHoursRaw": null,
      "tags": {}
    },
    {
      "id": "osm-5999761384",
      "osmId": 5999761384,
      "name": "Sorrento",
      "nameTh": null,
      "lat": 13.7220062,
      "lng": 100.5278167,
      "category": "restaurant",
      "profile": {
        "outdoorness": 0.2,
        "indoorness": 0.8,
        "shade": 0.1,
        "covered": 0.85,
        "rainEnjoyment": 0.55,
        "heatTolerance": 0.8,
        "confidence": 0.55
      },
      "openingHoursRaw": null,
      "tags": {
        "cuisine": "italian"
      }
    },
    {
      "id": "osm-6124985385",
      "osmId": 6124985385,
      "name": "Yummy Thai Food",
      "nameTh": null,
      "lat": 13.7326418,
      "lng": 100.5221198,
      "category": "restaurant",
      "profile": {
        "outdoorness": 0.2,
        "indoorness": 0.8,
        "shade": 0.1,
        "covered": 0.85,
        "rainEnjoyment": 0.55,
        "heatTolerance": 0.8,
        "confidence": 0.55
      },
      "openingHoursRaw": null,
      "tags": {
        "cuisine": "thai"
      }
    },
    {
      "id": "osm-6144392385",
      "osmId": 6144392385,
      "name": "Suananda",
      "nameTh": null,
      "lat": 13.723079,
      "lng": 100.5239598,
      "category": "restaurant",
      "profile": {
        "outdoorness": 0.2,
        "indoorness": 0.8,
        "shade": 0.1,
        "covered": 0.85,
        "rainEnjoyment": 0.55,
        "heatTolerance": 0.8,
        "confidence": 0.55
      },
      "openingHoursRaw": "Mo-Sa 10:30-21:30",
      "tags": {
        "cuisine": "thai;indian"
      }
    },
    {
      "id": "osm-6147761598",
      "osmId": 6147761598,
      "name": "NAGA",
      "nameTh": null,
      "lat": 13.7219535,
      "lng": 100.5370906,
      "category": "restaurant",
      "profile": {
        "outdoorness": 0.2,
        "indoorness": 0.8,
        "shade": 0.1,
        "covered": 0.85,
        "rainEnjoyment": 0.55,
        "heatTolerance": 0.8,
        "confidence": 0.55
      },
      "openingHoursRaw": "Mo-Fr 11:00-23:00; Sa 14:00-23:00",
      "tags": {
        "cuisine": "thai"
      }
    },
    {
      "id": "osm-6163744202",
      "osmId": 6163744202,
      "name": "Trattoria Fiorentina",
      "nameTh": null,
      "lat": 13.7225855,
      "lng": 100.525955,
      "category": "restaurant",
      "profile": {
        "outdoorness": 0.2,
        "indoorness": 0.8,
        "shade": 0.1,
        "covered": 0.85,
        "rainEnjoyment": 0.55,
        "heatTolerance": 0.8,
        "confidence": 0.55
      },
      "openingHoursRaw": null,
      "tags": {}
    },
    {
      "id": "osm-6195681485",
      "osmId": 6195681485,
      "name": "moo Ping hea owen",
      "nameTh": null,
      "lat": 13.7280148,
      "lng": 100.5331773,
      "category": "restaurant",
      "profile": {
        "outdoorness": 0.2,
        "indoorness": 0.8,
        "shade": 0.1,
        "covered": 0.85,
        "rainEnjoyment": 0.55,
        "heatTolerance": 0.8,
        "confidence": 0.55
      },
      "openingHoursRaw": null,
      "tags": {}
    },
    {
      "id": "osm-6197266985",
      "osmId": 6197266985,
      "name": "Arno's",
      "nameTh": null,
      "lat": 13.7263498,
      "lng": 100.5311203,
      "category": "restaurant",
      "profile": {
        "outdoorness": 0.2,
        "indoorness": 0.8,
        "shade": 0.1,
        "covered": 0.85,
        "rainEnjoyment": 0.55,
        "heatTolerance": 0.8,
        "confidence": 0.55
      },
      "openingHoursRaw": "Mo-Su 11:00-23:00",
      "tags": {
        "cuisine": "burger;american;pasta;french;seafood;thai;asian;steak_house"
      }
    },
    {
      "id": "osm-6259620985",
      "osmId": 6259620985,
      "name": "MAHANAKHON SKYWALK",
      "nameTh": null,
      "lat": 13.7231503,
      "lng": 100.5280809,
      "category": "viewpoint",
      "profile": {
        "outdoorness": 0.95,
        "indoorness": 0.05,
        "shade": 0.05,
        "covered": 0.05,
        "rainEnjoyment": 0.05,
        "heatTolerance": 0.25,
        "confidence": 0.55
      },
      "openingHoursRaw": null,
      "tags": {}
    },
    {
      "id": "osm-6263926889",
      "osmId": 6263926889,
      "name": "ร้าน มีไวน์ ช้อป",
      "nameTh": "ร้าน มีไวน์ ช้อป",
      "lat": 13.7288451,
      "lng": 100.5357267,
      "category": "bar",
      "profile": {
        "outdoorness": 0.3,
        "indoorness": 0.7,
        "shade": 0.2,
        "covered": 0.7,
        "rainEnjoyment": 0.55,
        "heatTolerance": 0.8,
        "confidence": 0.55
      },
      "openingHoursRaw": "Mo-Sa 11:00-22:00",
      "tags": {}
    },
    {
      "id": "osm-6296929285",
      "osmId": 6296929285,
      "name": "The M Pub",
      "nameTh": null,
      "lat": 13.7208747,
      "lng": 100.5282082,
      "category": "bar",
      "profile": {
        "outdoorness": 0.3,
        "indoorness": 0.7,
        "shade": 0.2,
        "covered": 0.7,
        "rainEnjoyment": 0.55,
        "heatTolerance": 0.65,
        "confidence": 0.5
      },
      "openingHoursRaw": "Mo-Su 10:30-22:00+",
      "tags": {}
    },
    {
      "id": "osm-6317285787",
      "osmId": 6317285787,
      "name": "Brunch bowl",
      "nameTh": null,
      "lat": 13.7250289,
      "lng": 100.5448673,
      "category": "restaurant",
      "profile": {
        "outdoorness": 0.2,
        "indoorness": 0.8,
        "shade": 0.1,
        "covered": 0.85,
        "rainEnjoyment": 0.55,
        "heatTolerance": 0.8,
        "confidence": 0.55
      },
      "openingHoursRaw": null,
      "tags": {
        "cuisine": "asian;coffee_shop"
      }
    },
    {
      "id": "osm-6329138085",
      "osmId": 6329138085,
      "name": "Champaca's",
      "nameTh": null,
      "lat": 13.7219026,
      "lng": 100.5259732,
      "category": "restaurant",
      "profile": {
        "outdoorness": 0.2,
        "indoorness": 0.8,
        "shade": 0.1,
        "covered": 0.85,
        "rainEnjoyment": 0.55,
        "heatTolerance": 0.8,
        "confidence": 0.55
      },
      "openingHoursRaw": null,
      "tags": {
        "cuisine": "newzealandish"
      }
    },
    {
      "id": "osm-6339220785",
      "osmId": 6339220785,
      "name": "Guss Damn Good",
      "nameTh": null,
      "lat": 13.7268406,
      "lng": 100.5416662,
      "category": "cafe",
      "profile": {
        "outdoorness": 0.15,
        "indoorness": 0.85,
        "shade": 0.1,
        "covered": 0.9,
        "rainEnjoyment": 0.75,
        "heatTolerance": 0.85,
        "confidence": 0.6
      },
      "openingHoursRaw": null,
      "tags": {}
    },
    {
      "id": "osm-6512256289",
      "osmId": 6512256289,
      "name": "Mama Mia Bangkok",
      "nameTh": null,
      "lat": 13.7248008,
      "lng": 100.5230694,
      "category": "restaurant",
      "profile": {
        "outdoorness": 0.2,
        "indoorness": 0.8,
        "shade": 0.1,
        "covered": 0.85,
        "rainEnjoyment": 0.55,
        "heatTolerance": 0.8,
        "confidence": 0.55
      },
      "openingHoursRaw": "Mo 17:00-00:30; Tu-Sa 14:00-00:30",
      "tags": {
        "cuisine": "thai"
      }
    },
    {
      "id": "osm-6512256291",
      "osmId": 6512256291,
      "name": "Fresh Boys",
      "nameTh": null,
      "lat": 13.7297844,
      "lng": 100.5318537,
      "category": "bar",
      "profile": {
        "outdoorness": 0.3,
        "indoorness": 0.7,
        "shade": 0.2,
        "covered": 0.7,
        "rainEnjoyment": 0.55,
        "heatTolerance": 0.65,
        "confidence": 0.5
      },
      "openingHoursRaw": null,
      "tags": {}
    },
    {
      "id": "osm-6649748931",
      "osmId": 6649748931,
      "name": "The Coffee Club",
      "nameTh": null,
      "lat": 13.7244411,
      "lng": 100.5313669,
      "category": "cafe",
      "profile": {
        "outdoorness": 0.15,
        "indoorness": 0.85,
        "shade": 0.1,
        "covered": 0.9,
        "rainEnjoyment": 0.75,
        "heatTolerance": 0.85,
        "confidence": 0.6
      },
      "openingHoursRaw": null,
      "tags": {}
    },
    {
      "id": "osm-6754883485",
      "osmId": 6754883485,
      "name": "ข้าวหมูกรอบ",
      "nameTh": "ข้าวหมูกรอบ",
      "lat": 13.7250741,
      "lng": 100.5230534,
      "category": "restaurant",
      "profile": {
        "outdoorness": 0.2,
        "indoorness": 0.8,
        "shade": 0.1,
        "covered": 0.85,
        "rainEnjoyment": 0.55,
        "heatTolerance": 0.8,
        "confidence": 0.55
      },
      "openingHoursRaw": null,
      "tags": {}
    },
    {
      "id": "osm-7090675458",
      "osmId": 7090675458,
      "name": "Shenanigans Irish Sportsbar",
      "nameTh": null,
      "lat": 13.7297312,
      "lng": 100.5314828,
      "category": "bar",
      "profile": {
        "outdoorness": 0.3,
        "indoorness": 0.7,
        "shade": 0.2,
        "covered": 0.7,
        "rainEnjoyment": 0.55,
        "heatTolerance": 0.65,
        "confidence": 0.5
      },
      "openingHoursRaw": null,
      "tags": {}
    },
    {
      "id": "osm-7136730885",
      "osmId": 7136730885,
      "name": "HI-SO Rooftop Bar",
      "nameTh": null,
      "lat": 13.726097,
      "lng": 100.5432526,
      "category": "bar",
      "profile": {
        "outdoorness": 0.3,
        "indoorness": 0.7,
        "shade": 0.2,
        "covered": 0.7,
        "rainEnjoyment": 0.55,
        "heatTolerance": 0.65,
        "confidence": 0.5
      },
      "openingHoursRaw": "Mo-Su 17:00-00:30",
      "tags": {}
    },
    {
      "id": "osm-7140828585",
      "osmId": 7140828585,
      "name": "Saawaan",
      "nameTh": null,
      "lat": 13.7215417,
      "lng": 100.5374394,
      "category": "restaurant",
      "profile": {
        "outdoorness": 0.2,
        "indoorness": 0.8,
        "shade": 0.1,
        "covered": 0.85,
        "rainEnjoyment": 0.55,
        "heatTolerance": 0.8,
        "confidence": 0.55
      },
      "openingHoursRaw": null,
      "tags": {}
    }
  ]
}