{
  "district": "thonglor",
  "districtTh": "ทองหล่อ",
  "bbox": [
    13.725,
    100.568,
    13.747,
    100.591
  ],
  "fetchedAt": "2026-05-30T19:38:52.189Z",
  "count": 176,
  "pois": [
    {
      "id": "osm-2046503774",
      "osmId": 2046503774,
      "name": "Saigon Recipe",
      "nameTh": null,
      "lat": 13.7322226,
      "lng": 100.5765861,
      "category": "restaurant",
      "profile": {
        "outdoorness": 0.2,
        "indoorness": 0.8,
        "shade": 0.1,
        "covered": 0.85,
        "rainEnjoyment": 0.55,
        "heatTolerance": 0.8,
        "confidence": 0.55
      },
      "openingHoursRaw": null,
      "tags": {
        "outdoor_seating": "no",
        "cuisine": "vietnamese"
      }
    },
    {
      "id": "osm-2112274078",
      "osmId": 2112274078,
      "name": "kasa",
      "nameTh": null,
      "lat": 13.727727,
      "lng": 100.5739728,
      "category": "restaurant",
      "profile": {
        "outdoorness": 0.2,
        "indoorness": 0.8,
        "shade": 0.1,
        "covered": 0.85,
        "rainEnjoyment": 0.55,
        "heatTolerance": 0.8,
        "confidence": 0.55
      },
      "openingHoursRaw": "10:00-22:00",
      "tags": {
        "cuisine": "japanese"
      }
    },
    {
      "id": "osm-2112281670",
      "osmId": 2112281670,
      "name": "hong kong kitchen",
      "nameTh": null,
      "lat": 13.7277806,
      "lng": 100.5739453,
      "category": "restaurant",
      "profile": {
        "outdoorness": 0.2,
        "indoorness": 0.8,
        "shade": 0.1,
        "covered": 0.85,
        "rainEnjoyment": 0.55,
        "heatTolerance": 0.8,
        "confidence": 0.55
      },
      "openingHoursRaw": "10:00-22:00",
      "tags": {
        "cuisine": "chinese"
      }
    },
    {
      "id": "osm-2112308537",
      "osmId": 2112308537,
      "name": "Wine Connection",
      "nameTh": null,
      "lat": 13.7276006,
      "lng": 100.5741423,
      "category": "restaurant",
      "profile": {
        "outdoorness": 0.2,
        "indoorness": 0.8,
        "shade": 0.1,
        "covered": 0.85,
        "rainEnjoyment": 0.55,
        "heatTolerance": 0.8,
        "confidence": 0.55
      },
      "openingHoursRaw": "10:00-01:00",
      "tags": {}
    },
    {
      "id": "osm-2112320410",
      "osmId": 2112320410,
      "name": "marugame seimen",
      "nameTh": null,
      "lat": 13.7276707,
      "lng": 100.5742031,
      "category": "restaurant",
      "profile": {
        "outdoorness": 0.2,
        "indoorness": 0.8,
        "shade": 0.1,
        "covered": 0.85,
        "rainEnjoyment": 0.55,
        "heatTolerance": 0.8,
        "confidence": 0.55
      },
      "openingHoursRaw": "10:00-22:00",
      "tags": {
        "cuisine": "japanese"
      }
    },
    {
      "id": "osm-2112327580",
      "osmId": 2112327580,
      "name": "2046",
      "nameTh": null,
      "lat": 13.7277062,
      "lng": 100.5742051,
      "category": "restaurant",
      "profile": {
        "outdoorness": 0.2,
        "indoorness": 0.8,
        "shade": 0.1,
        "covered": 0.85,
        "rainEnjoyment": 0.55,
        "heatTolerance": 0.8,
        "confidence": 0.55
      },
      "openingHoursRaw": "Mo-Su 10:00-01:00",
      "tags": {
        "cuisine": "japanese"
      }
    },
    {
      "id": "osm-2112333649",
      "osmId": 2112333649,
      "name": "dontaku by tarajira",
      "nameTh": null,
      "lat": 13.7277411,
      "lng": 100.5742043,
      "category": "restaurant",
      "profile": {
        "outdoorness": 0.2,
        "indoorness": 0.8,
        "shade": 0.1,
        "covered": 0.85,
        "rainEnjoyment": 0.55,
        "heatTolerance": 0.8,
        "confidence": 0.55
      },
      "openingHoursRaw": "10:00-22:00",
      "tags": {
        "cuisine": "japanese"
      }
    },
    {
      "id": "osm-2112361152",
      "osmId": 2112361152,
      "name": "house of salad",
      "nameTh": null,
      "lat": 13.7280791,
      "lng": 100.5739548,
      "category": "restaurant",
      "profile": {
        "outdoorness": 0.2,
        "indoorness": 0.8,
        "shade": 0.1,
        "covered": 0.85,
        "rainEnjoyment": 0.55,
        "heatTolerance": 0.8,
        "confidence": 0.55
      },
      "openingHoursRaw": "10:00-22:00",
      "tags": {
        "cuisine": "health food"
      }
    },
    {
      "id": "osm-2112417772",
      "osmId": 2112417772,
      "name": "sweet it is",
      "nameTh": null,
      "lat": 13.727893,
      "lng": 100.5742115,
      "category": "cafe",
      "profile": {
        "outdoorness": 0.15,
        "indoorness": 0.85,
        "shade": 0.1,
        "covered": 0.9,
        "rainEnjoyment": 0.75,
        "heatTolerance": 0.85,
        "confidence": 0.6
      },
      "openingHoursRaw": "10:30-21:30",
      "tags": {
        "cuisine": "cake & tea"
      }
    },
    {
      "id": "osm-2112420629",
      "osmId": 2112420629,
      "name": "penguin likes chocolate",
      "nameTh": null,
      "lat": 13.7278611,
      "lng": 100.5742144,
      "category": "cafe",
      "profile": {
        "outdoorness": 0.15,
        "indoorness": 0.85,
        "shade": 0.1,
        "covered": 0.9,
        "rainEnjoyment": 0.75,
        "heatTolerance": 0.85,
        "confidence": 0.6
      },
      "openingHoursRaw": "10:00-22:00",
      "tags": {}
    },
    {
      "id": "osm-2112425504",
      "osmId": 2112425504,
      "name": "wine connection cellar shop",
      "nameTh": null,
      "lat": 13.727927,
      "lng": 100.5742107,
      "category": "restaurant",
      "profile": {
        "outdoorness": 0.2,
        "indoorness": 0.8,
        "shade": 0.1,
        "covered": 0.85,
        "rainEnjoyment": 0.55,
        "heatTolerance": 0.8,
        "confidence": 0.55
      },
      "openingHoursRaw": "10:00-22:00",
      "tags": {
        "cuisine": "italian"
      }
    },
    {
      "id": "osm-2112432213",
      "osmId": 2112432213,
      "name": "Som Tam Dok rak",
      "nameTh": null,
      "lat": 13.727977,
      "lng": 100.5741366,
      "category": "restaurant",
      "profile": {
        "outdoorness": 0.2,
        "indoorness": 0.8,
        "shade": 0.1,
        "covered": 0.85,
        "rainEnjoyment": 0.55,
        "heatTolerance": 0.8,
        "confidence": 0.55
      },
      "openingHoursRaw": "10:00-22:00",
      "tags": {
        "cuisine": "thai"
      }
    },
    {
      "id": "osm-2112444955",
      "osmId": 2112444955,
      "name": "west one",
      "nameTh": null,
      "lat": 13.7279394,
      "lng": 100.5741254,
      "category": "market",
      "profile": {
        "outdoorness": 0.45,
        "indoorness": 0.55,
        "shade": 0.6,
        "covered": 0.65,
        "rainEnjoyment": 0.35,
        "heatTolerance": 0.45,
        "confidence": 0.5
      },
      "openingHoursRaw": "11:00-21:00",
      "tags": {}
    },
    {
      "id": "osm-2112449108",
      "osmId": 2112449108,
      "name": "ra-men kio",
      "nameTh": null,
      "lat": 13.7279878,
      "lng": 100.5742143,
      "category": "restaurant",
      "profile": {
        "outdoorness": 0.2,
        "indoorness": 0.8,
        "shade": 0.1,
        "covered": 0.85,
        "rainEnjoyment": 0.55,
        "heatTolerance": 0.8,
        "confidence": 0.55
      },
      "openingHoursRaw": "10:00-22:00",
      "tags": {
        "cuisine": "japanese"
      }
    },
    {
      "id": "osm-2247852963",
      "osmId": 2247852963,
      "name": "di Vino",
      "nameTh": null,
      "lat": 13.7345405,
      "lng": 100.5831415,
      "category": "restaurant",
      "profile": {
        "outdoorness": 0.2,
        "indoorness": 0.8,
        "shade": 0.1,
        "covered": 0.85,
        "rainEnjoyment": 0.55,
        "heatTolerance": 0.8,
        "confidence": 0.55
      },
      "openingHoursRaw": null,
      "tags": {
        "cuisine": "italian"
      }
    },
    {
      "id": "osm-2337140177",
      "osmId": 2337140177,
      "name": "Bankara Ramen",
      "nameTh": null,
      "lat": 13.73479,
      "lng": 100.5720571,
      "category": "restaurant",
      "profile": {
        "outdoorness": 0.2,
        "indoorness": 0.8,
        "shade": 0.1,
        "covered": 0.85,
        "rainEnjoyment": 0.55,
        "heatTolerance": 0.8,
        "confidence": 0.55
      },
      "openingHoursRaw": null,
      "tags": {
        "cuisine": "japanese"
      }
    },
    {
      "id": "osm-2559644276",
      "osmId": 2559644276,
      "name": "Philippe",
      "nameTh": null,
      "lat": 13.7326093,
      "lng": 100.5711672,
      "category": "restaurant",
      "profile": {
        "outdoorness": 0.2,
        "indoorness": 0.8,
        "shade": 0.1,
        "covered": 0.85,
        "rainEnjoyment": 0.55,
        "heatTolerance": 0.8,
        "confidence": 0.55
      },
      "openingHoursRaw": null,
      "tags": {
        "cuisine": "french"
      }
    },
    {
      "id": "osm-2867259601",
      "osmId": 2867259601,
      "name": "Robin Hood",
      "nameTh": null,
      "lat": 13.7316933,
      "lng": 100.5682679,
      "category": "bar",
      "profile": {
        "outdoorness": 0.3,
        "indoorness": 0.7,
        "shade": 0.2,
        "covered": 0.7,
        "rainEnjoyment": 0.55,
        "heatTolerance": 0.65,
        "confidence": 0.5
      },
      "openingHoursRaw": null,
      "tags": {}
    },
    {
      "id": "osm-3047233815",
      "osmId": 3047233815,
      "name": "Dalian",
      "nameTh": "ต้าเหลียน",
      "lat": 13.7326395,
      "lng": 100.568073,
      "category": "restaurant",
      "profile": {
        "outdoorness": 0.2,
        "indoorness": 0.8,
        "shade": 0.1,
        "covered": 0.85,
        "rainEnjoyment": 0.55,
        "heatTolerance": 0.8,
        "confidence": 0.55
      },
      "openingHoursRaw": "Mo-Su 11:00-23:00",
      "tags": {
        "cuisine": "chinese"
      }
    },
    {
      "id": "osm-3049029172",
      "osmId": 3049029172,
      "name": "Ginza Do",
      "nameTh": null,
      "lat": 13.7265144,
      "lng": 100.569916,
      "category": "restaurant",
      "profile": {
        "outdoorness": 0.2,
        "indoorness": 0.8,
        "shade": 0.1,
        "covered": 0.85,
        "rainEnjoyment": 0.55,
        "heatTolerance": 0.8,
        "confidence": 0.55
      },
      "openingHoursRaw": null,
      "tags": {
        "cuisine": "japanese"
      }
    },
    {
      "id": "osm-3049029174",
      "osmId": 3049029174,
      "name": "Mint Restaurant",
      "nameTh": null,
      "lat": 13.7267408,
      "lng": 100.5697322,
      "category": "restaurant",
      "profile": {
        "outdoorness": 0.2,
        "indoorness": 0.8,
        "shade": 0.1,
        "covered": 0.85,
        "rainEnjoyment": 0.55,
        "heatTolerance": 0.8,
        "confidence": 0.55
      },
      "openingHoursRaw": null,
      "tags": {}
    },
    {
      "id": "osm-3084085276",
      "osmId": 3084085276,
      "name": "Tuba",
      "nameTh": null,
      "lat": 13.7383421,
      "lng": 100.5886342,
      "category": "bar",
      "profile": {
        "outdoorness": 0.3,
        "indoorness": 0.7,
        "shade": 0.2,
        "covered": 0.7,
        "rainEnjoyment": 0.55,
        "heatTolerance": 0.65,
        "confidence": 0.5
      },
      "openingHoursRaw": null,
      "tags": {}
    },
    {
      "id": "osm-3181780623",
      "osmId": 3181780623,
      "name": "Mikkeller",
      "nameTh": null,
      "lat": 13.7277732,
      "lng": 100.5884555,
      "category": "bar",
      "profile": {
        "outdoorness": 0.3,
        "indoorness": 0.7,
        "shade": 0.2,
        "covered": 0.7,
        "rainEnjoyment": 0.55,
        "heatTolerance": 0.65,
        "confidence": 0.5
      },
      "openingHoursRaw": "Mo-Su 17:00-00:00",
      "tags": {}
    },
    {
      "id": "osm-3245009563",
      "osmId": 3245009563,
      "name": "The Kebabry",
      "nameTh": null,
      "lat": 13.7324556,
      "lng": 100.5826841,
      "category": "restaurant",
      "profile": {
        "outdoorness": 0.2,
        "indoorness": 0.8,
        "shade": 0.1,
        "covered": 0.85,
        "rainEnjoyment": 0.55,
        "heatTolerance": 0.8,
        "confidence": 0.55
      },
      "openingHoursRaw": null,
      "tags": {
        "cuisine": "turkish"
      }
    },
    {
      "id": "osm-3245009564",
      "osmId": 3245009564,
      "name": "Wine Republic",
      "nameTh": null,
      "lat": 13.7324895,
      "lng": 100.5822447,
      "category": "bar",
      "profile": {
        "outdoorness": 0.3,
        "indoorness": 0.7,
        "shade": 0.2,
        "covered": 0.7,
        "rainEnjoyment": 0.55,
        "heatTolerance": 0.65,
        "confidence": 0.5
      },
      "openingHoursRaw": null,
      "tags": {}
    },
    {
      "id": "osm-3245774361",
      "osmId": 3245774361,
      "name": "Bombay Blues",
      "nameTh": null,
      "lat": 13.7322942,
      "lng": 100.5828233,
      "category": "bar",
      "profile": {
        "outdoorness": 0.3,
        "indoorness": 0.7,
        "shade": 0.2,
        "covered": 0.7,
        "rainEnjoyment": 0.55,
        "heatTolerance": 0.65,
        "confidence": 0.5
      },
      "openingHoursRaw": null,
      "tags": {}
    },
    {
      "id": "osm-3245774362",
      "osmId": 3245774362,
      "name": "Brew Pub",
      "nameTh": null,
      "lat": 13.7333223,
      "lng": 100.5812573,
      "category": "bar",
      "profile": {
        "outdoorness": 0.3,
        "indoorness": 0.7,
        "shade": 0.2,
        "covered": 0.7,
        "rainEnjoyment": 0.55,
        "heatTolerance": 0.65,
        "confidence": 0.5
      },
      "openingHoursRaw": null,
      "tags": {}
    },
    {
      "id": "osm-3245774363",
      "osmId": 3245774363,
      "name": "Crepes & Co.",
      "nameTh": null,
      "lat": 13.7308341,
      "lng": 100.581804,
      "category": "restaurant",
      "profile": {
        "outdoorness": 0.2,
        "indoorness": 0.8,
        "shade": 0.1,
        "covered": 0.85,
        "rainEnjoyment": 0.55,
        "heatTolerance": 0.8,
        "confidence": 0.55
      },
      "openingHoursRaw": null,
      "tags": {}
    },
    {
      "id": "osm-3245774364",
      "osmId": 3245774364,
      "name": "Fat Gut'z",
      "nameTh": null,
      "lat": 13.7334408,
      "lng": 100.5812873,
      "category": "bar",
      "profile": {
        "outdoorness": 0.3,
        "indoorness": 0.7,
        "shade": 0.2,
        "covered": 0.7,
        "rainEnjoyment": 0.55,
        "heatTolerance": 0.65,
        "confidence": 0.5
      },
      "openingHoursRaw": null,
      "tags": {}
    },
    {
      "id": "osm-3245774367",
      "osmId": 3245774367,
      "name": "Masala Art",
      "nameTh": null,
      "lat": 13.7307956,
      "lng": 100.5815919,
      "category": "restaurant",
      "profile": {
        "outdoorness": 0.2,
        "indoorness": 0.8,
        "shade": 0.1,
        "covered": 0.85,
        "rainEnjoyment": 0.55,
        "heatTolerance": 0.8,
        "confidence": 0.55
      },
      "openingHoursRaw": null,
      "tags": {
        "cuisine": "indian"
      }
    },
    {
      "id": "osm-3246091645",
      "osmId": 3246091645,
      "name": "Starbucks",
      "nameTh": "สตาร์บัคส์",
      "lat": 13.7264429,
      "lng": 100.5854862,
      "category": "cafe",
      "profile": {
        "outdoorness": 0.15,
        "indoorness": 0.85,
        "shade": 0.1,
        "covered": 0.9,
        "rainEnjoyment": 0.75,
        "heatTolerance": 0.85,
        "confidence": 0.6
      },
      "openingHoursRaw": null,
      "tags": {
        "cuisine": "coffee_shop"
      }
    },
    {
      "id": "osm-3246097463",
      "osmId": 3246097463,
      "name": "S&P Simply Delicious",
      "nameTh": null,
      "lat": 13.7272609,
      "lng": 100.5855962,
      "category": "restaurant",
      "profile": {
        "outdoorness": 0.2,
        "indoorness": 0.8,
        "shade": 0.1,
        "covered": 0.85,
        "rainEnjoyment": 0.55,
        "heatTolerance": 0.8,
        "confidence": 0.55
      },
      "openingHoursRaw": null,
      "tags": {}
    },
    {
      "id": "osm-3256755658",
      "osmId": 3256755658,
      "name": "Bangkok Bar",
      "nameTh": null,
      "lat": 13.7332914,
      "lng": 100.5828947,
      "category": "bar",
      "profile": {
        "outdoorness": 0.3,
        "indoorness": 0.7,
        "shade": 0.2,
        "covered": 0.7,
        "rainEnjoyment": 0.55,
        "heatTolerance": 0.65,
        "confidence": 0.5
      },
      "openingHoursRaw": null,
      "tags": {}
    },
    {
      "id": "osm-3256755659",
      "osmId": 3256755659,
      "name": "Bangkok Burger Co",
      "nameTh": null,
      "lat": 13.7325229,
      "lng": 100.5828877,
      "category": "restaurant",
      "profile": {
        "outdoorness": 0.2,
        "indoorness": 0.8,
        "shade": 0.1,
        "covered": 0.85,
        "rainEnjoyment": 0.55,
        "heatTolerance": 0.8,
        "confidence": 0.55
      },
      "openingHoursRaw": null,
      "tags": {}
    },
    {
      "id": "osm-3256756062",
      "osmId": 3256756062,
      "name": "Mellow",
      "nameTh": null,
      "lat": 13.7345511,
      "lng": 100.5829866,
      "category": "bar",
      "profile": {
        "outdoorness": 0.3,
        "indoorness": 0.7,
        "shade": 0.2,
        "covered": 0.7,
        "rainEnjoyment": 0.55,
        "heatTolerance": 0.65,
        "confidence": 0.5
      },
      "openingHoursRaw": null,
      "tags": {}
    },
    {
      "id": "osm-3256756064",
      "osmId": 3256756064,
      "name": "She Bar",
      "nameTh": null,
      "lat": 13.7343762,
      "lng": 100.5830879,
      "category": "bar",
      "profile": {
        "outdoorness": 0.3,
        "indoorness": 0.7,
        "shade": 0.2,
        "covered": 0.7,
        "rainEnjoyment": 0.55,
        "heatTolerance": 0.65,
        "confidence": 0.5
      },
      "openingHoursRaw": null,
      "tags": {}
    },
    {
      "id": "osm-3258826166",
      "osmId": 3258826166,
      "name": "Fondue",
      "nameTh": null,
      "lat": 13.7344528,
      "lng": 100.5798236,
      "category": "restaurant",
      "profile": {
        "outdoorness": 0.2,
        "indoorness": 0.8,
        "shade": 0.1,
        "covered": 0.85,
        "rainEnjoyment": 0.55,
        "heatTolerance": 0.8,
        "confidence": 0.55
      },
      "openingHoursRaw": null,
      "tags": {}
    },
    {
      "id": "osm-3258826167",
      "osmId": 3258826167,
      "name": "Genki Sushi",
      "nameTh": null,
      "lat": 13.7341846,
      "lng": 100.5795398,
      "category": "restaurant",
      "profile": {
        "outdoorness": 0.2,
        "indoorness": 0.8,
        "shade": 0.1,
        "covered": 0.85,
        "rainEnjoyment": 0.55,
        "heatTolerance": 0.8,
        "confidence": 0.55
      },
      "openingHoursRaw": null,
      "tags": {}
    },
    {
      "id": "osm-3258826168",
      "osmId": 3258826168,
      "name": "Sushi Shin",
      "nameTh": null,
      "lat": 13.7343601,
      "lng": 100.5795876,
      "category": "restaurant",
      "profile": {
        "outdoorness": 0.2,
        "indoorness": 0.8,
        "shade": 0.1,
        "covered": 0.85,
        "rainEnjoyment": 0.55,
        "heatTolerance": 0.8,
        "confidence": 0.55
      },
      "openingHoursRaw": null,
      "tags": {}
    },
    {
      "id": "osm-3258826170",
      "osmId": 3258826170,
      "name": "Tribeca",
      "nameTh": null,
      "lat": 13.734141,
      "lng": 100.5797375,
      "category": "bar",
      "profile": {
        "outdoorness": 0.3,
        "indoorness": 0.7,
        "shade": 0.2,
        "covered": 0.7,
        "rainEnjoyment": 0.55,
        "heatTolerance": 0.65,
        "confidence": 0.5
      },
      "openingHoursRaw": null,
      "tags": {}
    },
    {
      "id": "osm-3258826171",
      "osmId": 3258826171,
      "name": "Umenohana",
      "nameTh": null,
      "lat": 13.7345008,
      "lng": 100.5796344,
      "category": "restaurant",
      "profile": {
        "outdoorness": 0.2,
        "indoorness": 0.8,
        "shade": 0.1,
        "covered": 0.85,
        "rainEnjoyment": 0.55,
        "heatTolerance": 0.8,
        "confidence": 0.55
      },
      "openingHoursRaw": null,
      "tags": {}
    },
    {
      "id": "osm-3286552782",
      "osmId": 3286552782,
      "name": "Nang Kwak",
      "nameTh": null,
      "lat": 13.7326645,
      "lng": 100.5822892,
      "category": "bar",
      "profile": {
        "outdoorness": 0.3,
        "indoorness": 0.7,
        "shade": 0.2,
        "covered": 0.7,
        "rainEnjoyment": 0.55,
        "heatTolerance": 0.65,
        "confidence": 0.5
      },
      "openingHoursRaw": null,
      "tags": {}
    },
    {
      "id": "osm-3286552860",
      "osmId": 3286552860,
      "name": "Little Diner",
      "nameTh": null,
      "lat": 13.730743,
      "lng": 100.5813877,
      "category": "cafe",
      "profile": {
        "outdoorness": 0.15,
        "indoorness": 0.85,
        "shade": 0.1,
        "covered": 0.9,
        "rainEnjoyment": 0.75,
        "heatTolerance": 0.85,
        "confidence": 0.6
      },
      "openingHoursRaw": "Mo-Su 05:30-10:00, 10:30-22:00",
      "tags": {}
    },
    {
      "id": "osm-3287444808",
      "osmId": 3287444808,
      "name": "Destiny",
      "nameTh": null,
      "lat": 13.7375297,
      "lng": 100.588771,
      "category": "bar",
      "profile": {
        "outdoorness": 0.3,
        "indoorness": 0.7,
        "shade": 0.2,
        "covered": 0.7,
        "rainEnjoyment": 0.55,
        "heatTolerance": 0.65,
        "confidence": 0.5
      },
      "openingHoursRaw": null,
      "tags": {}
    },
    {
      "id": "osm-3291511403",
      "osmId": 3291511403,
      "name": "Sway Urban Eatery",
      "nameTh": null,
      "lat": 13.7323167,
      "lng": 100.5827563,
      "category": "restaurant",
      "profile": {
        "outdoorness": 0.2,
        "indoorness": 0.8,
        "shade": 0.1,
        "covered": 0.85,
        "rainEnjoyment": 0.55,
        "heatTolerance": 0.8,
        "confidence": 0.55
      },
      "openingHoursRaw": "1800-0200",
      "tags": {
        "cuisine": "wings;beer;thai;burger"
      }
    },
    {
      "id": "osm-3302160164",
      "osmId": 3302160164,
      "name": "Famous",
      "nameTh": null,
      "lat": 13.7261222,
      "lng": 100.5852057,
      "category": "restaurant",
      "profile": {
        "outdoorness": 0.2,
        "indoorness": 0.8,
        "shade": 0.1,
        "covered": 0.85,
        "rainEnjoyment": 0.55,
        "heatTolerance": 0.8,
        "confidence": 0.55
      },
      "openingHoursRaw": null,
      "tags": {}
    },
    {
      "id": "osm-3302160167",
      "osmId": 3302160167,
      "name": "SP Wine Bar",
      "nameTh": null,
      "lat": 13.7254915,
      "lng": 100.584835,
      "category": "restaurant",
      "profile": {
        "outdoorness": 0.2,
        "indoorness": 0.8,
        "shade": 0.1,
        "covered": 0.85,
        "rainEnjoyment": 0.55,
        "heatTolerance": 0.8,
        "confidence": 0.55
      },
      "openingHoursRaw": null,
      "tags": {}
    },
    {
      "id": "osm-3304690914",
      "osmId": 3304690914,
      "name": "S&P",
      "nameTh": null,
      "lat": 13.7385156,
      "lng": 100.5840053,
      "category": "restaurant",
      "profile": {
        "outdoorness": 0.2,
        "indoorness": 0.8,
        "shade": 0.1,
        "covered": 0.85,
        "rainEnjoyment": 0.55,
        "heatTolerance": 0.8,
        "confidence": 0.55
      },
      "openingHoursRaw": null,
      "tags": {}
    },
    {
      "id": "osm-3308150593",
      "osmId": 3308150593,
      "name": "After You",
      "nameTh": null,
      "lat": 13.7337266,
      "lng": 100.5813569,
      "category": "cafe",
      "profile": {
        "outdoorness": 0.15,
        "indoorness": 0.85,
        "shade": 0.1,
        "covered": 0.9,
        "rainEnjoyment": 0.75,
        "heatTolerance": 0.85,
        "confidence": 0.6
      },
      "openingHoursRaw": "Mo-Su 10:00-00:00",
      "tags": {}
    },
    {
      "id": "osm-3308150594",
      "osmId": 3308150594,
      "name": "Bon Bon Bar",
      "nameTh": null,
      "lat": 13.7333493,
      "lng": 100.5814951,
      "category": "bar",
      "profile": {
        "outdoorness": 0.3,
        "indoorness": 0.7,
        "shade": 0.2,
        "covered": 0.7,
        "rainEnjoyment": 0.55,
        "heatTolerance": 0.65,
        "confidence": 0.5
      },
      "openingHoursRaw": null,
      "tags": {}
    },
    {
      "id": "osm-3308150595",
      "osmId": 3308150595,
      "name": "Clouds",
      "nameTh": null,
      "lat": 13.7332159,
      "lng": 100.5813473,
      "category": "bar",
      "profile": {
        "outdoorness": 0.3,
        "indoorness": 0.7,
        "shade": 0.2,
        "covered": 0.7,
        "rainEnjoyment": 0.55,
        "heatTolerance": 0.65,
        "confidence": 0.5
      },
      "openingHoursRaw": null,
      "tags": {}
    },
    {
      "id": "osm-3308150596",
      "osmId": 3308150596,
      "name": "Misokatsu Yabaton",
      "nameTh": null,
      "lat": 13.7339065,
      "lng": 100.5812384,
      "category": "restaurant",
      "profile": {
        "outdoorness": 0.2,
        "indoorness": 0.8,
        "shade": 0.1,
        "covered": 0.85,
        "rainEnjoyment": 0.55,
        "heatTolerance": 0.8,
        "confidence": 0.55
      },
      "openingHoursRaw": null,
      "tags": {}
    },
    {
      "id": "osm-3308150597",
      "osmId": 3308150597,
      "name": "Sab Bar",
      "nameTh": null,
      "lat": 13.7337734,
      "lng": 100.5811927,
      "category": "bar",
      "profile": {
        "outdoorness": 0.3,
        "indoorness": 0.7,
        "shade": 0.2,
        "covered": 0.7,
        "rainEnjoyment": 0.55,
        "heatTolerance": 0.65,
        "confidence": 0.5
      },
      "openingHoursRaw": null,
      "tags": {}
    },
    {
      "id": "osm-3308150599",
      "osmId": 3308150599,
      "name": "Yuu Shabu-Suki",
      "nameTh": null,
      "lat": 13.734013,
      "lng": 100.5812764,
      "category": "restaurant",
      "profile": {
        "outdoorness": 0.2,
        "indoorness": 0.8,
        "shade": 0.1,
        "covered": 0.85,
        "rainEnjoyment": 0.55,
        "heatTolerance": 0.8,
        "confidence": 0.55
      },
      "openingHoursRaw": null,
      "tags": {}
    },
    {
      "id": "osm-3308150600",
      "osmId": 3308150600,
      "name": "Zoulviet",
      "nameTh": null,
      "lat": 13.7338202,
      "lng": 100.581384,
      "category": "restaurant",
      "profile": {
        "outdoorness": 0.2,
        "indoorness": 0.8,
        "shade": 0.1,
        "covered": 0.85,
        "rainEnjoyment": 0.55,
        "heatTolerance": 0.8,
        "confidence": 0.55
      },
      "openingHoursRaw": null,
      "tags": {}
    },
    {
      "id": "osm-3309232379",
      "osmId": 3309232379,
      "name": "Desi Beats",
      "nameTh": null,
      "lat": 13.7323773,
      "lng": 100.5827605,
      "category": "bar",
      "profile": {
        "outdoorness": 0.3,
        "indoorness": 0.7,
        "shade": 0.2,
        "covered": 0.7,
        "rainEnjoyment": 0.55,
        "heatTolerance": 0.65,
        "confidence": 0.5
      },
      "openingHoursRaw": null,
      "tags": {}
    },
    {
      "id": "osm-3309232380",
      "osmId": 3309232380,
      "name": "Don Sushi",
      "nameTh": null,
      "lat": 13.7324114,
      "lng": 100.58286,
      "category": "restaurant",
      "profile": {
        "outdoorness": 0.2,
        "indoorness": 0.8,
        "shade": 0.1,
        "covered": 0.85,
        "rainEnjoyment": 0.55,
        "heatTolerance": 0.8,
        "confidence": 0.55
      },
      "openingHoursRaw": null,
      "tags": {
        "cuisine": "turkish"
      }
    },
    {
      "id": "osm-3309232381",
      "osmId": 3309232381,
      "name": "Hotaru",
      "nameTh": null,
      "lat": 13.7325003,
      "lng": 100.5828034,
      "category": "bar",
      "profile": {
        "outdoorness": 0.3,
        "indoorness": 0.7,
        "shade": 0.2,
        "covered": 0.7,
        "rainEnjoyment": 0.55,
        "heatTolerance": 0.65,
        "confidence": 0.5
      },
      "openingHoursRaw": null,
      "tags": {}
    },
    {
      "id": "osm-3309232382",
      "osmId": 3309232382,
      "name": "Romane",
      "nameTh": null,
      "lat": 13.7321752,
      "lng": 100.5824838,
      "category": "bar",
      "profile": {
        "outdoorness": 0.3,
        "indoorness": 0.7,
        "shade": 0.2,
        "covered": 0.7,
        "rainEnjoyment": 0.55,
        "heatTolerance": 0.65,
        "confidence": 0.5
      },
      "openingHoursRaw": null,
      "tags": {}
    },
    {
      "id": "osm-3309232383",
      "osmId": 3309232383,
      "name": "Sabaijai Cafe",
      "nameTh": null,
      "lat": 13.7291172,
      "lng": 100.585737,
      "category": "cafe",
      "profile": {
        "outdoorness": 0.15,
        "indoorness": 0.85,
        "shade": 0.1,
        "covered": 0.9,
        "rainEnjoyment": 0.75,
        "heatTolerance": 0.85,
        "confidence": 0.6
      },
      "openingHoursRaw": null,
      "tags": {}
    },
    {
      "id": "osm-3309232384",
      "osmId": 3309232384,
      "name": "Stamina-en",
      "nameTh": null,
      "lat": 13.7325647,
      "lng": 100.5827224,
      "category": "restaurant",
      "profile": {
        "outdoorness": 0.2,
        "indoorness": 0.8,
        "shade": 0.1,
        "covered": 0.85,
        "rainEnjoyment": 0.55,
        "heatTolerance": 0.8,
        "confidence": 0.55
      },
      "openingHoursRaw": null,
      "tags": {}
    },
    {
      "id": "osm-3309946080",
      "osmId": 3309946080,
      "name": "Cha Cha Cha",
      "nameTh": null,
      "lat": 13.7342331,
      "lng": 100.5825066,
      "category": "cafe",
      "profile": {
        "outdoorness": 0.15,
        "indoorness": 0.85,
        "shade": 0.1,
        "covered": 0.9,
        "rainEnjoyment": 0.75,
        "heatTolerance": 0.85,
        "confidence": 0.6
      },
      "openingHoursRaw": null,
      "tags": {}
    },
    {
      "id": "osm-3316149337",
      "osmId": 3316149337,
      "name": "Calin",
      "nameTh": null,
      "lat": 13.7309963,
      "lng": 100.5818545,
      "category": "restaurant",
      "profile": {
        "outdoorness": 0.2,
        "indoorness": 0.8,
        "shade": 0.1,
        "covered": 0.85,
        "rainEnjoyment": 0.55,
        "heatTolerance": 0.8,
        "confidence": 0.55
      },
      "openingHoursRaw": null,
      "tags": {}
    },
    {
      "id": "osm-3316149340",
      "osmId": 3316149340,
      "name": "Katana",
      "nameTh": null,
      "lat": 13.7307493,
      "lng": 100.5817717,
      "category": "restaurant",
      "profile": {
        "outdoorness": 0.2,
        "indoorness": 0.8,
        "shade": 0.1,
        "covered": 0.85,
        "rainEnjoyment": 0.55,
        "heatTolerance": 0.8,
        "confidence": 0.55
      },
      "openingHoursRaw": null,
      "tags": {}
    },
    {
      "id": "osm-3316149341",
      "osmId": 3316149341,
      "name": "Tadaima",
      "nameTh": null,
      "lat": 13.7310238,
      "lng": 100.5817339,
      "category": "restaurant",
      "profile": {
        "outdoorness": 0.2,
        "indoorness": 0.8,
        "shade": 0.1,
        "covered": 0.85,
        "rainEnjoyment": 0.55,
        "heatTolerance": 0.8,
        "confidence": 0.55
      },
      "openingHoursRaw": null,
      "tags": {}
    },
    {
      "id": "osm-3316149342",
      "osmId": 3316149342,
      "name": "Took Laa Dee",
      "nameTh": null,
      "lat": 13.7309204,
      "lng": 100.5818285,
      "category": "restaurant",
      "profile": {
        "outdoorness": 0.2,
        "indoorness": 0.8,
        "shade": 0.1,
        "covered": 0.85,
        "rainEnjoyment": 0.55,
        "heatTolerance": 0.8,
        "confidence": 0.55
      },
      "openingHoursRaw": null,
      "tags": {}
    },
    {
      "id": "osm-3316149343",
      "osmId": 3316149343,
      "name": "Wine Collection",
      "nameTh": null,
      "lat": 13.7308883,
      "lng": 100.5816227,
      "category": "bar",
      "profile": {
        "outdoorness": 0.3,
        "indoorness": 0.7,
        "shade": 0.2,
        "covered": 0.7,
        "rainEnjoyment": 0.55,
        "heatTolerance": 0.65,
        "confidence": 0.5
      },
      "openingHoursRaw": null,
      "tags": {}
    },
    {
      "id": "osm-3316154679",
      "osmId": 3316154679,
      "name": "Greyhound Cafe",
      "nameTh": null,
      "lat": 13.7345691,
      "lng": 100.5823117,
      "category": "cafe",
      "profile": {
        "outdoorness": 0.15,
        "indoorness": 0.85,
        "shade": 0.1,
        "covered": 0.9,
        "rainEnjoyment": 0.75,
        "heatTolerance": 0.85,
        "confidence": 0.6
      },
      "openingHoursRaw": null,
      "tags": {}
    },
    {
      "id": "osm-3316629475",
      "osmId": 3316629475,
      "name": "Bonkura Izakaya",
      "nameTh": null,
      "lat": 13.7341166,
      "lng": 100.5798882,
      "category": "restaurant",
      "profile": {
        "outdoorness": 0.2,
        "indoorness": 0.8,
        "shade": 0.1,
        "covered": 0.85,
        "rainEnjoyment": 0.55,
        "heatTolerance": 0.8,
        "confidence": 0.55
      },
      "openingHoursRaw": null,
      "tags": {}
    },
    {
      "id": "osm-3316629476",
      "osmId": 3316629476,
      "name": "Gyu-Maru",
      "nameTh": null,
      "lat": 13.7342073,
      "lng": 100.5801558,
      "category": "restaurant",
      "profile": {
        "outdoorness": 0.2,
        "indoorness": 0.8,
        "shade": 0.1,
        "covered": 0.85,
        "rainEnjoyment": 0.55,
        "heatTolerance": 0.8,
        "confidence": 0.55
      },
      "openingHoursRaw": null,
      "tags": {}
    },
    {
      "id": "osm-3316629477",
      "osmId": 3316629477,
      "name": "Tamaya",
      "nameTh": null,
      "lat": 13.7342568,
      "lng": 100.5799249,
      "category": "restaurant",
      "profile": {
        "outdoorness": 0.2,
        "indoorness": 0.8,
        "shade": 0.1,
        "covered": 0.85,
        "rainEnjoyment": 0.55,
        "heatTolerance": 0.8,
        "confidence": 0.55
      },
      "openingHoursRaw": null,
      "tags": {}
    },
    {
      "id": "osm-3316629478",
      "osmId": 3316629478,
      "name": "Toraya",
      "nameTh": null,
      "lat": 13.734069,
      "lng": 100.5801286,
      "category": "other",
      "profile": {
        "outdoorness": 0.5,
        "indoorness": 0.5,
        "shade": 0.3,
        "covered": 0.5,
        "rainEnjoyment": 0.4,
        "heatTolerance": 0.5,
        "confidence": 0.3
      },
      "openingHoursRaw": null,
      "tags": {}
    },
    {
      "id": "osm-3316629479",
      "osmId": 3316629479,
      "name": "Uomasa",
      "nameTh": null,
      "lat": 13.7344018,
      "lng": 100.5799553,
      "category": "restaurant",
      "profile": {
        "outdoorness": 0.2,
        "indoorness": 0.8,
        "shade": 0.1,
        "covered": 0.85,
        "rainEnjoyment": 0.55,
        "heatTolerance": 0.8,
        "confidence": 0.55
      },
      "openingHoursRaw": null,
      "tags": {}
    },
    {
      "id": "osm-3316629480",
      "osmId": 3316629480,
      "name": "Woodstock",
      "nameTh": null,
      "lat": 13.7339612,
      "lng": 100.5798609,
      "category": "bar",
      "profile": {
        "outdoorness": 0.3,
        "indoorness": 0.7,
        "shade": 0.2,
        "covered": 0.7,
        "rainEnjoyment": 0.55,
        "heatTolerance": 0.65,
        "confidence": 0.5
      },
      "openingHoursRaw": null,
      "tags": {}
    },
    {
      "id": "osm-3332709428",
      "osmId": 3332709428,
      "name": "Cheesecake House & Restaurant",
      "nameTh": null,
      "lat": 13.7390476,
      "lng": 100.5868893,
      "category": "restaurant",
      "profile": {
        "outdoorness": 0.2,
        "indoorness": 0.8,
        "shade": 0.1,
        "covered": 0.85,
        "rainEnjoyment": 0.55,
        "heatTolerance": 0.8,
        "confidence": 0.55
      },
      "openingHoursRaw": null,
      "tags": {}
    },
    {
      "id": "osm-3332709429",
      "osmId": 3332709429,
      "name": "Kochujang",
      "nameTh": null,
      "lat": 13.7392781,
      "lng": 100.5856698,
      "category": "restaurant",
      "profile": {
        "outdoorness": 0.2,
        "indoorness": 0.8,
        "shade": 0.1,
        "covered": 0.85,
        "rainEnjoyment": 0.55,
        "heatTolerance": 0.8,
        "confidence": 0.55
      },
      "openingHoursRaw": null,
      "tags": {}
    },
    {
      "id": "osm-3335073542",
      "osmId": 3335073542,
      "name": "Pick Me Up",
      "nameTh": null,
      "lat": 13.7322658,
      "lng": 100.5822295,
      "category": "bar",
      "profile": {
        "outdoorness": 0.3,
        "indoorness": 0.7,
        "shade": 0.2,
        "covered": 0.7,
        "rainEnjoyment": 0.55,
        "heatTolerance": 0.65,
        "confidence": 0.5
      },
      "openingHoursRaw": null,
      "tags": {}
    },
    {
      "id": "osm-3338669340",
      "osmId": 3338669340,
      "name": "Oishi Japanese Buffet",
      "nameTh": null,
      "lat": 13.7260598,
      "lng": 100.5800571,
      "category": "restaurant",
      "profile": {
        "outdoorness": 0.2,
        "indoorness": 0.8,
        "shade": 0.1,
        "covered": 0.85,
        "rainEnjoyment": 0.55,
        "heatTolerance": 0.8,
        "confidence": 0.55
      },
      "openingHoursRaw": null,
      "tags": {}
    },
    {
      "id": "osm-3359177357",
      "osmId": 3359177357,
      "name": "Aji Dou Raku",
      "nameTh": null,
      "lat": 13.7270395,
      "lng": 100.5859068,
      "category": "restaurant",
      "profile": {
        "outdoorness": 0.2,
        "indoorness": 0.8,
        "shade": 0.1,
        "covered": 0.85,
        "rainEnjoyment": 0.55,
        "heatTolerance": 0.8,
        "confidence": 0.55
      },
      "openingHoursRaw": null,
      "tags": {
        "cuisine": "japanese"
      }
    },
    {
      "id": "osm-3382532121",
      "osmId": 3382532121,
      "name": "Cafe De Salil",
      "nameTh": null,
      "lat": 13.7272873,
      "lng": 100.57863,
      "category": "cafe",
      "profile": {
        "outdoorness": 0.35,
        "indoorness": 0.85,
        "shade": 0.2,
        "covered": 0.9,
        "rainEnjoyment": 0.75,
        "heatTolerance": 0.85,
        "confidence": 0.6
      },
      "openingHoursRaw": null,
      "tags": {
        "outdoor_seating": "yes",
        "cuisine": "american"
      }
    },
    {
      "id": "osm-3388204001",
      "osmId": 3388204001,
      "name": "Kiani",
      "nameTh": null,
      "lat": 13.726,
      "lng": 100.5802867,
      "category": "restaurant",
      "profile": {
        "outdoorness": 0.2,
        "indoorness": 0.8,
        "shade": 0.1,
        "covered": 0.85,
        "rainEnjoyment": 0.55,
        "heatTolerance": 0.8,
        "confidence": 0.55
      },
      "openingHoursRaw": null,
      "tags": {
        "cuisine": "korean"
      }
    },
    {
      "id": "osm-3388204002",
      "osmId": 3388204002,
      "name": "Ohsho Osaka",
      "nameTh": null,
      "lat": 13.72618,
      "lng": 100.5802932,
      "category": "restaurant",
      "profile": {
        "outdoorness": 0.2,
        "indoorness": 0.8,
        "shade": 0.1,
        "covered": 0.85,
        "rainEnjoyment": 0.55,
        "heatTolerance": 0.8,
        "confidence": 0.55
      },
      "openingHoursRaw": null,
      "tags": {}
    },
    {
      "id": "osm-3388204003",
      "osmId": 3388204003,
      "name": "See Fah",
      "nameTh": null,
      "lat": 13.7260895,
      "lng": 100.5800695,
      "category": "restaurant",
      "profile": {
        "outdoorness": 0.2,
        "indoorness": 0.8,
        "shade": 0.1,
        "covered": 0.85,
        "rainEnjoyment": 0.55,
        "heatTolerance": 0.8,
        "confidence": 0.55
      },
      "openingHoursRaw": null,
      "tags": {
        "cuisine": "thai"
      }
    },
    {
      "id": "osm-3388204004",
      "osmId": 3388204004,
      "name": "Tori Tori",
      "nameTh": null,
      "lat": 13.7259984,
      "lng": 100.5804233,
      "category": "restaurant",
      "profile": {
        "outdoorness": 0.2,
        "indoorness": 0.8,
        "shade": 0.1,
        "covered": 0.85,
        "rainEnjoyment": 0.55,
        "heatTolerance": 0.8,
        "confidence": 0.55
      },
      "openingHoursRaw": null,
      "tags": {}
    },
    {
      "id": "osm-3404236003",
      "osmId": 3404236003,
      "name": "Nikko Cafe",
      "nameTh": null,
      "lat": 13.729875,
      "lng": 100.5902198,
      "category": "cafe",
      "profile": {
        "outdoorness": 0.15,
        "indoorness": 0.85,
        "shade": 0.1,
        "covered": 0.9,
        "rainEnjoyment": 0.75,
        "heatTolerance": 0.85,
        "confidence": 0.6
      },
      "openingHoursRaw": null,
      "tags": {}
    },
    {
      "id": "osm-3404236004",
      "osmId": 3404236004,
      "name": "Red Den Bar & Bistro",
      "nameTh": null,
      "lat": 13.7298672,
      "lng": 100.5905289,
      "category": "restaurant",
      "profile": {
        "outdoorness": 0.2,
        "indoorness": 0.8,
        "shade": 0.1,
        "covered": 0.85,
        "rainEnjoyment": 0.55,
        "heatTolerance": 0.8,
        "confidence": 0.55
      },
      "openingHoursRaw": null,
      "tags": {}
    },
    {
      "id": "osm-3404236005",
      "osmId": 3404236005,
      "name": "Soulmade Yoga & Tearoom",
      "nameTh": null,
      "lat": 13.7298695,
      "lng": 100.5903488,
      "category": "cafe",
      "profile": {
        "outdoorness": 0.15,
        "indoorness": 0.85,
        "shade": 0.1,
        "covered": 0.9,
        "rainEnjoyment": 0.75,
        "heatTolerance": 0.85,
        "confidence": 0.6
      },
      "openingHoursRaw": null,
      "tags": {}
    },
    {
      "id": "osm-3404236305",
      "osmId": 3404236305,
      "name": "24 Owls by Sometime's",
      "nameTh": "AGE Burger",
      "lat": 13.730029,
      "lng": 100.5900696,
      "category": "restaurant",
      "profile": {
        "outdoorness": 0.2,
        "indoorness": 0.8,
        "shade": 0.1,
        "covered": 0.85,
        "rainEnjoyment": 0.55,
        "heatTolerance": 0.8,
        "confidence": 0.55
      },
      "openingHoursRaw": null,
      "tags": {}
    },
    {
      "id": "osm-3411187317",
      "osmId": 3411187317,
      "name": "Happy Monday",
      "nameTh": null,
      "lat": 13.7294477,
      "lng": 100.5864881,
      "category": "bar",
      "profile": {
        "outdoorness": 0.3,
        "indoorness": 0.7,
        "shade": 0.2,
        "covered": 0.7,
        "rainEnjoyment": 0.55,
        "heatTolerance": 0.65,
        "confidence": 0.5
      },
      "openingHoursRaw": null,
      "tags": {}
    },
    {
      "id": "osm-3411317363",
      "osmId": 3411317363,
      "name": "XYZ Ekkamai",
      "nameTh": null,
      "lat": 13.7293617,
      "lng": 100.586763,
      "category": "bar",
      "profile": {
        "outdoorness": 0.3,
        "indoorness": 0.7,
        "shade": 0.2,
        "covered": 0.7,
        "rainEnjoyment": 0.55,
        "heatTolerance": 0.65,
        "confidence": 0.5
      },
      "openingHoursRaw": "24/7",
      "tags": {}
    },
    {
      "id": "osm-3411317364",
      "osmId": 3411317364,
      "name": "Burger Factory",
      "nameTh": null,
      "lat": 13.7291676,
      "lng": 100.5866718,
      "category": "restaurant",
      "profile": {
        "outdoorness": 0.2,
        "indoorness": 0.8,
        "shade": 0.1,
        "covered": 0.85,
        "rainEnjoyment": 0.55,
        "heatTolerance": 0.8,
        "confidence": 0.55
      },
      "openingHoursRaw": null,
      "tags": {}
    },
    {
      "id": "osm-3411320375",
      "osmId": 3411320375,
      "name": "Blue Door",
      "nameTh": null,
      "lat": 13.7292731,
      "lng": 100.5867,
      "category": "cafe",
      "profile": {
        "outdoorness": 0.15,
        "indoorness": 0.85,
        "shade": 0.1,
        "covered": 0.9,
        "rainEnjoyment": 0.75,
        "heatTolerance": 0.85,
        "confidence": 0.6
      },
      "openingHoursRaw": null,
      "tags": {}
    },
    {
      "id": "osm-3411321242",
      "osmId": 3411321242,
      "name": "My Collection",
      "nameTh": null,
      "lat": 13.7294087,
      "lng": 100.5866356,
      "category": "restaurant",
      "profile": {
        "outdoorness": 0.2,
        "indoorness": 0.8,
        "shade": 0.1,
        "covered": 0.85,
        "rainEnjoyment": 0.55,
        "heatTolerance": 0.8,
        "confidence": 0.55
      },
      "openingHoursRaw": null,
      "tags": {}
    },
    {
      "id": "osm-3444472377",
      "osmId": 3444472377,
      "name": "สตาร์บัคส์",
      "nameTh": "สตาร์บัคส์",
      "lat": 13.7295953,
      "lng": 100.5691937,
      "category": "cafe",
      "profile": {
        "outdoorness": 0.15,
        "indoorness": 0.85,
        "shade": 0.1,
        "covered": 0.9,
        "rainEnjoyment": 0.75,
        "heatTolerance": 0.85,
        "confidence": 0.6
      },
      "openingHoursRaw": null,
      "tags": {
        "cuisine": "coffee_shop"
      }
    },
    {
      "id": "osm-3450709064",
      "osmId": 3450709064,
      "name": "Segafredo Zanetti",
      "nameTh": null,
      "lat": 13.7289737,
      "lng": 100.5721212,
      "category": "cafe",
      "profile": {
        "outdoorness": 0.15,
        "indoorness": 0.85,
        "shade": 0.1,
        "covered": 0.9,
        "rainEnjoyment": 0.75,
        "heatTolerance": 0.85,
        "confidence": 0.6
      },
      "openingHoursRaw": null,
      "tags": {}
    },
    {
      "id": "osm-3451525235",
      "osmId": 3451525235,
      "name": "The Greek",
      "nameTh": null,
      "lat": 13.7302006,
      "lng": 100.5767738,
      "category": "restaurant",
      "profile": {
        "outdoorness": 0.2,
        "indoorness": 0.8,
        "shade": 0.1,
        "covered": 0.85,
        "rainEnjoyment": 0.55,
        "heatTolerance": 0.8,
        "confidence": 0.55
      },
      "openingHoursRaw": null,
      "tags": {
        "cuisine": "greek"
      }
    },
    {
      "id": "osm-3451531062",
      "osmId": 3451531062,
      "name": "Yasashii",
      "nameTh": null,
      "lat": 13.7320164,
      "lng": 100.5759293,
      "category": "restaurant",
      "profile": {
        "outdoorness": 0.2,
        "indoorness": 0.8,
        "shade": 0.1,
        "covered": 0.85,
        "rainEnjoyment": 0.55,
        "heatTolerance": 0.8,
        "confidence": 0.55
      },
      "openingHoursRaw": null,
      "tags": {}
    },
    {
      "id": "osm-3451531063",
      "osmId": 3451531063,
      "name": "La Bottega",
      "nameTh": null,
      "lat": 13.7321548,
      "lng": 100.5761844,
      "category": "restaurant",
      "profile": {
        "outdoorness": 0.2,
        "indoorness": 0.8,
        "shade": 0.1,
        "covered": 0.85,
        "rainEnjoyment": 0.55,
        "heatTolerance": 0.8,
        "confidence": 0.55
      },
      "openingHoursRaw": null,
      "tags": {}
    },
    {
      "id": "osm-3457292688",
      "osmId": 3457292688,
      "name": "Demi",
      "nameTh": null,
      "lat": 13.7290791,
      "lng": 100.5756647,
      "category": "restaurant",
      "profile": {
        "outdoorness": 0.2,
        "indoorness": 0.8,
        "shade": 0.1,
        "covered": 0.85,
        "rainEnjoyment": 0.55,
        "heatTolerance": 0.8,
        "confidence": 0.55
      },
      "openingHoursRaw": null,
      "tags": {
        "cuisine": "taiwanese"
      }
    },
    {
      "id": "osm-3474877997",
      "osmId": 3474877997,
      "name": "Homeland",
      "nameTh": null,
      "lat": 13.7425233,
      "lng": 100.571757,
      "category": "restaurant",
      "profile": {
        "outdoorness": 0.2,
        "indoorness": 0.8,
        "shade": 0.1,
        "covered": 0.85,
        "rainEnjoyment": 0.55,
        "heatTolerance": 0.8,
        "confidence": 0.55
      },
      "openingHoursRaw": "Mo-Su 08:00-17:00",
      "tags": {}
    },
    {
      "id": "osm-3474975650",
      "osmId": 3474975650,
      "name": "Cafe Mezzo",
      "nameTh": null,
      "lat": 13.7468926,
      "lng": 100.5737793,
      "category": "cafe",
      "profile": {
        "outdoorness": 0.15,
        "indoorness": 0.85,
        "shade": 0.1,
        "covered": 0.9,
        "rainEnjoyment": 0.75,
        "heatTolerance": 0.85,
        "confidence": 0.6
      },
      "openingHoursRaw": null,
      "tags": {}
    },
    {
      "id": "osm-3477041550",
      "osmId": 3477041550,
      "name": "Coca Suki Restaurant",
      "nameTh": null,
      "lat": 13.7304336,
      "lng": 100.5704586,
      "category": "restaurant",
      "profile": {
        "outdoorness": 0.2,
        "indoorness": 0.8,
        "shade": 0.1,
        "covered": 0.85,
        "rainEnjoyment": 0.55,
        "heatTolerance": 0.8,
        "confidence": 0.55
      },
      "openingHoursRaw": "Mo-Su 11:00-22:00",
      "tags": {
        "cuisine": "thai;chinese"
      }
    },
    {
      "id": "osm-3477111210",
      "osmId": 3477111210,
      "name": "X Wine Z",
      "nameTh": null,
      "lat": 13.734777,
      "lng": 100.5717753,
      "category": "restaurant",
      "profile": {
        "outdoorness": 0.2,
        "indoorness": 0.8,
        "shade": 0.1,
        "covered": 0.85,
        "rainEnjoyment": 0.55,
        "heatTolerance": 0.8,
        "confidence": 0.55
      },
      "openingHoursRaw": null,
      "tags": {}
    },
    {
      "id": "osm-3484242821",
      "osmId": 3484242821,
      "name": "Watermark",
      "nameTh": null,
      "lat": 13.7318734,
      "lng": 100.579539,
      "category": "restaurant",
      "profile": {
        "outdoorness": 0.2,
        "indoorness": 0.8,
        "shade": 0.1,
        "covered": 0.85,
        "rainEnjoyment": 0.55,
        "heatTolerance": 0.8,
        "confidence": 0.55
      },
      "openingHoursRaw": null,
      "tags": {}
    },
    {
      "id": "osm-3484249122",
      "osmId": 3484249122,
      "name": "Le Jardin",
      "nameTh": null,
      "lat": 13.7332881,
      "lng": 100.5800859,
      "category": "restaurant",
      "profile": {
        "outdoorness": 0.2,
        "indoorness": 0.8,
        "shade": 0.1,
        "covered": 0.85,
        "rainEnjoyment": 0.55,
        "heatTolerance": 0.8,
        "confidence": 0.55
      },
      "openingHoursRaw": null,
      "tags": {}
    },
    {
      "id": "osm-3497368012",
      "osmId": 3497368012,
      "name": "Umi",
      "nameTh": null,
      "lat": 13.7322584,
      "lng": 100.5765142,
      "category": "restaurant",
      "profile": {
        "outdoorness": 0.2,
        "indoorness": 0.8,
        "shade": 0.1,
        "covered": 0.85,
        "rainEnjoyment": 0.55,
        "heatTolerance": 0.8,
        "confidence": 0.55
      },
      "openingHoursRaw": "Tu-Su 18:00-23:00",
      "tags": {
        "cuisine": "sushi"
      }
    },
    {
      "id": "osm-3544881175",
      "osmId": 3544881175,
      "name": "WTF Gallery",
      "nameTh": null,
      "lat": 13.726618,
      "lng": 100.5761862,
      "category": "museum",
      "profile": {
        "outdoorness": 0.05,
        "indoorness": 0.95,
        "shade": 0,
        "covered": 1,
        "rainEnjoyment": 0.65,
        "heatTolerance": 0.9,
        "confidence": 0.7
      },
      "openingHoursRaw": "Tu-Su 17:00-02:00",
      "tags": {}
    },
    {
      "id": "osm-3544883110",
      "osmId": 3544883110,
      "name": "Royal Oak",
      "nameTh": null,
      "lat": 13.732406,
      "lng": 100.5684563,
      "category": "bar",
      "profile": {
        "outdoorness": 0.3,
        "indoorness": 0.7,
        "shade": 0.2,
        "covered": 0.7,
        "rainEnjoyment": 0.55,
        "heatTolerance": 0.65,
        "confidence": 0.5
      },
      "openingHoursRaw": null,
      "tags": {}
    },
    {
      "id": "osm-3778156479",
      "osmId": 3778156479,
      "name": "คราม",
      "nameTh": "คราม",
      "lat": 13.7429816,
      "lng": 100.5715912,
      "category": "restaurant",
      "profile": {
        "outdoorness": 0.2,
        "indoorness": 0.8,
        "shade": 0.1,
        "covered": 0.85,
        "rainEnjoyment": 0.55,
        "heatTolerance": 0.8,
        "confidence": 0.55
      },
      "openingHoursRaw": null,
      "tags": {}
    },
    {
      "id": "osm-3778175295",
      "osmId": 3778175295,
      "name": "La Creperie",
      "nameTh": null,
      "lat": 13.7403232,
      "lng": 100.5727237,
      "category": "restaurant",
      "profile": {
        "outdoorness": 0.2,
        "indoorness": 0.8,
        "shade": 0.1,
        "covered": 0.85,
        "rainEnjoyment": 0.55,
        "heatTolerance": 0.8,
        "confidence": 0.55
      },
      "openingHoursRaw": null,
      "tags": {}
    },
    {
      "id": "osm-3924260422",
      "osmId": 3924260422,
      "name": "Rosemary",
      "nameTh": null,
      "lat": 13.7326751,
      "lng": 100.5817278,
      "category": "restaurant",
      "profile": {
        "outdoorness": 0.2,
        "indoorness": 0.8,
        "shade": 0.1,
        "covered": 0.85,
        "rainEnjoyment": 0.55,
        "heatTolerance": 0.8,
        "confidence": 0.55
      },
      "openingHoursRaw": null,
      "tags": {}
    },
    {
      "id": "osm-3924260423",
      "osmId": 3924260423,
      "name": "Sweetery",
      "nameTh": null,
      "lat": 13.7327405,
      "lng": 100.5815775,
      "category": "cafe",
      "profile": {
        "outdoorness": 0.15,
        "indoorness": 0.85,
        "shade": 0.1,
        "covered": 0.9,
        "rainEnjoyment": 0.75,
        "heatTolerance": 0.85,
        "confidence": 0.6
      },
      "openingHoursRaw": null,
      "tags": {}
    },
    {
      "id": "osm-3924265648",
      "osmId": 3924265648,
      "name": "Yogurtland",
      "nameTh": null,
      "lat": 13.7314304,
      "lng": 100.5685995,
      "category": "other",
      "profile": {
        "outdoorness": 0.5,
        "indoorness": 0.5,
        "shade": 0.3,
        "covered": 0.5,
        "rainEnjoyment": 0.4,
        "heatTolerance": 0.5,
        "confidence": 0.3
      },
      "openingHoursRaw": null,
      "tags": {
        "cuisine": "frozen_yogurt"
      }
    },
    {
      "id": "osm-3924265650",
      "osmId": 3924265650,
      "name": "Cha Cha An",
      "nameTh": null,
      "lat": 13.7291169,
      "lng": 100.5882661,
      "category": "restaurant",
      "profile": {
        "outdoorness": 0.2,
        "indoorness": 0.8,
        "shade": 0.1,
        "covered": 0.85,
        "rainEnjoyment": 0.55,
        "heatTolerance": 0.8,
        "confidence": 0.55
      },
      "openingHoursRaw": "Mo-Su 11:30-22:00",
      "tags": {
        "cuisine": "japanese"
      }
    },
    {
      "id": "osm-3924275146",
      "osmId": 3924275146,
      "name": "Hamakatsu",
      "nameTh": null,
      "lat": 13.7327077,
      "lng": 100.5819698,
      "category": "restaurant",
      "profile": {
        "outdoorness": 0.2,
        "indoorness": 0.8,
        "shade": 0.1,
        "covered": 0.85,
        "rainEnjoyment": 0.55,
        "heatTolerance": 0.8,
        "confidence": 0.55
      },
      "openingHoursRaw": null,
      "tags": {}
    },
    {
      "id": "osm-3924275147",
      "osmId": 3924275147,
      "name": "Iron Chef Table",
      "nameTh": null,
      "lat": 13.7325968,
      "lng": 100.5819301,
      "category": "restaurant",
      "profile": {
        "outdoorness": 0.2,
        "indoorness": 0.8,
        "shade": 0.1,
        "covered": 0.85,
        "rainEnjoyment": 0.55,
        "heatTolerance": 0.8,
        "confidence": 0.55
      },
      "openingHoursRaw": null,
      "tags": {}
    },
    {
      "id": "osm-3928970135",
      "osmId": 3928970135,
      "name": "Baan Ice",
      "nameTh": null,
      "lat": 13.7290826,
      "lng": 100.5807186,
      "category": "restaurant",
      "profile": {
        "outdoorness": 0.2,
        "indoorness": 0.8,
        "shade": 0.1,
        "covered": 0.85,
        "rainEnjoyment": 0.55,
        "heatTolerance": 0.8,
        "confidence": 0.55
      },
      "openingHoursRaw": null,
      "tags": {}
    },
    {
      "id": "osm-3963970516",
      "osmId": 3963970516,
      "name": "Time Out",
      "nameTh": null,
      "lat": 13.7289511,
      "lng": 100.5715169,
      "category": "restaurant",
      "profile": {
        "outdoorness": 0.2,
        "indoorness": 0.8,
        "shade": 0.1,
        "covered": 0.85,
        "rainEnjoyment": 0.55,
        "heatTolerance": 0.8,
        "confidence": 0.55
      },
      "openingHoursRaw": null,
      "tags": {}
    },
    {
      "id": "osm-4054012349",
      "osmId": 4054012349,
      "name": "Roast",
      "nameTh": null,
      "lat": 13.7350155,
      "lng": 100.5822846,
      "category": "restaurant",
      "profile": {
        "outdoorness": 0.2,
        "indoorness": 0.8,
        "shade": 0.1,
        "covered": 0.85,
        "rainEnjoyment": 0.55,
        "heatTolerance": 0.8,
        "confidence": 0.55
      },
      "openingHoursRaw": null,
      "tags": {
        "cuisine": "international"
      }
    },
    {
      "id": "osm-4054014117",
      "osmId": 4054014117,
      "name": "Beer Cap",
      "nameTh": null,
      "lat": 13.7349921,
      "lng": 100.5821961,
      "category": "bar",
      "profile": {
        "outdoorness": 0.3,
        "indoorness": 0.7,
        "shade": 0.2,
        "covered": 0.7,
        "rainEnjoyment": 0.55,
        "heatTolerance": 0.65,
        "confidence": 0.5
      },
      "openingHoursRaw": null,
      "tags": {}
    },
    {
      "id": "osm-4119132189",
      "osmId": 4119132189,
      "name": "Casa Lapin x26",
      "nameTh": null,
      "lat": 13.7267425,
      "lng": 100.5699421,
      "category": "cafe",
      "profile": {
        "outdoorness": 0.15,
        "indoorness": 0.85,
        "shade": 0.1,
        "covered": 0.9,
        "rainEnjoyment": 0.75,
        "heatTolerance": 0.85,
        "confidence": 0.6
      },
      "openingHoursRaw": "Mo-Su 07:30-22:00",
      "tags": {
        "cuisine": "cake;international;coffee_shop;tea"
      }
    },
    {
      "id": "osm-4119155001",
      "osmId": 4119155001,
      "name": "Im Chan",
      "nameTh": null,
      "lat": 13.7294098,
      "lng": 100.5709734,
      "category": "restaurant",
      "profile": {
        "outdoorness": 0.2,
        "indoorness": 0.8,
        "shade": 0.1,
        "covered": 0.85,
        "rainEnjoyment": 0.55,
        "heatTolerance": 0.8,
        "confidence": 0.55
      },
      "openingHoursRaw": "Mo-Su 09:00-21:00",
      "tags": {
        "cuisine": "thai"
      }
    },
    {
      "id": "osm-4133234291",
      "osmId": 4133234291,
      "name": "Sustaina",
      "nameTh": null,
      "lat": 13.7303656,
      "lng": 100.5702211,
      "category": "restaurant",
      "profile": {
        "outdoorness": 0.2,
        "indoorness": 0.8,
        "shade": 0.1,
        "covered": 0.85,
        "rainEnjoyment": 0.55,
        "heatTolerance": 0.8,
        "confidence": 0.55
      },
      "openingHoursRaw": "Mo-Su 10:00-20:30",
      "tags": {}
    },
    {
      "id": "osm-4145858190",
      "osmId": 4145858190,
      "name": "Taburete",
      "nameTh": null,
      "lat": 13.7298747,
      "lng": 100.56937,
      "category": "restaurant",
      "profile": {
        "outdoorness": 0.2,
        "indoorness": 0.8,
        "shade": 0.1,
        "covered": 0.85,
        "rainEnjoyment": 0.55,
        "heatTolerance": 0.8,
        "confidence": 0.55
      },
      "openingHoursRaw": "Su closed",
      "tags": {
        "cuisine": "spanish"
      }
    },
    {
      "id": "osm-4148034689",
      "osmId": 4148034689,
      "name": "วัฒนาพานิช",
      "nameTh": "วัฒนาพานิช",
      "lat": 13.7341744,
      "lng": 100.5877215,
      "category": "restaurant",
      "profile": {
        "outdoorness": 0.2,
        "indoorness": 0.8,
        "shade": 0.1,
        "covered": 0.85,
        "rainEnjoyment": 0.55,
        "heatTolerance": 0.8,
        "confidence": 0.55
      },
      "openingHoursRaw": "Mo-Su 10:00-19:00",
      "tags": {
        "cuisine": "noodles;thai"
      }
    },
    {
      "id": "osm-4159021308",
      "osmId": 4159021308,
      "name": "Rasayana Retreat",
      "nameTh": null,
      "lat": 13.7351145,
      "lng": 100.5734284,
      "category": "restaurant",
      "profile": {
        "outdoorness": 0.2,
        "indoorness": 0.8,
        "shade": 0.1,
        "covered": 0.85,
        "rainEnjoyment": 0.55,
        "heatTolerance": 0.8,
        "confidence": 0.55
      },
      "openingHoursRaw": "Mo-Su 09:00-21:00",
      "tags": {}
    },
    {
      "id": "osm-4162576389",
      "osmId": 4162576389,
      "name": "Tonic - Refreshingly Wholesome",
      "nameTh": null,
      "lat": 13.742797,
      "lng": 100.5718563,
      "category": "restaurant",
      "profile": {
        "outdoorness": 0.2,
        "indoorness": 0.8,
        "shade": 0.1,
        "covered": 0.85,
        "rainEnjoyment": 0.55,
        "heatTolerance": 0.8,
        "confidence": 0.55
      },
      "openingHoursRaw": "Mo-Su 09:00-20:00",
      "tags": {
        "cuisine": "international"
      }
    },
    {
      "id": "osm-4186229989",
      "osmId": 4186229989,
      "name": "แสงชัยโภชนา",
      "nameTh": "แสงชัยโภชนา",
      "lat": 13.7265305,
      "lng": 100.57496,
      "category": "restaurant",
      "profile": {
        "outdoorness": 0.2,
        "indoorness": 0.8,
        "shade": 0.1,
        "covered": 0.85,
        "rainEnjoyment": 0.55,
        "heatTolerance": 0.8,
        "confidence": 0.55
      },
      "openingHoursRaw": null,
      "tags": {}
    },
    {
      "id": "osm-4188631089",
      "osmId": 4188631089,
      "name": "Khua Kling + Pak Sod",
      "nameTh": null,
      "lat": 13.7288183,
      "lng": 100.5791955,
      "category": "restaurant",
      "profile": {
        "outdoorness": 0.2,
        "indoorness": 0.8,
        "shade": 0.1,
        "covered": 0.85,
        "rainEnjoyment": 0.55,
        "heatTolerance": 0.8,
        "confidence": 0.55
      },
      "openingHoursRaw": "Mo-Su,PH 11:00-21:30",
      "tags": {
        "cuisine": "thai"
      }
    },
    {
      "id": "osm-4192741189",
      "osmId": 4192741189,
      "name": "Supanigga Eating Room",
      "nameTh": null,
      "lat": 13.7304519,
      "lng": 100.5814961,
      "category": "restaurant",
      "profile": {
        "outdoorness": 0.2,
        "indoorness": 0.8,
        "shade": 0.1,
        "covered": 0.85,
        "rainEnjoyment": 0.55,
        "heatTolerance": 0.8,
        "confidence": 0.55
      },
      "openingHoursRaw": null,
      "tags": {
        "cuisine": "thai"
      }
    },
    {
      "id": "osm-4242298393",
      "osmId": 4242298393,
      "name": "รุ่งเรือง (ตั๋ง)",
      "nameTh": null,
      "lat": 13.7283099,
      "lng": 100.5704644,
      "category": "restaurant",
      "profile": {
        "outdoorness": 0.2,
        "indoorness": 0.8,
        "shade": 0.1,
        "covered": 0.85,
        "rainEnjoyment": 0.55,
        "heatTolerance": 0.8,
        "confidence": 0.55
      },
      "openingHoursRaw": null,
      "tags": {}
    },
    {
      "id": "osm-4393328789",
      "osmId": 4393328789,
      "name": "Siam Wisdom",
      "nameTh": "Siam Wisdom",
      "lat": 13.7408461,
      "lng": 100.5681652,
      "category": "restaurant",
      "profile": {
        "outdoorness": 0.2,
        "indoorness": 0.8,
        "shade": 0.1,
        "covered": 0.85,
        "rainEnjoyment": 0.55,
        "heatTolerance": 0.8,
        "confidence": 0.55
      },
      "openingHoursRaw": null,
      "tags": {}
    },
    {
      "id": "osm-4414274719",
      "osmId": 4414274719,
      "name": "เนื้อคู่",
      "nameTh": "เนื้อคู่",
      "lat": 13.7323563,
      "lng": 100.5819502,
      "category": "restaurant",
      "profile": {
        "outdoorness": 0.2,
        "indoorness": 0.8,
        "shade": 0.1,
        "covered": 0.85,
        "rainEnjoyment": 0.55,
        "heatTolerance": 0.8,
        "confidence": 0.55
      },
      "openingHoursRaw": null,
      "tags": {
        "cuisine": "steak_house"
      }
    },
    {
      "id": "osm-4414294591",
      "osmId": 4414294591,
      "name": "บ๊วยโภชนา",
      "nameTh": "บ๊วยโภชนา",
      "lat": 13.7328009,
      "lng": 100.5822707,
      "category": "restaurant",
      "profile": {
        "outdoorness": 0.2,
        "indoorness": 0.8,
        "shade": 0.1,
        "covered": 0.85,
        "rainEnjoyment": 0.55,
        "heatTolerance": 0.8,
        "confidence": 0.55
      },
      "openingHoursRaw": "Mo-Su 08:30-17:00",
      "tags": {
        "cuisine": "chinese;noodles"
      }
    },
    {
      "id": "osm-4425921494",
      "osmId": 4425921494,
      "name": "Honmono",
      "nameTh": "Honmono",
      "lat": 13.738257,
      "lng": 100.58203,
      "category": "restaurant",
      "profile": {
        "outdoorness": 0.2,
        "indoorness": 0.8,
        "shade": 0.1,
        "covered": 0.85,
        "rainEnjoyment": 0.55,
        "heatTolerance": 0.8,
        "confidence": 0.55
      },
      "openingHoursRaw": null,
      "tags": {}
    },
    {
      "id": "osm-4466271401",
      "osmId": 4466271401,
      "name": "ร้านอาหารญี่ปุ่นเทนโดะ",
      "nameTh": "ร้านอาหารญี่ปุ่นเทนโดะ",
      "lat": 13.7254187,
      "lng": 100.5777694,
      "category": "restaurant",
      "profile": {
        "outdoorness": 0.2,
        "indoorness": 0.8,
        "shade": 0.1,
        "covered": 0.85,
        "rainEnjoyment": 0.55,
        "heatTolerance": 0.8,
        "confidence": 0.55
      },
      "openingHoursRaw": null,
      "tags": {
        "cuisine": "sushi;japanese"
      }
    },
    {
      "id": "osm-4474611667",
      "osmId": 4474611667,
      "name": "Opera Ristorante",
      "nameTh": null,
      "lat": 13.7368349,
      "lng": 100.5715656,
      "category": "restaurant",
      "profile": {
        "outdoorness": 0.2,
        "indoorness": 0.8,
        "shade": 0.1,
        "covered": 0.85,
        "rainEnjoyment": 0.55,
        "heatTolerance": 0.8,
        "confidence": 0.55
      },
      "openingHoursRaw": "Mo-Su 12:00-00:00",
      "tags": {
        "cuisine": "italian"
      }
    },
    {
      "id": "osm-4474667562",
      "osmId": 4474667562,
      "name": "Yamato",
      "nameTh": null,
      "lat": 13.7319234,
      "lng": 100.5763319,
      "category": "restaurant",
      "profile": {
        "outdoorness": 0.2,
        "indoorness": 0.8,
        "shade": 0.1,
        "covered": 0.85,
        "rainEnjoyment": 0.55,
        "heatTolerance": 0.8,
        "confidence": 0.55
      },
      "openingHoursRaw": null,
      "tags": {}
    },
    {
      "id": "osm-4474753720",
      "osmId": 4474753720,
      "name": "Broccoli Revolution",
      "nameTh": null,
      "lat": 13.7266758,
      "lng": 100.5753771,
      "category": "restaurant",
      "profile": {
        "outdoorness": 0.2,
        "indoorness": 0.8,
        "shade": 0.1,
        "covered": 0.85,
        "rainEnjoyment": 0.55,
        "heatTolerance": 0.8,
        "confidence": 0.55
      },
      "openingHoursRaw": "10:00-21:00",
      "tags": {
        "outdoor_seating": "no",
        "cuisine": "thai;coffee_shop;juice;burger;salad"
      }
    },
    {
      "id": "osm-4474753721",
      "osmId": 4474753721,
      "name": "แซว",
      "nameTh": "แซว",
      "lat": 13.7269521,
      "lng": 100.5753996,
      "category": "restaurant",
      "profile": {
        "outdoorness": 0.2,
        "indoorness": 0.8,
        "shade": 0.1,
        "covered": 0.85,
        "rainEnjoyment": 0.55,
        "heatTolerance": 0.8,
        "confidence": 0.55
      },
      "openingHoursRaw": null,
      "tags": {}
    },
    {
      "id": "osm-4475356237",
      "osmId": 4475356237,
      "name": "Becco Fino",
      "nameTh": null,
      "lat": 13.7261347,
      "lng": 100.5802375,
      "category": "restaurant",
      "profile": {
        "outdoorness": 0.2,
        "indoorness": 0.8,
        "shade": 0.1,
        "covered": 0.85,
        "rainEnjoyment": 0.55,
        "heatTolerance": 0.8,
        "confidence": 0.55
      },
      "openingHoursRaw": null,
      "tags": {
        "cuisine": "italian"
      }
    },
    {
      "id": "osm-4475356244",
      "osmId": 4475356244,
      "name": "Seoul",
      "nameTh": null,
      "lat": 13.7252756,
      "lng": 100.5795912,
      "category": "restaurant",
      "profile": {
        "outdoorness": 0.2,
        "indoorness": 0.8,
        "shade": 0.1,
        "covered": 0.85,
        "rainEnjoyment": 0.55,
        "heatTolerance": 0.8,
        "confidence": 0.55
      },
      "openingHoursRaw": null,
      "tags": {
        "cuisine": "barbecue"
      }
    },
    {
      "id": "osm-4475532647",
      "osmId": 4475532647,
      "name": "Bacchus",
      "nameTh": null,
      "lat": 13.7284852,
      "lng": 100.5701045,
      "category": "bar",
      "profile": {
        "outdoorness": 0.3,
        "indoorness": 0.7,
        "shade": 0.2,
        "covered": 0.7,
        "rainEnjoyment": 0.55,
        "heatTolerance": 0.65,
        "confidence": 0.5
      },
      "openingHoursRaw": null,
      "tags": {}
    },
    {
      "id": "osm-4497856292",
      "osmId": 4497856292,
      "name": "นารา",
      "nameTh": "นารา",
      "lat": 13.7323208,
      "lng": 100.5695391,
      "category": "restaurant",
      "profile": {
        "outdoorness": 0.2,
        "indoorness": 0.8,
        "shade": 0.1,
        "covered": 0.85,
        "rainEnjoyment": 0.55,
        "heatTolerance": 0.8,
        "confidence": 0.55
      },
      "openingHoursRaw": null,
      "tags": {
        "cuisine": "thai"
      }
    },
    {
      "id": "osm-4528014490",
      "osmId": 4528014490,
      "name": "The pikture gallery",
      "nameTh": null,
      "lat": 13.7320564,
      "lng": 100.575384,
      "category": "gallery",
      "profile": {
        "outdoorness": 0.1,
        "indoorness": 0.9,
        "shade": 0.05,
        "covered": 0.95,
        "rainEnjoyment": 0.65,
        "heatTolerance": 0.85,
        "confidence": 0.65
      },
      "openingHoursRaw": null,
      "tags": {}
    },
    {
      "id": "osm-4589290041",
      "osmId": 4589290041,
      "name": "Sing Sing Theater",
      "nameTh": null,
      "lat": 13.7281338,
      "lng": 100.5735064,
      "category": "bar",
      "profile": {
        "outdoorness": 0.3,
        "indoorness": 0.7,
        "shade": 0.2,
        "covered": 0.7,
        "rainEnjoyment": 0.55,
        "heatTolerance": 0.65,
        "confidence": 0.5
      },
      "openingHoursRaw": null,
      "tags": {}
    },
    {
      "id": "osm-4613545489",
      "osmId": 4613545489,
      "name": "ก๋วยเตี๋ยวลูกชิ้นปลา",
      "nameTh": null,
      "lat": 13.7465768,
      "lng": 100.588036,
      "category": "restaurant",
      "profile": {
        "outdoorness": 0.2,
        "indoorness": 0.8,
        "shade": 0.1,
        "covered": 0.85,
        "rainEnjoyment": 0.55,
        "heatTolerance": 0.8,
        "confidence": 0.55
      },
      "openingHoursRaw": "Mo-Sa 09:00-14:00",
      "tags": {
        "cuisine": "thai;noodles"
      }
    },
    {
      "id": "osm-4708480689",
      "osmId": 4708480689,
      "name": "Cocotte Farm Roast & Winery",
      "nameTh": null,
      "lat": 13.7374985,
      "lng": 100.5701041,
      "category": "restaurant",
      "profile": {
        "outdoorness": 0.2,
        "indoorness": 0.8,
        "shade": 0.1,
        "covered": 0.85,
        "rainEnjoyment": 0.55,
        "heatTolerance": 0.8,
        "confidence": 0.55
      },
      "openingHoursRaw": null,
      "tags": {
        "cuisine": "french"
      }
    },
    {
      "id": "osm-4772856321",
      "osmId": 4772856321,
      "name": "Kaizen Coffee",
      "nameTh": "Kaizen Coffee Co.",
      "lat": 13.7397499,
      "lng": 100.589555,
      "category": "restaurant",
      "profile": {
        "outdoorness": 0.4,
        "indoorness": 0.8,
        "shade": 0.2,
        "covered": 0.85,
        "rainEnjoyment": 0.55,
        "heatTolerance": 0.8,
        "confidence": 0.55
      },
      "openingHoursRaw": "Mo-Su 08:00-18:00",
      "tags": {
        "outdoor_seating": "yes",
        "cuisine": "coffee_shop;cafetaria"
      }
    },
    {
      "id": "osm-4810177821",
      "osmId": 4810177821,
      "name": "Tum Yum Seed",
      "nameTh": null,
      "lat": 13.7302296,
      "lng": 100.5702174,
      "category": "restaurant",
      "profile": {
        "outdoorness": 0.2,
        "indoorness": 0.8,
        "shade": 0.1,
        "covered": 0.85,
        "rainEnjoyment": 0.55,
        "heatTolerance": 0.8,
        "confidence": 0.55
      },
      "openingHoursRaw": "Mo-Su 07:00-22:00",
      "tags": {
        "cuisine": "thai"
      }
    },
    {
      "id": "osm-4827381870",
      "osmId": 4827381870,
      "name": "Bonchon Chicken",
      "nameTh": null,
      "lat": 13.7335354,
      "lng": 100.5813739,
      "category": "restaurant",
      "profile": {
        "outdoorness": 0.2,
        "indoorness": 0.8,
        "shade": 0.1,
        "covered": 0.85,
        "rainEnjoyment": 0.55,
        "heatTolerance": 0.8,
        "confidence": 0.55
      },
      "openingHoursRaw": null,
      "tags": {
        "cuisine": "chicken;korean;sushi"
      }
    },
    {
      "id": "osm-4830931549",
      "osmId": 4830931549,
      "name": "Hong Bao 39",
      "nameTh": null,
      "lat": 13.7370048,
      "lng": 100.569918,
      "category": "restaurant",
      "profile": {
        "outdoorness": 0.2,
        "indoorness": 0.8,
        "shade": 0.1,
        "covered": 0.85,
        "rainEnjoyment": 0.55,
        "heatTolerance": 0.8,
        "confidence": 0.55
      },
      "openingHoursRaw": null,
      "tags": {
        "cuisine": "chinese"
      }
    },
    {
      "id": "osm-4846950522",
      "osmId": 4846950522,
      "name": "ต้งเม้ง",
      "nameTh": "ต้งเม้ง",
      "lat": 13.7266977,
      "lng": 100.5751776,
      "category": "restaurant",
      "profile": {
        "outdoorness": 0.2,
        "indoorness": 0.8,
        "shade": 0.1,
        "covered": 0.85,
        "rainEnjoyment": 0.55,
        "heatTolerance": 0.8,
        "confidence": 0.55
      },
      "openingHoursRaw": null,
      "tags": {}
    },
    {
      "id": "osm-5091973076",
      "osmId": 5091973076,
      "name": "d'Ark",
      "nameTh": null,
      "lat": 13.7320533,
      "lng": 100.5693989,
      "category": "restaurant",
      "profile": {
        "outdoorness": 0.2,
        "indoorness": 0.8,
        "shade": 0.1,
        "covered": 0.85,
        "rainEnjoyment": 0.55,
        "heatTolerance": 0.8,
        "confidence": 0.55
      },
      "openingHoursRaw": "Mo-Th, Su 10:00-22:00; Fr, Sa 10:00-23:00",
      "tags": {
        "cuisine": "international"
      }
    },
    {
      "id": "osm-5091973077",
      "osmId": 5091973077,
      "name": "El Tapeo",
      "nameTh": null,
      "lat": 13.7310067,
      "lng": 100.5814448,
      "category": "bar",
      "profile": {
        "outdoorness": 0.3,
        "indoorness": 0.7,
        "shade": 0.2,
        "covered": 0.7,
        "rainEnjoyment": 0.55,
        "heatTolerance": 0.65,
        "confidence": 0.5
      },
      "openingHoursRaw": "Tu-Su 11:30-21:00",
      "tags": {
        "cuisine": "tapas;wine"
      }
    },
    {
      "id": "osm-5109057126",
      "osmId": 5109057126,
      "name": "Roots",
      "nameTh": null,
      "lat": 13.7351527,
      "lng": 100.58214,
      "category": "cafe",
      "profile": {
        "outdoorness": 0.15,
        "indoorness": 0.85,
        "shade": 0.1,
        "covered": 0.9,
        "rainEnjoyment": 0.75,
        "heatTolerance": 0.85,
        "confidence": 0.6
      },
      "openingHoursRaw": "Mo-Su 08:00-20:00",
      "tags": {}
    },
    {
      "id": "osm-5109069824",
      "osmId": 5109069824,
      "name": "Dolly Churro",
      "nameTh": null,
      "lat": 13.7351039,
      "lng": 100.5821711,
      "category": "cafe",
      "profile": {
        "outdoorness": 0.15,
        "indoorness": 0.85,
        "shade": 0.1,
        "covered": 0.9,
        "rainEnjoyment": 0.75,
        "heatTolerance": 0.85,
        "confidence": 0.6
      },
      "openingHoursRaw": null,
      "tags": {}
    },
    {
      "id": "osm-5109099921",
      "osmId": 5109099921,
      "name": "Hungry Poke",
      "nameTh": null,
      "lat": 13.7351099,
      "lng": 100.5821261,
      "category": "restaurant",
      "profile": {
        "outdoorness": 0.2,
        "indoorness": 0.8,
        "shade": 0.1,
        "covered": 0.85,
        "rainEnjoyment": 0.55,
        "heatTolerance": 0.8,
        "confidence": 0.55
      },
      "openingHoursRaw": null,
      "tags": {
        "cuisine": "poke"
      }
    },
    {
      "id": "osm-5109099922",
      "osmId": 5109099922,
      "name": "The Lobster Lab",
      "nameTh": null,
      "lat": 13.7349726,
      "lng": 100.5821304,
      "category": "restaurant",
      "profile": {
        "outdoorness": 0.2,
        "indoorness": 0.8,
        "shade": 0.1,
        "covered": 0.85,
        "rainEnjoyment": 0.55,
        "heatTolerance": 0.8,
        "confidence": 0.55
      },
      "openingHoursRaw": null,
      "tags": {
        "cuisine": "lobster"
      }
    },
    {
      "id": "osm-5124642321",
      "osmId": 5124642321,
      "name": "Sabai Jai Gai Yang",
      "nameTh": null,
      "lat": 13.7292595,
      "lng": 100.5859054,
      "category": "restaurant",
      "profile": {
        "outdoorness": 0.2,
        "indoorness": 0.8,
        "shade": 0.1,
        "covered": 0.85,
        "rainEnjoyment": 0.55,
        "heatTolerance": 0.8,
        "confidence": 0.55
      },
      "openingHoursRaw": null,
      "tags": {}
    },
    {
      "id": "osm-5181818622",
      "osmId": 5181818622,
      "name": "The Coffee Club",
      "nameTh": null,
      "lat": 13.7320292,
      "lng": 100.5765768,
      "category": "cafe",
      "profile": {
        "outdoorness": 0.15,
        "indoorness": 0.85,
        "shade": 0.1,
        "covered": 0.9,
        "rainEnjoyment": 0.75,
        "heatTolerance": 0.85,
        "confidence": 0.6
      },
      "openingHoursRaw": null,
      "tags": {
        "cuisine": "coffee_shop"
      }
    },
    {
      "id": "osm-5181818623",
      "osmId": 5181818623,
      "name": "Dark",
      "nameTh": null,
      "lat": 13.7323116,
      "lng": 100.576405,
      "category": "cafe",
      "profile": {
        "outdoorness": 0.15,
        "indoorness": 0.85,
        "shade": 0.1,
        "covered": 0.9,
        "rainEnjoyment": 0.75,
        "heatTolerance": 0.85,
        "confidence": 0.6
      },
      "openingHoursRaw": null,
      "tags": {}
    },
    {
      "id": "osm-5327602225",
      "osmId": 5327602225,
      "name": "ร้านคาเฟ่",
      "nameTh": null,
      "lat": 13.7297718,
      "lng": 100.5720377,
      "category": "cafe",
      "profile": {
        "outdoorness": 0.15,
        "indoorness": 0.85,
        "shade": 0.1,
        "covered": 0.9,
        "rainEnjoyment": 0.75,
        "heatTolerance": 0.85,
        "confidence": 0.6
      },
      "openingHoursRaw": null,
      "tags": {}
    },
    {
      "id": "osm-5327641721",
      "osmId": 5327641721,
      "name": "ร้านอาหาร",
      "nameTh": null,
      "lat": 13.7316371,
      "lng": 100.5724877,
      "category": "restaurant",
      "profile": {
        "outdoorness": 0.2,
        "indoorness": 0.8,
        "shade": 0.1,
        "covered": 0.85,
        "rainEnjoyment": 0.55,
        "heatTolerance": 0.8,
        "confidence": 0.55
      },
      "openingHoursRaw": null,
      "tags": {}
    },
    {
      "id": "osm-5444296337",
      "osmId": 5444296337,
      "name": "Waterworks Coffee",
      "nameTh": null,
      "lat": 13.7302722,
      "lng": 100.5811998,
      "category": "cafe",
      "profile": {
        "outdoorness": 0.15,
        "indoorness": 0.85,
        "shade": 0.1,
        "covered": 0.9,
        "rainEnjoyment": 0.75,
        "heatTolerance": 0.85,
        "confidence": 0.6
      },
      "openingHoursRaw": "Mo-Su 07:45-18:00",
      "tags": {
        "cuisine": "coffee_shop"
      }
    },
    {
      "id": "osm-5483920629",
      "osmId": 5483920629,
      "name": "Luca Moto",
      "nameTh": null,
      "lat": 13.7327543,
      "lng": 100.5815294,
      "category": "restaurant",
      "profile": {
        "outdoorness": 0.2,
        "indoorness": 0.8,
        "shade": 0.1,
        "covered": 0.85,
        "rainEnjoyment": 0.55,
        "heatTolerance": 0.8,
        "confidence": 0.55
      },
      "openingHoursRaw": null,
      "tags": {
        "cuisine": "international"
      }
    },
    {
      "id": "osm-5486338221",
      "osmId": 5486338221,
      "name": "Rabbit Hole",
      "nameTh": null,
      "lat": 13.7298981,
      "lng": 100.5811206,
      "category": "bar",
      "profile": {
        "outdoorness": 0.3,
        "indoorness": 0.7,
        "shade": 0.2,
        "covered": 0.7,
        "rainEnjoyment": 0.55,
        "heatTolerance": 0.65,
        "confidence": 0.5
      },
      "openingHoursRaw": null,
      "tags": {}
    },
    {
      "id": "osm-5501202843",
      "osmId": 5501202843,
      "name": "Délices de capove",
      "nameTh": null,
      "lat": 13.7364304,
      "lng": 100.5877848,
      "category": "restaurant",
      "profile": {
        "outdoorness": 0.2,
        "indoorness": 0.8,
        "shade": 0.1,
        "covered": 0.85,
        "rainEnjoyment": 0.55,
        "heatTolerance": 0.8,
        "confidence": 0.55
      },
      "openingHoursRaw": "Mo-Su 17:30-23:00",
      "tags": {
        "cuisine": "italian;pizza"
      }
    },
    {
      "id": "osm-5601349745",
      "osmId": 5601349745,
      "name": "Nowhere",
      "nameTh": null,
      "lat": 13.7261772,
      "lng": 100.5854876,
      "category": "restaurant",
      "profile": {
        "outdoorness": 0.2,
        "indoorness": 0.8,
        "shade": 0.1,
        "covered": 0.85,
        "rainEnjoyment": 0.55,
        "heatTolerance": 0.8,
        "confidence": 0.55
      },
      "openingHoursRaw": null,
      "tags": {
        "cuisine": "western"
      }
    },
    {
      "id": "osm-5614472825",
      "osmId": 5614472825,
      "name": "Nobu",
      "nameTh": null,
      "lat": 13.7334872,
      "lng": 100.5826114,
      "category": "restaurant",
      "profile": {
        "outdoorness": 0.2,
        "indoorness": 0.8,
        "shade": 0.1,
        "covered": 0.85,
        "rainEnjoyment": 0.55,
        "heatTolerance": 0.8,
        "confidence": 0.55
      },
      "openingHoursRaw": null,
      "tags": {
        "cuisine": "sushi"
      }
    },
    {
      "id": "osm-5614482723",
      "osmId": 5614482723,
      "name": "Angoon's Garden",
      "nameTh": null,
      "lat": 13.7272998,
      "lng": 100.580341,
      "category": "park",
      "profile": {
        "outdoorness": 0.95,
        "indoorness": 0.05,
        "shade": 0.4,
        "covered": 0.05,
        "rainEnjoyment": 0.05,
        "heatTolerance": 0.3,
        "confidence": 0.6
      },
      "openingHoursRaw": null,
      "tags": {}
    },
    {
      "id": "osm-5981001286",
      "osmId": 5981001286,
      "name": "Sit and Wonder",
      "nameTh": null,
      "lat": 13.7252751,
      "lng": 100.5800989,
      "category": "restaurant",
      "profile": {
        "outdoorness": 0.2,
        "indoorness": 0.8,
        "shade": 0.1,
        "covered": 0.85,
        "rainEnjoyment": 0.55,
        "heatTolerance": 0.8,
        "confidence": 0.55
      },
      "openingHoursRaw": null,
      "tags": {
        "cuisine": "thai"
      }
    },
    {
      "id": "osm-6109404085",
      "osmId": 6109404085,
      "name": "Iron Balls",
      "nameTh": null,
      "lat": 13.728151,
      "lng": 100.573137,
      "category": "bar",
      "profile": {
        "outdoorness": 0.3,
        "indoorness": 0.7,
        "shade": 0.2,
        "covered": 0.7,
        "rainEnjoyment": 0.55,
        "heatTolerance": 0.65,
        "confidence": 0.5
      },
      "openingHoursRaw": null,
      "tags": {}
    },
    {
      "id": "osm-6163744214",
      "osmId": 6163744214,
      "name": "Pranaa",
      "nameTh": null,
      "lat": 13.7376994,
      "lng": 100.5696596,
      "category": "restaurant",
      "profile": {
        "outdoorness": 0.2,
        "indoorness": 0.8,
        "shade": 0.1,
        "covered": 0.85,
        "rainEnjoyment": 0.55,
        "heatTolerance": 0.8,
        "confidence": 0.55
      },
      "openingHoursRaw": null,
      "tags": {}
    },
    {
      "id": "osm-6163760189",
      "osmId": 6163760189,
      "name": "คาเฟ่ อเมซอน",
      "nameTh": "คาเฟ่ อเมซอน",
      "lat": 13.7365493,
      "lng": 100.573225,
      "category": "cafe",
      "profile": {
        "outdoorness": 0.15,
        "indoorness": 0.85,
        "shade": 0.1,
        "covered": 0.9,
        "rainEnjoyment": 0.75,
        "heatTolerance": 0.85,
        "confidence": 0.6
      },
      "openingHoursRaw": null,
      "tags": {
        "cuisine": "coffee_shop"
      }
    },
    {
      "id": "osm-6164141162",
      "osmId": 6164141162,
      "name": "Noi Kwa Roi Bar & Restaurant (Sukhumvit 43)",
      "nameTh": null,
      "lat": 13.7293421,
      "lng": 100.5725295,
      "category": "restaurant",
      "profile": {
        "outdoorness": 0.4,
        "indoorness": 0.8,
        "shade": 0.2,
        "covered": 0.85,
        "rainEnjoyment": 0.55,
        "heatTolerance": 0.8,
        "confidence": 0.55
      },
      "openingHoursRaw": "Mo-Su 10:00-1:00",
      "tags": {
        "outdoor_seating": "yes",
        "cuisine": "pizza;Thai"
      }
    }
  ]
}